TIME,DISTANCE,MARKERS,SPEED,SPEEDANGLE,SPEEDLAT,VELOCITY,YAWRATE,ACCELERATIONLAT,ACCELERATIONLONG,ACCELERATIONVERT,SUSPENSIONLOADFL,SUSPENSIONLOADFR,SUSPENSIONLOADRL,SUSPENSIONLOADRR,SUSPENSIONTRAVELFL,SUSPENSIONTRAVELFR,SUSPENSIONTRAVELRL,SUSPENSIONTRAVELRR,SUSPENSIONCONTACTDEPTHFL,SUSPENSIONCONTACTDEPTHFR,SUSPENSIONCONTACTDEPTHRL,SUSPENSIONCONTACTDEPTHRR,SUSPENSIONCONTACTSPEEDFL,SUSPENSIONCONTACTSPEEDFR,SUSPENSIONCONTACTSPEEDRL,SUSPENSIONCONTACTSPEEDRR,SUSPENSIONSPRINGFORCEFL,SUSPENSIONSPRINGFORCEFR,SUSPENSIONSPRINGFORCERL,SUSPENSIONSPRINGFORCERR,SUSPENSIONDAMPERFORCEFL,SUSPENSIONDAMPERFORCEFR,SUSPENSIONDAMPERFORCERL,SUSPENSIONDAMPERFORCERR,WHEELSPINFL,WHEELSPINFR,WHEELSPINRL,WHEELSPINRR,WHEELSHAFTTORQUEFL,WHEELSHAFTTORQUEFR,WHEELSHAFTTORQUERL,WHEELSHAFTTORQUERR,WHEELBRAKETORQUEFL,WHEELBRAKETORQUEFR,WHEELBRAKETORQUERL,WHEELBRAKETORQUERR,TIRESLIPLONGFL,TIRESLIPLONGFR,TIRESLIPLONGRL,TIRESLIPLONGRR,TIRESLIPLATFL,TIRESLIPLATFR,TIRESLIPLATRL,TIRESLIPLATRR,TIREFORCELONGFL,TIREFORCELONGFR,TIREFORCELONGRL,TIREFORCELONGRR,TIREFORCELATFL,TIREFORCELATFR,TIREFORCELATRL,TIREFORCELATRR,RIDEHEIGHTFRONT,RIDEHEIGHTREAR,ROLLANGLEFRONT,ROLLANGLEREAR,GROUNDSLOPE,GROUNDGRADE,GEAR,STEERINGANGLE,THROTTLE,BRAKEPRESSURE,TORQUEDIFFFRONT,TORQUEDIFFREAR,SPEEDDIFFFRONT,SPEEDDIFFREAR,PITCHRATE,ROLLRATE,SLIPRATIOFL,SLIPRATIOFR,SLIPRATIORL,SLIPRATIORR,SLIPANGLEFL,SLIPANGLEFR,SLIPANGLERL,SLIPANGLERR,LAPDISTANCE,TOTALDISTANCE,FORCEFEEDBACKFORCERATIO,FORCEFEEDBACKDAMPERRATIO,POSITIONX,POSITIONY,POSITIONZ,MOTORRPMFRONT,MOTORRPMREAR,POWERELECTRICALFRONT,POWERELECTRICALREAR,POWERELECTRICALTOTAL,POWERBALANCE,WHEELTORQUEBALANCE,EFFICIENCYFRONT,EFFICIENCYREAR,TORQUEMECHANICALFRONT,TORQUEMECHANICALREAR,TORQUEROTORFRONT,TORQUEROTORREAR,919SPEED,IDRSPEED,919TRAVELEDDISTANCE,IDRTRAVELEDDISTANCE,919TIMEDIFF,IDRTIMEDIFF
0,0,0,0,0,0,0,0,0,0,0,0,0,0,0,0.06,0.06,0.07,0.07,0,0,0,0,0,0,0,0,0,0,0,0,0,0,0,0,0,0,0,0,0,0,0,0,0,0,0,0,0,0,0,0,0,0,0,0,0,0,0,0,0,0,0,0,0.03,0.04,0,0,0.224686,0.003922,0,0,0,0,0,0,0,0,0,0,NaN,NaN,NaN,NaN,NaN,NaN,NaN,NaN,0,0,NaN,NaN,10.1,0.47,195.56,0,0,0,0,0,0.5,0.5,0,0,0,0,0,0,0,0,0,0,0,0
0.01,0,0,0,0,0,0,0,0,-0.000088,-9.810049,0,0,0,0,0.06,0.06,0.07,0.07,0,0,0,0,0,0,0,0,0,0,0,0,0,0,0,0,0,0,0,0,0,0,0,0,0,0,0,0,0,0,0,0,0,0,0,0,0,0,0,0,0,0,0,0,0.03,0.04,0,0,0.224686,0.003922,0,0,0,0,0,0,0,0,0,0,NaN,NaN,NaN,NaN,NaN,NaN,NaN,NaN,0,0,NaN,NaN,10.1,0.47,195.56,0,0,0,0,0,0.5,0.5,0,0,0,0,0,0,0,0,0,0,0,0
0.02,0,0,0,0,0,0,0,0,-0.000446,-9.810239,0,0,0,0,0.06,0.06,0.07,0.07,0,0,0,0,0,0,0,0,0,0,0,0,0,0,0,0,0,0,0,0,0,0,0,0,0,0,0,0,0,0,0,0,0,0,0,0,0,0,0,0,0,0,0,0,0.03,0.04,0,0,0.224686,0.003922,0,0,0,0,0,0,0,0,-0.000001,0,NaN,NaN,NaN,NaN,NaN,NaN,NaN,NaN,0,0,NaN,NaN,10.1,0.467842,195.56,0,0,0,0,0,0.5,0.5,0,0,0,0,0,0,0,0,0,0,0.018,0.018
0.03,0,0,0,0,0,0,0,0,-0.001079,-9.810581,0,0,0,0,0.06,0.06,0.07,0.07,0,0,0,0,0,0,0,0,0,0,0,0,0,0,0,0,0,0,0,0,0,0,0,0,0,0,0,0,0,0,0,0,0,0,0,0,0,0,0,0,0,0,0,0,0.03,0.04,0,0,0.224686,0.003922,0,0,0,0,0,0,0,0,-0.000001,0,NaN,NaN,NaN,NaN,NaN,NaN,NaN,NaN,0,0,NaN,NaN,10.1,0.467842,195.56,0,0,0,0,0,0.5,0.5,0,0,0,0,0,0,0,0,0,0,0.018,0.018
0.04,0,0,0,0,0,0,0,0,-0.001986,-9.811073,0,0,0,0,0.06,0.06,0.07,0.07,0,0,0,0,0,0,0,0,0,0,0,0,0,0,0,0,0,0,0,0,0,0,0,0,0,0,0,0,0,0,0,0,0,0,0,0,0,0,0,0,0,0,0,0,0.03,0.04,0,0,0.224686,0.003922,0,0,0,0,0,0,0,0,-0.000011,0,NaN,NaN,NaN,NaN,NaN,NaN,NaN,NaN,0,0,NaN,NaN,10.1,0.461759,195.56,0,0,0,0,0,0.5,0.5,0,0,0,0,0,0,0,0,0,0,0.038,0.038
0.05,0,0,0,0,0,0,0,0,-0.003168,-9.811699,0,0,0,0,0.06,0.06,0.07,0.07,0,0,0,0,0,0,0,0,0,0,0,0,0,0,0,0,0,0,0,0,0,0,0,0,0,0,0,0,0,0,0,0,0,0,0,0,0,0,0,0,0,0,0,0,0.03,0.04,0,0,0.22467,0.003921,0,0,0,0,0,0,0,0,-0.000011,0,NaN,NaN,NaN,NaN,NaN,NaN,NaN,NaN,0,0,NaN,NaN,10.1,0.461759,195.56,0,0,0,0,0,0.5,0.5,0,0,0,0,0,0,0,0,0,0,0.038,0.038
0.06,0,0,0,0,0,0,0,0,-0.004624,-9.812474,0,0,0,0,0.06,0.06,0.07,0.07,0,0,0,0,0,0,0,0,0,0,0,0,0,0,0,0,0,0,0,0,0,0,0,0,0,0,0,0,0,0,0,0,0,0,0,0,0,0,0,0,0,0,0,0,0.03,0.04,0,0,0.224655,0.003921,0,0,0,0,0,0,0,0,-0.000039,0,NaN,NaN,NaN,NaN,NaN,NaN,NaN,NaN,0,0,NaN,NaN,10.1,0.451752,195.56,0,0,0,0,0,0.5,0.5,0,0,0,0,0,0,0,0,0,0,0.058,0.058
0.07,0,0,0,0,0,0,0,0,-0.006353,-9.813428,0,0,0,0,0.06,0.06,0.07,0.07,0,0,0,0,0,0,0,0,0,0,0,0,0,0,0,0,0,0,0,0,0,0,0,0,0,0,0,0,0,0,0,0,0,0,0,0,0,0,0,0,0,0,0,0,0.03,0.04,0,0,0.224625,0.00392,0,0,0,0,0,0,0,0,-0.000039,0,NaN,NaN,NaN,NaN,NaN,NaN,NaN,NaN,0,0,NaN,NaN,10.1,0.451752,195.56,0,0,0,0,0,0.5,0.5,0,0,0,0,0,0,0,0,0,0,0.058,0.058
0.08,0,0,0,0,0,0,0,0,-0.008356,-9.814501,0,0,0,0,0.06,0.06,0.07,0.07,0,0,0,0,0,0,0,0,0,0,0,0,0,0,0,0,0,0,0,0,0,0,0,0,0,0,0,0,0,0,0,0,0,0,0,0,0,0,0,0,0,0,0,0,0.03,0.04,0,0,0.224579,0.00392,0,0,0,0,0,0,0,0,-0.000094,0,NaN,NaN,NaN,NaN,NaN,NaN,NaN,NaN,0,0,NaN,NaN,10.1,0.437818,195.56,0,0,0,0,0,0.5,0.5,0,0,0,0,0,0,0,0,0,0,0.078,0.078
0.09,0,0,0,0,0,0,0,0,-0.01063,-9.815722,0,0,0,0,0.06,0.06,0.07,0.07,0,0,0,0,0,0,0,0,0,0,0,0,0,0,0,0,0,0,0,0,0,0,0,0,0,0,0,0,0,0,0,0,0,0,0,0,0,0,0,0,0,0,0,0,0.03,0.04,0,0,0.22451,0.003918,0,0,0,0,0,0,0,0,-0.000094,0,NaN,NaN,NaN,NaN,NaN,NaN,NaN,NaN,0,0,NaN,NaN,10.1,0.437818,195.56,0,0,0,0,0,0.5,0.5,0,0,0,0,0,0,0,0,0,0,0.078,0.078
0.1,0,0,-0.00044,180,0,0.981239,0,0,-0.013176,-9.817123,0,0,0,0,0.06,0.06,0.07,0.07,0,0,0,0,0,0,0,0,0,0,0,0,0,0,0,0,0,0,0,0,0,0,0,0,0,0,0,0,0,0,0,0,0,0,0,0,0,0,0,0,0,0,0,0,0.03,0.04,0,0,0.224419,0.003917,0,0,0,0,0,0,0,0,-0.000185,0,NaN,NaN,NaN,NaN,NaN,NaN,NaN,NaN,0,0,NaN,NaN,10.1,0.419957,195.56,0,0,0,0,0,0.5,0.5,0,0,0,0,0,0,0,0,0,0,0.098,0.098
0.11,0,0,-0.00044,180,0,0.981239,0,0,-0.015992,-9.818673,0,0,0,0,0.06,0.06,0.07,0.07,0,0,0,0,0,0,0,0,0,0,0,0,0,0,0,0,0,0,0,0,0,0,0,0,0,0,0,0,0,0,0,0,0,0,0,0,0,0,0,0,0,0,0,0,0.03,0.04,0,0,0.224289,0.003915,0,0,0,0,0,0,0,0,-0.000185,0,NaN,NaN,NaN,NaN,NaN,NaN,NaN,NaN,0,0,NaN,NaN,10.1,0.419957,195.56,0,0,0,0,0,0.5,0.5,0,0,0,0,0,0,0,0,0,0,0.098,0.098
0.12,0,0,-0.00044,180,0,0.981239,0,0,-0.019077,-9.820342,0,0,0,0,0.06,0.06,0.07,0.07,0,0,0,0,0,0,0,0,0,0,0,0,0,0,0,0,0,0,0,0,0,0,0,0,0,0,0,0,0,0,0,0,0,0,0,0,0,0,0,0,0,0,0,0,0.03,0.04,0,0,0.224121,0.003912,0,0,0,0,0,0,0,0,-0.000322,0,NaN,NaN,NaN,NaN,NaN,NaN,NaN,NaN,0,0,NaN,NaN,10.1,0.398166,195.56,0,0,0,0,0,0.5,0.5,0,0,0,0,0,0,0,0,0,0,0.118,0.118
0.13,0,0,-0.00044,180,0,0.981239,0,0,-0.022431,-9.82213,0,0,0,0,0.06,0.06,0.07,0.07,0,0,0,0,0,0,0,0,0,0,0,0,0,0,0,0,0,0,0,0,0,0,0,0,0,0,0,0,0,0,0,0,0,0,0,0,0,0,0,0,0,0,0,0,0.03,0.04,0,0,0.223908,0.003908,0,0,0,0,0,0,0,0,-0.000322,0,NaN,NaN,NaN,NaN,NaN,NaN,NaN,NaN,0,0,NaN,NaN,10.1,0.398166,195.56,0,0,0,0,0,0.5,0.5,0,0,0,0,0,0,0,0,0,0,0.118,0.118
0.14,0,0,-0.00044,180,0,0.981239,0,0,-0.026052,-9.824158,0,0,0,0,0.06,0.06,0.07,0.07,0,0,0,0,0,0,0,0,0,0,0,0,0,0,0,0,0,0,0,0,0,0,0,0,0,0,0,0,0,0,0,0,0,0,0,0,0,0,0,0,0,0,0,0,0.03,0.04,0,0,0.22364,0.003903,0,0,0,0,0,0,0,0,-0.000514,0,NaN,NaN,NaN,NaN,NaN,NaN,NaN,NaN,0.000015,0.000015,NaN,NaN,10.1,0.372442,195.56,0,0,0,0,0,0.5,0.5,0,0,0,0,0,0,0.000015,0.000015,0.000015,0.000015,0.138,0.138
0.15,0,0,-0.00044,180,0,0.981239,0,0,-0.029938,-9.826184,0,0,0,0,0.06,0.06,0.07,0.07,0,0,0,0,0,0,0,0,0,0,0,0,0,0,0,0,0,0,0,0,0,0,0,0,0,0,0,0,0,0,0,0,0,0,0,0,0,0,0,0,0,0,0,0,0.03,0.04,0,0,0.223305,0.003897,0,0,0,0,0,0,0,0,-0.000514,0,NaN,NaN,NaN,NaN,NaN,NaN,NaN,NaN,0.000015,0.000015,NaN,NaN,10.1,0.372442,195.56,0,0,0,0,0,0.5,0.5,0,0,0,0,0,0,0.000015,0.000015,0.000015,0.000015,0.138,0.138
0.16,0,0,-0.00044,180,0,0.981239,0,0,-0.034089,-9.828568,0,0,0,0,0.06,0.06,0.07,0.07,0,0,0,0,0,0,0,0,0,0,0,0,0,0,0,0,0,0,0,0,0,0,0,0,0,0,0,0,0,0,0,0,0,0,0,0,0,0,0,0,0,0,0,0,0.03,0.04,0,0,0.222893,0.00389,0,0,0,0,0,0,0,0,-0.000769,0,NaN,NaN,NaN,NaN,NaN,NaN,NaN,NaN,0.000015,0.000015,NaN,NaN,10.1,0.342783,195.56,0,0,0,0,0,0.5,0.5,0,0,0,0,0,0,0.000015,0.000015,0.000015,0.000015,0.158,0.158
0.17,0,0,-0.00044,180,0,0.981239,0,0,-0.038503,-9.830954,0,0,0,0,0.06,0.06,0.07,0.07,0,0,0,0,0,0,0,0,0,0,0,0,0,0,0,0,0,0,0,0,0,0,0,0,0,0,0,0,0,0,0,0,0,0,0,0,0,0,0,0,0,0,0,0,0.03,0.04,0,0,0.222405,0.003882,0,0,0,0,0,0,0,0,-0.000769,0,NaN,NaN,NaN,NaN,NaN,NaN,NaN,NaN,0.000015,0.000015,NaN,NaN,10.1,0.342783,195.56,0,0,0,0,0,0.5,0.5,0,0,0,0,0,0,0.000015,0.000015,0.000015,0.000015,0.158,0.158
0.18,0,0,-0.00044,180,0,0.981239,0,0,-0.043178,-9.833457,0,0,0,0,0.06,0.06,0.07,0.07,0,0,0,0,0,0,0,0,0,0,0,0,0,0,0,0,0,0,0,0,0,0,0,0,0,0,0,0,0,0,0,0,0,0,0,0,0,0,0,0,0,0,0,0,0.03,0.04,0,0,0.221809,0.003871,0,0,0,0,0,0,0,0,-0.001098,0,NaN,NaN,NaN,NaN,NaN,NaN,NaN,NaN,0.000031,0.000031,NaN,NaN,10.1,0.309185,195.56,0,0,0,0,0,0.5,0.5,0,0,0,0,0,0,0.000031,0.000031,0.000031,0.000031,0.177999,0.177999
0.19,0,0,-0.00044,180,0,0.981239,0,0,-0.048112,-9.8362,0,0,0,0,0.06,0.06,0.07,0.07,0,0,0,0,0,0,0,0,0,0,0,0,0,0,0,0,0,0,0,0,0,0,0,0,0,0,0,0,0,0,0,0,0,0,0,0,0,0,0,0,0,0,0,0,0.03,0.04,0,0,0.221115,0.003859,0,0,0,0,0,0,0,0,-0.001098,0,NaN,NaN,NaN,NaN,NaN,NaN,NaN,NaN,0.000031,0.000031,NaN,NaN,10.1,0.309185,195.56,0,0,0,0,0,0.5,0.5,0,0,0,0,0,0,0.000031,0.000031,0.000031,0.000031,0.177999,0.177999
0.2,0,0,-0.003469,180,0,1.963949,0,0,-0.053305,-9.839062,0,0,0,0,0.06,0.06,0.07,0.07,0,0,0,0,0,0,0,0,0,0,0,0,0,0,0,0,0,0,0,0,0,0,0,0,0,0,0,0,0,0,0,0,0,0,0,0,0,0,0,0,0,0,0,0,0.03,0.04,0,0,0.220306,0.003845,0,0,0,0,0,0,0,0,-0.001508,0,NaN,NaN,NaN,NaN,NaN,NaN,NaN,NaN,0.000046,0.000046,NaN,NaN,10.1,0.271644,195.56,0,0,0,0,0,0.5,0.5,0,0,0,0,0,0,0.000046,0.000046,0.000046,0.000046,0.197999,0.197999
0.21,0,0,-0.003469,180,0,1.963949,0,0,-0.058753,-9.842044,0,0,0,0,0.06,0.06,0.07,0.07,0,0,0,0,0,0,0,0,0,0,0,0,0,0,0,0,0,0,0,0,0,0,0,0,0,0,0,0,0,0,0,0,0,0,0,0,0,0,0,0,0,0,0,0,0.03,0.04,0,0,0.219353,0.003828,0,0,0,0,0,0,0,0,-0.001508,0,NaN,NaN,NaN,NaN,NaN,NaN,NaN,NaN,0.000046,0.000046,NaN,NaN,10.1,0.271644,195.56,0,0,0,0,0,0.5,0.5,0,0,0,0,0,0,0.000046,0.000046,0.000046,0.000046,0.197999,0.197999
0.22,0,0,-0.003469,180,0,1.963949,0,0,-0.064455,-9.845145,0,0,0,0,0.06,0.06,0.07,0.07,0,0,0,0,0,0,0,0,0,0,0,0,0,0,0,0,0,0,0,0,0,0,0,0,0,0,0,0,0,0,0,0,0,0,0,0,0,0,0,0,0,0,0,0,0.03,0.04,0,0,0.218269,0.00381,0,0,0,0,0,0,0,0,-0.00201,0,NaN,NaN,NaN,NaN,NaN,NaN,NaN,NaN,0.000183,0.000183,NaN,NaN,10.1,0.230155,195.5602,0,0,0,0,0,0.5,0.5,0,0,0,0,0,0,0.000168,0.000168,0.000168,0.000168,0.217996,0.217996
0.23,0,0,-0.003469,180,0,1.963949,0,0,-0.070409,-9.848485,0,0,0,0,0.06,0.06,0.07,0.07,0,0,0,0,0,0,0,0,0,0,0,0,0,0,0,0,0,0,0,0,0,0,0,0,0,0,0,0,0,0,0,0,0,0,0,0,0,0,0,0,0,0,0,0,0.03,0.04,0,0,0.217018,0.003788,0,0,0,0,0,0,0,0,-0.00201,0,NaN,NaN,NaN,NaN,NaN,NaN,NaN,NaN,0.000183,0.000183,NaN,NaN,10.1,0.230155,195.5602,0,0,0,0,0,0.5,0.5,0,0,0,0,0,0,0.000168,0.000168,0.000168,0.000168,0.217996,0.217996
0.24,0,0,-0.003469,180,0,1.963949,0,0,-0.076613,-9.851945,0,0,0,0,0.06,0.06,0.07,0.07,0,0,0,0,0,0,0,0,0,0,0,0,0,0,0,0,0,0,0,0,0,0,0,0,0,0,0,0,0,0,0,0,0,0,0,0,0,0,0,0,0,0,0,0,0.03,0.04,0,0,0.215591,0.003763,0,0,0,0,0,0,0,0,-0.002613,0,NaN,NaN,NaN,NaN,NaN,NaN,NaN,NaN,0.000366,0.000366,NaN,NaN,10.1,0.184715,195.5604,0,0,0,0,0,0.5,0.5,0,0,0,0,0,0,0.000336,0.000336,0.000336,0.000336,0.237992,0.237991
0.25,0,0,-0.003469,180,0,1.963949,0,0,-0.083065,-9.855524,0,0,0,0,0.06,0.06,0.07,0.07,0,0,0,0,0,0,0,0,0,0,0,0,0,0,0,0,0,0,0,0,0,0,0,0,0,0,0,0,0,0,0,0,0,0,0,0,0,0,0,0,0,0,0,0,0.03,0.04,0,0,0.213982,0.003735,0,0,0,0,0,0,0,0,-0.002613,0,NaN,NaN,NaN,NaN,NaN,NaN,NaN,NaN,0.000366,0.000366,NaN,NaN,10.1,0.184715,195.5604,0,0,0,0,0,0.5,0.5,0,0,0,0,0,0,0.000336,0.000336,0.000336,0.000336,0.237992,0.237991
0.26,0.001,0,-0.003469,180,0,1.963949,0,0,-0.089761,-9.859344,0,0,0,0,0.06,0.06,0.07,0.07,0,0,0,0,0,0,0,0,0,0,0,0,0,0,0,0,0,0,0,0,0,0,0,0,0,0,0,0,0,0,0,0,0,0,0,0,0,0,0,0,0,0,0,0,0.03,0.04,0,0,0.212166,0.003703,0,0,0,0,0,0,0,0,-0.003326,0,NaN,NaN,NaN,NaN,NaN,NaN,NaN,NaN,0.000549,0.000549,NaN,NaN,10.1,0.135316,195.5606,0,0,0,0,0,0.5,0.5,0,0,0,0,0,0,0.000534,0.000534,0.000534,0.000534,0.257987,0.257986
0.27,0.001,0,-0.003469,180,0,1.963949,0,0,-0.0967,-9.863401,0,0,0,0,0.06,0.06,0.07,0.07,0,0,0,0,0,0,0,0,0,0,0,0,0,0,0,0,0,0,0,0,0,0,0,0,0,0,0,0,0,0,0,0,0,0,0,0,0,0,0,0,0,0,0,0,0.03,0.04,0,0,0.210121,0.003667,0,0,0,0,0,0,0,0,-0.003326,0,NaN,NaN,NaN,NaN,NaN,NaN,NaN,NaN,0.000549,0.000549,NaN,NaN,10.1,0.135316,195.5606,0,0,0,0,0,0.5,0.5,0,0,0,0,0,0,0.000534,0.000534,0.000534,0.000534,0.257987,0.257986
0.28,0.001,0,-0.003469,180,0,1.963949,0,0,-0.103879,-9.86746,0,0,0,0,0.06,0.06,0.07,0.07,0,0,0,0,0,0,0,0,0,0,0,0,0,0,0,0,0,0,0,0,0,0,0,0,0,0,0,0,0,0,0,0,0,0,0,0,0,0,0,0,0,0,0,0,0.03,0.04,0,0,0.20784,0.003628,0,0,0,0,0,0,0,0,-0.004159,0,NaN,NaN,NaN,NaN,NaN,NaN,NaN,NaN,0.000732,0.000732,NaN,NaN,10.1,0.081954,195.5608,0,0,0,0,0,0.5,0.5,0,0,0,0,0,0,0.000717,0.000717,0.000717,0.000717,0.277983,0.277982
0.29,0.001,0,-0.003469,180,0,1.963949,0,0,-0.111296,-9.87164,0,0,0,0,0.06,0.06,0.07,0.07,0,0,0,0,0,0,0,0,0,0,0,0,0,0,0,0,0,0,0,0,0,0,0,0,0,0,0,0,0,0,0,0,0,0,0,0,0,0,0,0,0,0,0,0,0.03,0.04,0,0,0.205292,0.003583,0,0,0,0,0,0,0,0,-0.004159,0,NaN,NaN,NaN,NaN,NaN,NaN,NaN,NaN,0.000732,0.000732,NaN,NaN,10.1,0.081954,195.5608,0,0,0,0,0,0.5,0.5,0,0,0,0,0,0,0.000717,0.000717,0.000717,0.000717,0.277983,0.277982
0.3,0.001,0,-0.010495,180,0,2.934018,0,0,0.129712,-2.674045,0,0,10111.42,10111.42,0.06,0.06,0.061584,0.061584,0,0,0.008416,0.008416,0,0,2.889067,2.889067,0,0,1430.756,1430.756,0,0,8667.199,8667.199,0,0,-0.029815,-0.029815,0,0,6.98942,6.98942,0,0,0,0,0,0,0,0,0,0,0,0,0,0,105.889,105.889,0,0,0,0,0.03,0.031584,0,0,0.010239,0.000179,0,0,0,0,0,0,0,0,-0.030494,0,NaN,NaN,0.001012,0.001012,NaN,NaN,0,0,0.000992,0.000992,NaN,NaN,10.1,0.024588,195.5611,0,-7.717,0,0,0,0.5,0,0,0,0,0,0,4.198,0.000946,0.000946,0.000946,0.000946,0.297977,0.297976
0.31,0.002,0,-0.010495,180,0,2.934018,0,0,0.259071,27.60995,13661.42,13661.42,14143.93,14143.93,0.030658,0.030658,0.033991,0.033991,0.029342,0.029342,0.036009,0.036009,2.904713,2.904713,2.660021,2.660021,4988.059,4988.059,6121.442,6121.442,8714.132,8714.132,7980.057,7980.057,-0.062075,-0.062075,-0.062076,-0.062076,0,0,0.528047,0.528047,0,0,0,0,0,0,0,0,0.000357,-0.000357,0,0,7.773476,7.773476,9.533755,9.533755,-124.4517,124.4517,0,0,0.000658,0.003992,0,0,0,0,0,0,0,0,0,0,0,0,-0.030494,0,NaN,NaN,0.001012,0.001012,NaN,NaN,0,0,0.000992,0.000992,NaN,NaN,10.1,0.024588,195.5611,0,-7.717,0,0,0,0.5,0,0,0,0,0,0,4.198,0.000946,0.000946,0.000946,0.000946,0.297977,0.297976
0.32,0.002,0,-0.010495,180,0,2.934018,0,0,0.233621,42.31146,21216.14,21216.14,17445.73,17445.73,0.00352,0.00352,0.009198,0.009198,0.05648,0.05648,0.060802,0.060802,2.549037,2.549037,2.358839,2.358839,9601.579,9601.579,10336.25,10336.25,7647.092,7647.092,7076.499,7076.499,-0.044796,-0.044796,-0.044797,-0.044797,0,0,-4.986832,-4.986832,0,0,0,0,0,0,0,0,0.000258,-0.000258,0,0,-52.90712,-52.90712,-69.53075,-69.53075,-139.4749,139.4749,0,0,-0.02648,-0.020802,0,0,0,0,0,0,0,0,0,0,0,0,-0.074584,0,0,0,-0.000576,-0.000576,0.195675,-0.195675,0,0,0.002121,0.002121,NaN,NaN,10.1,-0.031222,195.5622,0,-7.449,0,0,0,0.5,0,0,0,0,0,0,-3.332,0.002014,0.002014,0.002014,0.002014,0.317951,0.317948
0.33,0.005,0,-0.010495,180,0,2.934018,0,0.003507,-0.666982,26.72733,15288.54,15288.36,11786.25,11786.07,0.000846,0.000846,-0.000078,-0.000078,0.059154,0.059154,0.070078,0.070078,-0.216514,-0.216574,-0.031635,-0.031695,10056.15,10056.12,11900,11900,-649.5415,-649.7203,-94.90549,-95.0843,0.030405,0.030402,0.030405,0.030403,0,0,7.305099,7.312098,0,0,0,0,0,0,0,0,-0.000147,0.000203,0.000024,0.000024,-32.41558,-32.39723,-8.064627,-8.025235,57.30389,-79.12489,-7.140334,-7.140226,-0.029154,-0.030078,0,0,0,0,0,0,0,0,0,0,0,0,-0.074584,0,0,0,-0.000576,-0.000576,0.195675,-0.195675,0,0,0.002121,0.002121,NaN,NaN,10.1,-0.031222,195.5622,0,-7.449,0,0,0,0.5,0,0,0,0,0,0,-3.332,0.002014,0.002014,0.002014,0.002014,0.317951,0.317948
0.34,0.005,0,-0.010495,180,0,2.934018,0,-29.3826,-0.246038,22.02067,12116.06,13237.46,10338.11,11520.95,0.005214,0.004591,0.001718,0.001096,0.054786,0.055409,0.068282,0.068905,-0.721738,-0.316858,-0.429302,-0.024423,9296.571,9436.744,11607.89,11713.75,-2165.211,-950.5739,-1287.906,-73.26893,0.045806,0.052418,0.046982,0.051243,0,0,-9.688567,1.778408,0,0,0,0,0,0,0,0,-0.204523,-0.203958,-0.196495,-0.196495,20.61198,-50.55103,-21.09297,-35.21361,10847.44,11797.32,9356.392,10346.25,-0.025097,-0.028593,-0.034264,-0.034264,0,0,0,0,0,0,0,-11.46698,-0.006613,-0.004261,0.114689,0.289199,0,0,0.000076,-0.000871,-20.76964,-21.44248,-19.70286,-20.41257,0.005049,0.005049,NaN,NaN,10.10032,-0.024257,195.5604,0,9.711,0,0,0,0.5,0,0,0,0,0,0,-1.731,0.0049,0.0049,0.0049,0.0049,0.337881,0.337874
0.35,0.007,0,-0.010495,180,0,2.934018,0,24.55283,-0.022311,16.05378,9350.385,9491.023,9880.542,9631.577,0.011912,0.010844,0.005386,0.004318,0.048088,0.049156,0.064614,0.065682,-0.636876,-0.798762,-0.341699,-0.503585,8149.249,8382.826,10984.34,11165.97,-1910.62,-2396.277,-1025.092,-1510.749,0.048632,0.049029,0.048241,0.049422,0,0,2.755518,-6.622486,0,0,0,0,0,0,0,0,0.067915,0.068477,0.070346,0.070346,4.809356,16.57187,22.12476,-13.63307,-8536.221,-8652.662,-8975.742,-8769.143,-0.018622,-0.025148,-0.048457,-0.048457,0,0,0,0,0,0,0,-11.46698,-0.006613,-0.004261,0.114689,0.289199,0,0,0.000076,-0.000871,-20.76964,-21.44248,-19.70286,-20.41257,0.005049,0.005049,NaN,NaN,10.10032,-0.024257,195.5604,0,9.711,0,0,0,0.5,0,0,0,0,0,0,-1.731,0.0049,0.0049,0.0049,0.0049,0.337881,0.337874
0.36,0.008,0,-0.010495,180,0,2.934018,0,-19.41339,0.035812,9.747632,5765.673,6728.687,7962.462,8651.687,0.019942,0.018378,0.010987,0.009423,0.040058,0.041622,0.059013,0.060577,-0.883996,-0.724927,-0.687584,-0.52844,6778.49,7108.248,10032.17,10298.06,-2651.971,-2174.765,-2062.739,-1585.309,0.029967,0.02623,0.030504,0.025693,0,0,6.184259,-6.431264,0,0,0,0,0,0,0,0,-0.093642,-0.093318,-0.102232,-0.102232,12.52072,56.48985,20.6142,40.9739,5586.708,6379.563,7392.2,7959.253,-0.01084,-0.019795,-0.062557,-0.062557,0,0,0,0,0,0,0,12.61552,0.003736,0.004811,0.077043,0.113664,0,0,-0.000337,0.000851,-16.95941,-17.53721,-18.27748,-18.69102,0.007584,0.007584,NaN,NaN,10.10102,-0.009384,195.5595,0,4.628,0,0,0,0.5,0,0,0,0,0,0,0.995,0.007419,0.007419,0.007419,0.007419,0.357819,0.35781
0.37,0.008,0,-0.010495,180,0,2.934018,0,14.52867,0.154254,4.014637,3704.011,3576.229,6824.711,6500.398,0.027674,0.026781,0.017707,0.016814,0.032326,0.033219,0.052293,0.053186,-0.708252,-0.887185,-0.676349,-0.855356,5480.875,5662.008,8889.687,9041.535,-2124.74,-2661.535,-2029.03,-2566.049,-0.009175,-0.002973,-0.009528,-0.002619,0,0,2.578503,4.584578,0,0,0,0,0,0,0,0,0.061552,0.061483,0.074083,0.074083,86.2288,7.2917,99.29102,15.28193,-3843.132,-3730.873,-6458.393,-6192.051,-0.002772,-0.012739,-0.039565,-0.039565,0,0,0,0,0,0,0,12.61552,0.003736,0.004811,0.077043,0.113664,0,0,-0.000337,0.000851,-16.95941,-17.53721,-18.27748,-18.69102,0.007584,0.007584,NaN,NaN,10.10102,-0.009384,195.5595,0,4.628,0,0,0,0.5,0,0,0,0,0,0,0.995,0.007419,0.007419,0.007419,0.007419,0.357819,0.35781
0.38,0.009,0,-0.010495,180,0,2.934018,0,-10.37031,0.205366,-0.481127,1946.312,2181.616,4824.595,5047.145,0.035128,0.034529,0.025934,0.025335,0.024872,0.025471,0.044066,0.044665,-0.752911,-0.707537,-0.899926,-0.854567,4220.688,4337.675,7491.174,7593.063,-2258.718,-2122.597,-2699.76,-2563.683,-0.039748,-0.046919,-0.039527,-0.047142,0,0,5.60758,0.860481,0,0,0,0,0,0,0,0,-0.03836,-0.038859,-0.052458,-0.052458,-1.401586,88.60772,14.22828,94.54468,1903.26,2161.076,4802.796,4989.463,0.004829,-0.004366,-0.034264,-0.034264,0,0,0,0,0,0,0,4.747099,0.007171,0.007615,-0.057657,0.032443,0,0,-0.001583,0.003289,-12.62058,-13.09426,-16.39476,-16.52829,0.00892,0.00892,NaN,NaN,10.10097,0.006431,195.5597,0,-9.227,0,0,0,0.5,0,0,0,0,0,0,2.325,0.00881,0.00881,0.00881,0.00881,0.377785,0.377774
0.39,0.01,0,-0.010495,180,0,2.934018,0,5.986265,0.160955,-3.997385,1263.992,1035.316,3368.532,3135.597,0.04164,0.041591,0.03479,0.034741,0.01836,0.018409,0.03521,0.035259,-0.597298,-0.687972,-0.883788,-0.974491,3120.701,3129.931,5985.656,5993.98,-1791.888,-2063.907,-2651.354,-2923.463,-0.076742,-0.06919,-0.076848,-0.069087,0,0,1.144895,3.603116,0,0,0,0,0,0,0,0,0.018604,0.017765,0.032299,0.032299,81.77484,-16.70705,87.12357,-6.231511,-599.4591,-468.858,-2773.521,-2581.742,0.011616,0.004766,0,0,0,0,0,0,0,0,0,4.747099,0.007171,0.007615,-0.057657,0.032443,0,0,-0.001583,0.003289,-12.62058,-13.09426,-16.39476,-16.52829,0.00892,0.00892,NaN,NaN,10.10097,0.006431,195.5597,0,-9.227,0,0,0,0.5,0,0,0,0,0,0,2.325,0.00881,0.00881,0.00881,0.00881,0.377785,0.377774
0.4,0.01,0,-0.006864,-116.3174,-0.015668,0.716691,-0.000498,0.071638,0.087944,-7.067728,501.5476,366.0563,1770.6,1637.565,0.047328,0.047596,0.043934,0.044201,0.012672,0.012404,0.026066,0.025799,-0.52841,-0.561312,-0.906885,-0.939786,2155.95,2107.087,4431.294,4385.793,-1585.229,-1683.934,-2720.651,-2819.357,-0.093639,-0.092908,-0.093624,-0.092927,0,0,13.82292,-10.93126,0,0,0,0,0,0,0,0,-0.00236,-0.003433,-0.001629,-0.001629,20.31076,20.83569,47.13332,-15.56793,30.17771,32.03754,73.52021,67.99598,0.017462,0.014067,0.019782,0.019782,0,0,0,0,0,0,0,24.75417,-0.00073,-0.000697,-0.148416,-0.023499,0,0,0.004379,-0.002831,-0.657538,-0.939899,-0.526116,-0.518663,0.01033,0.01033,NaN,NaN,10.10096,0.018894,195.5612,0,-18.267,0,0,0,0.5,0,0,0,0,0,0,1.057,0.010162,0.010162,0.010162,0.010162,0.397752,0.39774
0.41,0.011,0,-0.006864,-116.3174,-0.015668,0.716691,-0.000498,0.084164,0.029924,-9.532446,0,0,445.4929,296.3809,0.052031,0.052564,0.052723,0.053256,0.007969,0.007436,0.017277,0.016744,-0.431389,-0.453383,-0.853673,-0.875667,1356.846,1262.144,2937.056,2846.458,-1282.454,-1195.761,-2561.017,-2627,-0.104475,-0.103098,-0.104439,-0.103138,0,0,27.89445,-27.02212,0,0,0,0,0,0,0,0,-0.006056,-0.00725,-0.004287,-0.004287,8.028388,7.485571,92.98151,-82.56345,0,0,48.68412,32.38899,0.022298,0.02299,0.019782,0.019782,0,0,0,0,0,0,0,24.75417,-0.00073,-0.000697,-0.148416,-0.023499,0,0,0.004379,-0.002831,-0.657538,-0.939899,-0.526116,-0.518663,0.01033,0.01033,NaN,NaN,10.10096,0.018894,195.5612,0,-18.267,0,0,0,0.5,0,0,0,0,0,0,1.057,0.010162,0.010162,0.010162,0.010162,0.397752,0.39774
0.42,0.012,0,-0.006864,-116.3174,-0.015668,0.716691,-0.000498,-0.003639,0.007491,-10.31381,0,0,0,0,0.055765,0.056486,0.060683,0.061404,0.004235,0.003514,0.009317,0.008596,-0.334173,-0.352263,-0.75382,-0.77194,721.4736,596.1866,1583.839,1461.339,-648.2089,-529.4943,-1653.456,-1537.132,-0.104757,-0.103592,-0.104714,-0.104596,0,0,3.134087,-3.169078,0,0,0,0,0,0,0,0.000957,-0.007222,-0.00842,-0.005865,-0.005865,-1.123618,-0.961921,9.105643,-10.79144,0,0,0,0,0.026125,0.031044,0.034264,0.034264,0,0,0,0,0,0,0,6.303165,-0.001165,-0.000118,-0.164571,-0.012922,0,0,0.112971,-0.126056,0,0,0,0,0.012302,0.012302,NaN,NaN,10.1011,0.027182,195.5631,0,-19.976,0,0,0,0.5,0,0,0,0,0,0,-0.032,0.012103,0.012103,0.012103,0.012103,0.417705,0.41769
0.43,0.013,0,-0.006864,-116.3174,-0.015668,0.716691,-0.000498,-0.005872,0.026107,-10.21984,0,0,0,0,0.058517,0.059413,0.067584,0.06848,0.001483,0.000587,0.002416,0.00152,-0.236094,-0.25335,-0.647739,-0.665054,252.8274,99.45757,410.787,258.3401,-181.0944,-34.01019,-479.2177,-332.678,-0.103758,-0.102719,-0.103714,-0.103594,0,0,2.640855,-2.842849,0,0,0,0,0,0,0,0.000828,-0.007377,-0.008564,-0.006246,-0.006246,-1.346185,-1.191343,7.455324,-10.79126,0,0,0,0,0.028965,0.038032,0.034264,0.034264,0,0,0,0,0,0,0,6.303165,-0.001165,-0.000118,-0.164571,-0.012922,0,0,0.112971,-0.126056,0,0,0,0,0.012302,0.012302,NaN,NaN,10.1011,0.027182,195.5631,0,-19.976,0,0,0,0.5,0,0,0,0,0,0,-0.032,0.012103,0.012103,0.012103,0.012103,0.417705,0.41769
0.44,0.014,0,-0.006864,-116.3174,-0.015668,0.716691,-0.000498,-0.007727,0.04889,-9.810784,0,0,0,0,0.06,0.06,0.07,0.07,0,0,0,0,0,0,0,0,0,0,0,0,0,0,0,0,-0.10328,-0.102719,-0.103409,-0.103409,0,0,-0.000002,-0.000002,0,0,0,0,0.10328,0.102719,0.103409,0.103409,0,0,0,0,0,0,0,0,0,0,0,0,0.03,0.04,0,0,-0.070862,-0.001237,0,0,0,0,0,0,-0.000561,0,-0.16014,-0.015495,NaN,NaN,NaN,NaN,NaN,NaN,NaN,NaN,0.014292,0.014292,NaN,NaN,10.10125,0.031473,195.5651,0,-19.749,0,0,0,0.5,0.5,0,0,0,0,0,0,0.014093,0.014093,0.014093,0.014093,0.437656,0.437639
0.45,0.015,0,-0.006864,-116.3174,-0.015668,0.716691,-0.000498,-0.009246,0.065432,-9.810247,0,0,0,0,0.06,0.06,0.07,0.07,0,0,0,0,0,0,0,0,0,0,0,0,0,0,0,0,-0.10328,-0.102719,-0.103409,-0.103409,0,0,-0.000002,-0.000002,0,0,0,0,0.10328,0.102719,0.103409,0.103409,0,0,0,0,0,0,0,0,0,0,0,0,0.03,0.04,0,0,-0.162613,-0.002838,0,0,0,0,0,0,-0.000561,0,-0.16014,-0.015495,NaN,NaN,NaN,NaN,NaN,NaN,NaN,NaN,0.014292,0.014292,NaN,NaN,10.10125,0.031473,195.5651,0,-19.749,0,0,0,0.5,0.5,0,0,0,0,0,0,0.014093,0.014093,0.014093,0.014093,0.437656,0.437639
0.46,0.016,0,-0.006864,-116.3174,-0.015668,0.716691,-0.000498,-0.010766,0.081699,-9.809825,0,0,0,0,0.06,0.06,0.07,0.07,0,0,0,0,0,0,0,0,0,0,0,0,0,0,0,0,-0.10328,-0.102719,-0.103409,-0.103409,0,0,-0.000002,-0.000002,0,0,0,0,0.10328,0.102719,0.103409,0.103409,0,0,0,0,0,0,0,0,0,0,0,0,0.03,0.04,0,0,-0.254372,-0.00444,0,0,0,0,0,0,-0.000561,0,-0.160147,-0.015495,NaN,NaN,NaN,NaN,NaN,NaN,NaN,NaN,0.016264,0.016264,NaN,NaN,10.10137,0.031845,195.5671,0,-19.749,0,0,0,0.5,0.5,0,0,0,0,0,0,0.016066,0.016066,0.016066,0.016066,0.457608,0.457588
0.47,0.017,0,-0.006864,-116.3174,-0.015668,0.716691,-0.000498,-0.012285,0.097691,-9.809528,0,0,0,0,0.06,0.06,0.07,0.07,0,0,0,0,0,0,0,0,0,0,0,0,0,0,0,0,-0.10328,-0.102719,-0.103409,-0.103409,0,0,-0.000002,-0.000002,0,0,0,0,0.10328,0.102719,0.103409,0.103409,0,0,0,0,0,0,0,0,0,0,0,0,0.03,0.04,0,0,-0.346138,-0.006041,0,0,0,0,0,0,-0.000561,0,-0.160147,-0.015495,NaN,NaN,NaN,NaN,NaN,NaN,NaN,NaN,0.016264,0.016264,NaN,NaN,10.10137,0.031845,195.5671,0,-19.749,0,0,0,0.5,0.5,0,0,0,0,0,0,0.016066,0.016066,0.016066,0.016066,0.457608,0.457588
0.48,0.018,0,-0.006864,-116.3174,-0.015668,0.716691,-0.000498,0.253978,0.107877,-9.135989,1004.936,990.5475,0,0,0.057639,0.059366,0.07,0.07,0.002361,0.000634,0,0,0.220835,0.31711,0,0,403.4525,107.2624,0,0,662.4611,951.2654,0,0,-0.097936,-0.100147,-0.103409,-0.103409,0,0,-0.000002,-0.000002,0,0,0,0,0,0,0.103409,0.103409,-0.019713,-0.020854,0,0,-11.73635,-16.07142,0,0,505.0086,526.5969,0,0,0.028502,0.04,0.071326,0,-0.401802,-0.007013,0,0,0.1861,0,0,0,0.002212,0,-0.151927,0.0156,0,0,NaN,NaN,-5.842645,-6.170348,NaN,NaN,0.018243,0.018243,NaN,NaN,10.10158,0.02838,195.569,0,-19.749,0,0,0,0.5,0.5,0,0,0,0,0,0,0.018041,0.018041,0.018041,0.018041,0.47756,0.477537
0.49,0.019,0,-0.006864,-116.3174,-0.015668,0.716691,-0.000498,0.178383,0.104317,-7.842349,1639.591,1362.446,0,0,0.055021,0.056692,0.07,0.07,0.004979,0.003308,0,0,0.280663,0.28564,0,0,850.4528,559.5846,0,0,841.9196,856.8492,0,0,-0.078399,-0.087767,-0.103409,-0.103409,0,0,-0.000002,-0.000002,0,0,0,0,0,0,0.103409,0.103409,-0.002798,-0.003755,0,0,-26.02257,-21.18886,0,0,116.9345,130.418,0,0,0.025856,0.04,0.065611,0,-0.420891,-0.007346,0,0,0.1861,0,0,0,0.002212,0,-0.151927,0.0156,0,0,NaN,NaN,-5.842645,-6.170348,NaN,NaN,0.018243,0.018243,NaN,NaN,10.10158,0.02838,195.569,0,-19.749,0,0,0,0.5,0.5,0,0,0,0,0,0,0.018041,0.018041,0.018041,0.018041,0.47756,0.477537
0.5,0.02,0,-0.004386,-132.5464,-0.008302,0.216283,0.008858,0.122841,0.098563,-7.012131,2234.193,1982.757,0,0,0.052053,0.05364,0.07,0.07,0.007947,0.00636,0,0,0.304058,0.31513,0,0,1357.151,1076.114,0,0,912.0855,945.2969,0,0,-0.053288,-0.065669,-0.103409,-0.103409,0,0,-0.000002,-0.000002,0,0,0,0,0,0,0.103409,0.103409,-0.001442,-0.002127,0,0,-35.0436,-31.62799,0,0,82.1241,107.5185,0,0,0.022846,0.04,0.065611,0,-0.412491,-0.007199,0,0,0.1861,0,0,0,0.012381,0,-0.086769,0.007824,0,0,NaN,NaN,-0.488443,-0.702492,NaN,NaN,0.019852,0.019852,NaN,NaN,10.10166,0.022414,195.5706,0,-19.749,0,0,0,0.5,0.5,0,0,0,0,0,0,0.01973,0.01973,0.01973,0.01973,0.497519,0.497494
0.51,0.02,0,-0.004386,-132.5464,-0.008302,0.216283,0.008858,0.10048,0.087853,-6.242852,2779.844,2565.814,0,0,0.048993,0.050432,0.07,0.07,0.011007,0.009568,0,0,0.304341,0.321522,0,0,1878.92,1619.427,0,0,912.9276,964.4651,0,0,-0.021111,-0.035925,-0.103409,-0.103409,0,0,-0.000002,-0.000002,0,0,0,0,0,0,0.103409,0.103409,-0.000969,-0.001298,0,0,-43.50154,-40.7049,0,0,68.6778,84.88654,0,0,0.019713,0.04,0.059347,0,-0.374649,-0.006539,0,0,0.1861,0,0,0,0.012381,0,-0.086769,0.007824,0,0,NaN,NaN,-0.488443,-0.702492,NaN,NaN,0.019852,0.019852,NaN,NaN,10.10166,0.022414,195.5706,0,-19.749,0,0,0,0.5,0.5,0,0,0,0,0,0,0.01973,0.01973,0.01973,0.01973,0.497519,0.497494
0.52,0.02,0,-0.004386,-132.5464,-0.008302,0.216283,0.008858,0.072235,0.032195,-5.57678,3244.549,3076.832,0,0,0.04606,0.047295,0.07,0.07,0.01394,0.012705,0,0,0.283599,0.305951,0,0,2378.139,2151.726,0,0,850.7072,917.7554,0,0,0.01684,0.000261,-0.103409,-0.103409,0,0,-0.000002,-0.000002,0,0,0,0,0,0,0.103409,0.103409,-0.000841,-0.000742,0,0,-49.3646,-47.94765,0,0,69.56914,58.22808,0,0,0.016678,0.04,0.052339,0,-0.305641,-0.005334,0,0,0.1861,0,0,0,0.016578,0,0.027203,0.015955,0,0,NaN,NaN,-0.312764,-0.27206,NaN,NaN,0.020464,0.020464,NaN,NaN,10.10168,0.015996,195.5711,0,-19.749,0,0,0,0.5,0.5,0,0,0,0,0,0,0.020463,0.020463,0.020463,0.020463,0.517501,0.517475
0.53,0.021,0,-0.004386,-132.5464,-0.008302,0.216283,0.008858,0.056476,-0.034049,-5.041784,3612.039,3496.234,0,0,0.043433,0.044422,0.07,0.07,0.016567,0.015578,0,0,0.246987,0.273064,0,0,2824.305,2640.321,0,0,740.8896,819.1133,0,0,0.058609,0.040656,-0.103409,-0.103409,0,0,-0.000002,-0.000002,0,0,0,0,0,0,0.103409,0.103409,-0.000687,-0.000116,0,0,-54.04872,-52.51346,0,0,63.29321,10.31652,0,0,0.013928,0.04,0.048457,0.019782,-0.204125,-0.003563,0,0,0.1861,0,0,0,0.016578,0,0.027203,0.015955,0,0,NaN,NaN,-0.312764,-0.27206,NaN,NaN,0.020464,0.020464,NaN,NaN,10.10168,0.015996,195.5711,0,-19.749,0,0,0,0.5,0.5,0,0,0,0,0,0,0.020463,0.020463,0.020463,0.020463,0.517501,0.517475
0.54,0.021,0,-0.004386,-132.5464,-0.008302,0.216283,0.008858,0.026178,-0.059704,-4.658478,3864.26,3803.829,0,0,0.041256,0.041969,0.07,0.07,0.018744,0.018031,0,0,0.196889,0.225216,0,0,3192.931,3058.634,0,0,590.6221,675.5969,0,0,0.103399,0.084635,-0.103409,-0.103409,0,0,-0.000002,-0.000002,0,0,0,0,0,0,0.103409,0.103409,-0.000726,0.000357,0,0,-57.02809,-56.30755,0,0,71.48412,-34.61887,0,0,0.011612,0.04,0.034264,0.019782,-0.069038,-0.001205,0,0,0.3242,0,0,0,0.018763,0,0.176684,0.020203,0,0,NaN,NaN,-0.283905,0.139012,NaN,NaN,0.021379,0.021379,NaN,NaN,10.10168,0.010728,195.57,0,-19.749,0,0,0,0.5,0.5,0,0,0,0,0,0,0.021196,0.021196,0.021196,0.021196,0.537483,0.537457
0.55,0.022,0,-0.004386,-132.5464,-0.008302,0.216283,0.008858,-0.713676,-0.078047,-0.449478,4115.956,4047.74,2987.386,2930.26,0.039491,0.040012,0.065396,0.065917,0.020509,0.019988,0.004604,0.004083,0.174284,0.186205,0.768617,0.780448,3491.662,3392.552,782.6479,694.0868,522.8249,558.5858,2305.731,2341.224,0.120364,0.12092,0.120403,0.120884,0,0,-139.6071,176.0973,0,0,0,0,0,0,0,0,-0.007255,-0.005866,-0.005686,-0.005686,14.12867,-39.35638,-451.7846,548.1885,761.1742,605.2395,433.0121,424.7318,0.009752,0.035656,0.019782,0.019782,0,0,0,0,0.3242,0,0,0,0.018763,0,0.176684,0.020203,0,0,NaN,NaN,-0.283905,0.139012,NaN,NaN,0.021379,0.021379,NaN,NaN,10.10168,0.010728,195.57,0,-19.749,0,0,0,0.5,0.5,0,0,0,0,0,0,0.021196,0.021196,0.021196,0.021196,0.537483,0.537457
0.56,0.024,0,-0.004386,-132.5464,-0.008302,0.216283,0.008858,9.86491,-0.099382,1.715083,4560.439,4124.505,4503.839,4078.008,0.037693,0.03836,0.057519,0.058186,0.022307,0.02164,0.012481,0.011814,0.227377,0.109777,0.835881,0.7184,3799.5,3671.456,2121.773,2008.401,682.1097,329.3206,2507.566,2155.134,0.121102,0.12286,0.120758,0.123208,0,0,-131.9524,127.1188,0,0,0,0,0,0,0,0,0.059298,0.060703,0.064456,0.064456,5.633165,5.11455,-430.7589,423.7294,-4579.854,-4207.906,-4531.864,-4167.889,0.008027,0.027852,0.019782,0.019782,0,0,0,0,0.3242,0,0,-259.0712,-0.001759,-0.00245,0.238587,-0.0841,0,0,-0.017341,0.018029,16.23626,15.9747,16.2023,15.94681,0.023684,0.023684,NaN,NaN,10.1016,0.0071,195.5676,0,23.188,0,0,0,0.5,0,0,0,0,0,0,-0.623,0.02343,0.02343,0.02343,0.02343,0.557429,0.557399
0.57,0.025,0,-0.004386,-132.5464,-0.008302,0.216283,0.008858,-13.00929,-0.074589,3.631641,4462.025,4741.323,5289.559,5584.788,0.036181,0.036569,0.050132,0.05052,0.023819,0.023431,0.019868,0.01948,0.09574,0.231549,0.662416,0.79821,4053.853,3978.682,3377.513,3311.514,287.2155,694.637,1987.219,2394.595,0.108603,0.11296,0.109008,0.112559,0,0,-63.61398,60.80987,0,0,0,0,0,0,0,0,-0.070444,-0.069166,-0.063348,-0.063348,7.683503,30.65668,-208.8811,202.6995,4496.357,4732.69,5191.776,5436.991,0.006375,0.020326,0.019782,0.019782,0,0,0,0,0.3242,0,0,-259.0712,-0.001759,-0.00245,0.238587,-0.0841,0,0,-0.017341,0.018029,16.23626,15.9747,16.2023,15.94681,0.023684,0.023684,NaN,NaN,10.1016,0.0071,195.5676,0,23.188,0,0,0,0.5,0,0,0,0,0,0,-0.623,0.02343,0.02343,0.02343,0.02343,0.557429,0.557399
0.58,0.026,0,-0.004386,-132.5464,-0.008302,0.216283,0.008858,14.38837,-0.053746,5.209543,5072.211,4646.936,6558.24,6140.163,0.034486,0.03501,0.043255,0.043778,0.025514,0.02499,0.026745,0.026222,0.224039,0.100315,0.705346,0.581652,4344.037,4241.758,4546.688,4457.647,672.1129,300.942,2116.027,1744.945,0.084616,0.095986,0.084293,0.096311,0,0,41.67585,-43.03982,0,0,0,0,0,0,0,0,0.055678,0.05672,0.078055,0.078055,51.2673,6.864566,162.0751,-141.3948,-5010.43,-4653.035,-6239.579,-5895.704,0.004748,0.013517,0.019782,0.019782,0,0,0,0,0.4477,0,0,84.71567,-0.01137,-0.012018,0.188683,-0.088407,0,0,0.006731,-0.006608,16.54333,16.28816,17.43494,17.1841,0.026229,0.026229,NaN,NaN,10.10172,0.003973,195.5655,0,16.619,0,0,0,0.5,0,0,0,0,0,0,0.627,0.02599,0.02599,0.02599,0.02599,0.577366,0.577334
0.59,0.027,0,-0.004386,-132.5464,-0.008302,0.216283,0.008858,-15.46625,-0.070628,6.439098,4902.991,5318.63,6787.051,7213.617,0.033098,0.033168,0.037724,0.037793,0.026902,0.026832,0.032276,0.032207,0.07838,0.243157,0.445232,0.610024,4574.188,4560.523,5486.969,5475.164,235.1399,729.4702,1335.693,1830.068,0.064269,0.063331,0.064721,0.06288,0,0,123.2247,-123.638,0,0,0,0,0,0,0,0,-0.07869,-0.077954,-0.081672,-0.081672,3.898697,66.98971,409.6154,-340.1064,4868.664,5215.976,6427.479,6777.518,0.003133,0.007758,0,0,0,0,0,0,0.4477,0,0,84.71567,-0.01137,-0.012018,0.188683,-0.088407,0,0,0.006731,-0.006608,16.54333,16.28816,17.43494,17.1841,0.026229,0.026229,NaN,NaN,10.10172,0.003973,195.5655,0,16.619,0,0,0,0.5,0,0,0,0,0,0,0.627,0.02599,0.02599,0.02599,0.02599,0.577366,0.577334
0.6,0.028,0,-0.017459,133.6998,0.018411,0.259023,-0.00215,16.24403,0.021001,7.269664,5548.059,5137.078,7590.344,7177.676,0.031441,0.031665,0.033163,0.033387,0.028559,0.028335,0.036837,0.036613,0.226051,0.08522,0.464469,0.323623,4858.202,4813.811,6262.271,6224.238,678.1516,255.6591,1393.407,970.8699,0.033856,0.036032,0.03344,0.03645,0,0,116.2374,-116.7809,0,0,0,0,0,0,0,0,0.072143,0.072546,0.07782,0.07782,62.01068,9.84184,387.4578,-384.7468,-5406.544,-5064.634,-7086.643,-6748.032,0.001553,0.003275,0.019782,0,0,0,0,0,0.4477,0,0,233.0182,-0.002176,-0.00301,0.09344,-0.100636,0,0,0.012693,-0.012596,16.82883,16.58225,18.05421,17.80661,0.028191,0.028191,NaN,NaN,10.10185,0.001037,195.5642,0,5.889,0,0,0,0.5,0,0,0,0,0,0,0.934,0.028024,0.028024,0.028024,0.028024,0.597317,0.597282
0.61,0.029,0,-0.017459,133.6998,0.018411,0.259023,-0.00215,-16.68642,0.018911,7.711718,5303.118,5775.521,7272.351,7748.826,0.03016,0.029963,0.030277,0.03008,0.02984,0.030037,0.039723,0.03992,0.060603,0.227109,0.170037,0.336543,5069.776,5109.258,6752.908,6786.478,181.8091,681.3257,510.1114,1009.628,0.012383,0.000831,0.012788,0.000426,0,0,43.38799,-44.08811,0,0,0,0,0,0,0,0,-0.070214,-0.070137,-0.092656,-0.092656,4.123363,65.12678,143.3921,-76.46954,5203.065,5594.849,6825.708,7216.741,0.000062,0.000178,-0.019782,-0.019782,0,0,0,0,0.4477,0,0,233.0182,-0.002176,-0.00301,0.09344,-0.100636,0,0,0.012693,-0.012596,16.82883,16.58225,18.05421,17.80661,0.028191,0.028191,NaN,NaN,10.10185,0.001037,195.5642,0,5.889,0,0,0,0.5,0,0,0,0,0,0,0.934,0.028024,0.028024,0.028024,0.028024,0.597317,0.597282
0.62,0.03,0,-0.017459,133.6998,0.018411,0.259023,-0.00215,16.85427,0.097869,7.879534,5957.312,5567.169,7622.053,7197.713,0.028708,0.028773,0.028441,0.028506,0.031292,0.031227,0.041559,0.041494,0.200301,0.044912,0.194132,0.038743,5320.594,5307.579,7064.987,7053.994,600.9042,134.7363,582.3969,116.2291,-0.016295,-0.019376,-0.016773,-0.0189,0,0,-62.84232,67.01144,0,0,0,0,0,0,0,0,0.08306,0.082854,0.07909,0.07909,53.99037,2.01255,-150.0255,219.9313,-5744.975,-5422.388,-7112.67,-6764.471,-0.001259,-0.001526,0,0,0,0,0,0,0.5675,0,0,-129.8538,0.003081,0.002127,-0.002488,-0.110995,0,0,-0.005101,0.006191,17.07439,16.8403,18.07323,17.81863,0.029728,0.029728,NaN,NaN,10.10175,-0.001467,195.5641,0,-4.016,0,0,0,0.5,0,0,0,0,0,0,1.498,0.029587,0.029587,0.029587,0.029587,0.617278,0.617241
0.63,0.031,0,-0.017459,133.6998,0.018411,0.259023,-0.00215,-16.78925,0.131784,7.728194,5715.15,6167.93,6889.995,7350.844,0.027839,0.02758,0.028198,0.02794,0.032161,0.03242,0.041802,0.04206,0.010148,0.166878,-0.086561,0.07017,5463.289,5515.57,7106.279,7150.214,30.44307,500.6343,-259.6825,210.5087,-0.033934,-0.039031,-0.033521,-0.039444,0,0,-121.1698,124.0429,0,0,0,0,0,0,0,0,-0.071551,-0.071971,-0.082534,-0.082534,5.691645,34.32774,-403.7267,413.4762,5544.926,5918.573,6511.976,6890.109,-0.002291,-0.001931,0,-0.019782,0,0,0,0,0.5675,0,0,-129.8538,0.003081,0.002127,-0.002488,-0.110995,0,0,-0.005101,0.006191,17.07439,16.8403,18.07323,17.81863,0.029728,0.029728,NaN,NaN,10.10175,-0.001467,195.5641,0,-4.016,0,0,0,0.5,0,0,0,0,0,0,1.498,0.029587,0.029587,0.029587,0.029587,0.617278,0.617241
0.64,0.031,0,-0.017459,133.6998,0.018411,0.259023,-0.00215,16.39926,0.109805,7.196289,6182.169,5787.958,6897.568,6467.339,0.027048,0.027124,0.028774,0.02885,0.032952,0.032876,0.041226,0.04115,0.122264,-0.034615,-0.037283,-0.194162,5603.134,5587.701,7008.43,6995.5,366.792,-103.8462,-111.8481,-582.4862,-0.051778,-0.046288,-0.052213,-0.045855,0,0,-105.4302,107.2521,0,0,0,0,0,0,0,0,0.075663,0.075099,0.086943,0.086943,27.65542,-2.065827,-318.38,350.0539,-5930.297,-5605.13,-6518.19,-6164.882,-0.002914,-0.001188,0,0,0,0,0,0,0.5675,0,0,-212.6823,-0.00549,-0.006357,-0.062638,-0.112005,0,0,-0.009477,0.010312,17.2093,16.97277,17.63854,17.3804,0.031416,0.031416,NaN,NaN,10.10168,-0.002817,195.5648,0,-9.644,0,0,0,0.5,0,0,0,0,0,0,0.667,0.03124,0.03124,0.03124,0.03124,0.637238,0.637199
0.65,0.032,0,-0.017459,133.6998,0.018411,0.259023,-0.00215,-15.72748,0.105883,6.313174,5676.504,6075.115,5930.75,6344.525,0.027044,0.026857,0.030604,0.030416,0.032956,0.033143,0.039396,0.039584,-0.079095,0.064507,-0.275001,-0.131428,5599.42,5637.49,6697.333,6729.206,-237.2858,193.5212,-825.002,-394.2844,-0.059136,-0.052619,-0.0587,-0.053056,0,0,-15.35435,16.12633,0,0,0,0,0,0,0,0,-0.075485,-0.076128,-0.065544,-0.065543,1.677134,10.22443,-51.18116,53.75443,5512.948,5842.111,5723.058,6063.906,-0.00305,0.00051,0,0,0,0,0,0,0.5675,0,0,-212.6823,-0.00549,-0.006357,-0.062638,-0.112005,0,0,-0.009477,0.010312,17.2093,16.97277,17.63854,17.3804,0.031416,0.031416,NaN,NaN,10.10168,-0.002817,195.5648,0,-9.644,0,0,0,0.5,0,0,0,0,0,0,0.667,0.03124,0.03124,0.03124,0.03124,0.637238,0.637199
0.66,0.033,0,-0.017459,133.6998,0.018411,0.259023,-0.00215,14.79524,0.089876,5.137342,5806.273,5431.178,5726.962,5328.776,0.027269,0.027398,0.032888,0.033017,0.032731,0.032602,0.037112,0.036983,0.011697,-0.129759,-0.198126,-0.339583,5566.314,5540.186,6309.01,6287.093,35.09215,-389.277,-594.376,-1018.745,-0.060957,-0.055023,-0.061345,-0.054636,0,0,79.51324,-79.54146,0,0,0,0,0,0,0,0,0.067782,0.067114,0.079652,0.079652,-1.011149,2.141018,265.0441,-265.1381,-5620.267,-5309.549,-5554.697,-5224.419,-0.002666,0.002953,0,0,0,0,0,0,0.6863,0,0,159.0547,-0.005933,-0.00671,-0.082342,-0.10101,0,0,0.010059,-0.010553,16.98376,16.75871,16.93618,16.69727,0.033281,0.033281,NaN,NaN,10.10173,-0.002322,195.566,0,-11.09,0,0,0,0.5,0,0,0,0,0,0,0.001,0.033091,0.033091,0.033091,0.033091,0.657193,0.657152
0.67,0.034,0,-0.017459,133.6998,0.018411,0.259023,-0.00215,-13.68182,0.065183,3.753021,5066.787,5404.203,4710.872,5068.052,0.028273,0.028157,0.035981,0.035865,0.031727,0.031843,0.034019,0.034135,-0.170186,-0.043273,-0.376567,-0.249684,5391.747,5415.098,5783.188,5802.856,-510.5561,-129.8183,-1129.696,-749.0481,-0.057112,-0.055943,-0.056752,-0.056306,0,0,122.1288,-122.6948,0,0,0,0,0,0,0,0,-0.062466,-0.063117,-0.061982,-0.061982,-4.019635,-2.472475,398.4137,-406.7759,5005.894,5287.138,4707.014,5006.951,-0.001785,0.005923,0,0,0,0,0,0,0.6863,0,0,159.0547,-0.005933,-0.00671,-0.082342,-0.10101,0,0,0.010059,-0.010553,16.98376,16.75871,16.93618,16.69727,0.033281,0.033281,NaN,NaN,10.10173,-0.002322,195.566,0,-11.09,0,0,0,0.5,0,0,0,0,0,0,0.001,0.033091,0.033091,0.033091,0.033091,0.657193,0.657152
0.68,0.035,0,-0.017459,133.6998,0.018411,0.259023,-0.00215,12.44157,0.053929,2.258654,4925.17,4603.959,4423.613,4088.823,0.029458,0.029592,0.039145,0.039279,0.030542,0.030408,0.030855,0.030721,-0.087366,-0.204578,-0.278294,-0.395566,5194.135,5167.214,5245.303,5222.464,-262.0946,-613.7297,-834.8762,-1186.69,-0.049665,-0.055562,-0.050047,-0.055181,0,0,81.53551,-82.48737,0,0,0,0,0,0,0,0,0.066534,0.065928,0.056895,0.056895,-14.22693,2.527955,261.9102,-274.9579,-4887.276,-4616.698,-4463.698,-4177.203,-0.000475,0.009212,0,0,0,0,0,0,0.6863,0,0,164.0229,0.005897,0.005134,-0.074909,-0.083724,0,0,0.010313,-0.011177,16.4551,16.26237,16.15417,15.95329,0.034984,0.034984,NaN,NaN,10.10169,0.000013,195.5671,0,-9.922,0,0,0,0.5,0,0,0,0,0,0,-0.332,0.034841,0.034841,0.034841,0.034841,0.67715,0.677107
0.69,0.036,0,-0.017459,133.6998,0.018411,0.259023,-0.00215,-11.24003,0.035301,0.885506,4201.632,4496.628,3511.559,3810.02,0.03121,0.031121,0.042665,0.042576,0.02879,0.028879,0.027335,0.027424,-0.228271,-0.121728,-0.394046,-0.287533,4892.911,4910.628,4646.862,4662,-684.8057,-365.179,-1182.127,-862.5897,-0.043759,-0.049667,-0.043493,-0.049936,0,0,-12.6642,11.27819,0,0,0,0,0,0,0,0,-0.046179,-0.046716,-0.058164,-0.058164,-0.965766,-16.29866,-42.214,25.26926,4274.128,4525.744,3673.777,3935.736,0.001166,0.012621,0,0,0,0,0,0,0.6863,0,0,164.0229,0.005897,0.005134,-0.074909,-0.083724,0,0,0.010313,-0.011177,16.4551,16.26237,16.15417,15.95329,0.034984,0.034984,NaN,NaN,10.10169,0.000013,195.5671,0,-9.922,0,0,0,0.5,0,0,0,0,0,0,-0.332,0.034841,0.034841,0.034841,0.034841,0.67715,0.677107
0.7,0.036,0,-0.010868,128.2373,0.012147,0.259804,0.0041,10.15685,0.022904,-0.347154,4105.292,3834.834,3267.754,2995.292,0.032999,0.033105,0.045902,0.046008,0.027001,0.026895,0.024098,0.023992,-0.14858,-0.244334,-0.278324,-0.373989,4591.515,4570.638,4096.544,4078.539,-445.7327,-732.9936,-834.9609,-1121.954,-0.035321,-0.041708,-0.035645,-0.041386,0,0,-96.97128,95.23602,0,0,0,0,0,0,0,0,0.056361,0.055917,0.0457,0.0457,-18.92536,-3.197037,-323.2376,310.6381,-4191.38,-3957.347,-3456.69,-3210.268,0.003052,0.015955,0,0,0,0,0,0,0.8106,0,0,-192.2073,0.006387,0.005741,-0.050904,-0.068317,0,0,-0.017796,0.018297,15.96318,15.8009,15.46065,15.29718,0.036408,0.036408,NaN,NaN,10.10155,0.003571,195.5679,0,-7.116,0,0,0,0.5,0,0,0,0,0,0,-0.611,0.036292,0.036292,0.036292,0.036292,0.697115,0.69707
0.71,0.037,0,-0.010868,128.2373,0.012147,0.259804,0.0041,-9.150678,0.018823,-1.462982,3468.023,3712.016,2563.022,2809.597,0.035142,0.035062,0.049092,0.049011,0.024858,0.024938,0.020908,0.020989,-0.253066,-0.165626,-0.340462,-0.252932,4224.71,4240.468,3554.358,3568.119,-759.1879,-496.8717,-1021.37,-758.7856,-0.030458,-0.027565,-0.030201,-0.027824,0,0,-117.7817,115.8696,0,0,0,0,0,0,0,0,-0.044695,-0.045029,-0.04054,-0.04054,3.600027,-28.1819,-392.3759,361.42,3635.229,3850.142,2648.761,2903.585,0.005102,0.019051,0,0,0,0,0,0,0.8106,0,0,-192.2073,0.006387,0.005741,-0.050904,-0.068317,0,0,-0.017796,0.018297,15.96318,15.8009,15.46065,15.29718,0.036408,0.036408,NaN,NaN,10.10155,0.003571,195.5679,0,-7.116,0,0,0,0.5,0,0,0,0,0,0,-0.611,0.036292,0.036292,0.036292,0.036292,0.697115,0.69707
0.72,0.037,0,-0.010868,128.2373,0.012147,0.259804,0.0041,7.46832,0.001942,-2.423791,3318.519,3138.909,2429.376,2247.539,0.037206,0.037235,0.051764,0.051793,0.022794,0.022765,0.018236,0.018207,-0.178903,-0.245452,-0.222281,-0.288785,3875.302,3869.665,3100.012,3095.057,-536.7012,-736.3438,-666.831,-866.3394,-0.018527,-0.019883,-0.01874,-0.019671,0,0,-86.92766,85.11082,0,0,0,0,0,0,0,0,0.037042,0.036821,0.03524,0.03524,-32.40851,8.362801,-289.7589,283.7027,-3133.628,-2946.333,-2182.417,-2019.065,0.00722,0.021779,0,0,0,0,0,0,0.8106,0,0,-172.0385,0.001356,0.000931,-0.017046,-0.047597,0,0,-0.019961,0.020326,13.86105,13.56737,12.16743,11.95312,0.037491,0.037491,NaN,NaN,10.10155,0.007677,195.5685,0,-3.405,0,0,0,0.5,0,0,0,0,0,0,-0.645,0.037396,0.037396,0.037396,0.037396,0.717088,0.717041
0.73,0.038,0,-0.010868,128.2373,0.012147,0.259804,0.0041,-3.511463,0.023403,-3.20228,2851.925,2953.821,2041.47,2142.661,0.039353,0.039262,0.054093,0.054001,0.020647,0.020738,0.015907,0.015999,-0.220969,-0.188693,-0.222847,-0.190616,3509.019,3526.397,2704.225,2719.718,-662.8969,-566.0707,-668.5294,-571.8374,-0.011135,-0.008592,-0.011036,-0.008691,0,0,-71.83934,70.10735,0,0,0,0,0,0,0,0,-0.017044,-0.017157,-0.012835,-0.012835,-1.665569,-21.01392,-239.4645,214.0185,1239.09,1291.912,667.9304,701.0373,0.009307,0.024047,0,0,0,0,0,0,0.8106,0,0,-172.0385,0.001356,0.000931,-0.017046,-0.047597,0,0,-0.019961,0.020326,13.86105,13.56737,12.16743,11.95312,0.037491,0.037491,NaN,NaN,10.10155,0.007677,195.5685,0,-3.405,0,0,0,0.5,0,0,0,0,0,0,-0.645,0.037396,0.037396,0.037396,0.037396,0.717088,0.717041
0.74,0.038,0,-0.010868,128.2373,0.012147,0.259804,0.0041,0.713816,0.025844,-3.773084,2624.246,2628.808,1945.046,1948.053,0.041305,0.041223,0.055841,0.055759,0.018695,0.018777,0.014159,0.014241,-0.186011,-0.190154,-0.151783,-0.155881,3177.384,3192.807,2407.057,2420.949,-558.0245,-570.4518,-455.3423,-467.6355,-0.002049,-0.001301,-0.002064,-0.001286,0,0,-55.30497,53.90167,0,0,0,0,0,0,0,0,0.002717,0.002698,0.004123,0.004123,-11.49946,-7.407764,-184.3499,171.9774,-181.7751,-180.7994,-204.4473,-204.7634,0.011264,0.0258,0,0,0,0,0,0,0.9351,0,0,-109.2066,-0.000747,-0.000778,0.013408,-0.002966,0,0,-0.014105,0.013327,0.955724,0.949351,1.356402,1.356825,0.037936,0.037936,NaN,NaN,10.1016,0.011591,195.5686,0,-0.113,0,0,0,0.5,0,0,0,0,0,0,-0.503,0.037918,0.037918,0.037918,0.037918,0.737075,0.737028
0.75,0.038,0,-0.010868,128.2373,0.012147,0.259804,0.0041,-0.203633,-0.057685,-4.132286,2401.701,2428.165,1881.08,1905.825,0.043048,0.042944,0.057071,0.056968,0.016952,0.017056,0.012929,0.013032,-0.163332,-0.160635,-0.102207,-0.099525,2880.97,2900.331,2197.851,2215.462,-489.9874,-481.8962,-306.6165,-298.57,0.00359,0.004417,0.003597,0.00441,0,0,-45.37002,40.3411,0,0,0,0,0,0,0,0,-0.00122,-0.001174,0.000282,0.000282,-5.197147,-5.782891,-151.2334,128.7541,74.69595,72.66483,-13.50817,-13.68578,0.012996,0.02702,0,0,0,0,0,0,0.9351,0,0,-109.2066,-0.000747,-0.000778,0.013408,-0.002966,0,0,-0.014105,0.013327,0.955724,0.949351,1.356402,1.356825,0.037936,0.037936,NaN,NaN,10.1016,0.011591,195.5686,0,-0.113,0,0,0,0.5,0,0,0,0,0,0,-0.503,0.037918,0.037918,0.037918,0.037918,0.737075,0.737028
0.76,0.038,0,-0.010868,128.2373,0.012147,0.259804,0.0041,-0.014338,-0.058772,-4.278515,2265.891,2288.063,1913.343,1933.961,0.044474,0.044363,0.057777,0.057665,0.015526,0.015637,0.012223,0.012335,-0.128582,-0.128031,-0.050396,-0.049785,2638.481,2659.204,2077.96,2096.964,-385.7411,-384.0871,-151.1851,-149.3523,0.006759,0.00741,0.006761,0.007408,0,0,-36.12391,29.7473,0,0,0,0,0,0,0,0,-0.000343,-0.000261,0.000875,0.000875,-2.924517,-2.709881,-120.413,96.44187,19.80609,15.24193,-42.69718,-43.15704,0.014418,0.027721,0,0,0,0,0,0,0.9351,0,0,-65.87122,-0.000651,-0.000648,0.030673,0.000397,0,0,-0.009146,0.007334,-0.116516,-0.088991,0.287022,0.287635,0.038057,0.038057,NaN,NaN,10.10161,0.014581,195.5685,0,1.415,0,0,0,0.5,0,0,0,0,0,0,-1.14,0.038042,0.038042,0.038042,0.038042,0.757072,0.757025
0.77,0.038,0,-0.010868,128.2373,0.012147,0.259804,0.0041,-0.027748,-0.052759,-4.223833,2205.363,2226.979,2015.986,2035.656,0.045529,0.045414,0.057995,0.05788,0.014471,0.014586,0.012005,0.01212,-0.089407,-0.089273,-0.003323,-0.003278,2459.262,2480.506,2040.883,2060.439,-268.2177,-267.8153,-9.968757,-9.834648,0.00787,0.008374,0.007872,0.008372,0,0,-28.05815,22.06579,0,0,0,0,0,0,0,0,-0.000307,-0.000213,0.000651,0.000651,-0.391028,-0.208059,-93.52715,73.34418,17.23717,12.0973,-33.4428,-33.76928,0.015471,0.027937,0,0,0,0,0,0,0.9351,0,0,-65.87122,-0.000651,-0.000648,0.030673,0.000397,0,0,-0.009146,0.007334,-0.116516,-0.088991,0.287022,0.287635,0.038057,0.038057,NaN,NaN,10.10161,0.014581,195.5685,0,1.415,0,0,0,0.5,0,0,0,0,0,0,-1.14,0.038042,0.038042,0.038042,0.038042,0.757072,0.757025
0.78,0.038,0,-0.010868,128.2373,0.012147,0.259804,0.0041,-0.024358,-0.050154,-3.986496,2222.591,2242.26,2177.059,2195.051,0.046172,0.046059,0.057776,0.057663,0.013828,0.013941,0.012224,0.012337,-0.047162,-0.047579,0.037968,0.037521,2350.032,2370.78,2078.043,2097.214,-141.485,-142.7367,113.9033,112.5622,0.007046,0.007409,0.007047,0.007409,0,0,-22.03395,16.39176,0,0,0,0,0,0,0,0,-0.000213,-0.00013,0.000486,0.000486,1.935199,2.101151,-71.51067,54.63919,12.0859,7.436223,-26.94907,-27.17177,0.016115,0.02772,0,0,0,0,0,0,1,0,0,-38.42571,-0.000363,-0.000361,0.03339,-0.000329,0,0,-0.00497,0.003729,-0.072174,-0.044104,0.163555,0.16385,0.038211,0.038211,NaN,NaN,10.10162,0.016111,195.5684,0,1.337,0,0,0,0.5,0,0,0,0,0,0,-0.878,0.038196,0.038196,0.038196,0.038196,0.777068,0.777021
0.79,0.038,0,-0.010868,128.2373,0.012147,0.259804,0.0041,-0.021144,-0.05062,-3.590048,2311.976,2329.008,2381.502,2397.059,0.046389,0.046283,0.057186,0.057081,0.013611,0.013717,0.012814,0.012919,-0.004619,-0.005513,0.072211,0.071317,2313.209,2332.607,2178.339,2196.294,-13.85796,-16.54014,216.6311,213.949,0.004532,0.004782,0.004533,0.004782,0,0,-17.62341,12.62108,0,0,0,0,0,0,0,0,-0.000137,-0.000083,0.000343,0.000343,3.886707,4.011675,-54.85756,42.07025,8.057624,4.933363,-20.82093,-20.95695,0.016336,0.027133,-0.019782,-0.019782,0,0,0,0,1,0,0,-38.42571,-0.000363,-0.000361,0.03339,-0.000329,0,0,-0.00497,0.003729,-0.072174,-0.044104,0.163555,0.16385,0.038211,0.038211,NaN,NaN,10.10162,0.016111,195.5684,0,1.337,0,0,0,0.5,0,0,0,0,0,0,-0.878,0.038196,0.038196,0.038196,0.038196,0.777068,0.777021
0.8,0.038,0,-0.013192,-178.0724,-0.000449,0.073744,-0.000111,-0.017948,-0.045787,-3.065964,2466.533,2480.603,2615.566,2628.287,0.046187,0.046093,0.056297,0.056202,0.013813,0.013907,0.013703,0.013798,0.036269,0.035018,0.099048,0.097796,2347.507,2364.865,2329.521,2345.572,108.8074,105.0524,297.1417,293.3866,0.000762,0.000919,0.000763,0.000918,0,0,-12.67338,12.12172,0,0,0,0,0,0,0,0,-0.000076,-0.000067,0.000211,0.000211,5.168146,5.300284,-37.07613,40.40572,4.794017,4.209877,-14.0703,-14.13875,0.01614,0.02625,0,0,0,0,0,0,1,0,0,-24.7951,-0.000156,-0.000155,0.024642,-0.000909,0,0,-0.002413,0.002496,-0.026419,-0.0231,0.074163,0.074252,0.038243,0.038243,NaN,NaN,10.10162,0.015995,195.5683,0,0.052,0,0,0,0.5,0,0,0,0,0,0,0.076,0.038243,0.038243,0.038243,0.038243,0.797067,0.797019
0.81,0.038,0,-0.013192,-178.0724,-0.000449,0.073744,-0.000111,-0.041874,0.092275,-2.446917,2670.525,2681.985,2868.097,2878.357,0.045603,0.045523,0.05518,0.055099,0.014397,0.014477,0.01482,0.014901,0.072002,0.070721,0.118986,0.117704,2446.883,2461.691,2519.436,2533.084,216.0057,212.1612,356.9548,353.1103,-0.00244,-0.002323,-0.002439,-0.002324,0,0,-10.5239,11.09991,0,0,0,0,0,0,0,0,-0.000204,-0.000232,-0.000009,-0.000009,3.595149,3.640023,-31.49475,36.99969,13.91326,15.84606,0.667766,0.67013,0.015563,0.02514,-0.019782,-0.019782,0,0,0,0,1,0,0,-24.7951,-0.000156,-0.000155,0.024642,-0.000909,0,0,-0.002413,0.002496,-0.026419,-0.0231,0.074163,0.074252,0.038243,0.038243,NaN,NaN,10.10162,0.015995,195.5683,0,0.052,0,0,0,0.5,0,0,0,0,0,0,0.076,0.038243,0.038243,0.038243,0.038243,0.797067,0.797019
0.82,0.038,0,-0.013192,-178.0724,-0.000449,0.073744,-0.000111,0.064345,0.097655,-1.774001,2916.35,2921.278,3130.192,3133.888,0.044691,0.044628,0.0539,0.053838,0.015309,0.015372,0.0161,0.016162,0.10328,0.100762,0.132963,0.130385,2602.098,2613.626,2736.911,2747.469,309.8378,302.283,398.8866,391.153,-0.0055,-0.005376,-0.005502,-0.005374,0,0,-8.874358,9.474881,0,0,0,0,0,0,0,0,0.000345,0.000282,0.000547,0.000547,3.969849,3.818152,-25.5862,31.58294,-25.63394,-21.01456,-43.62854,-43.6801,0.01466,0.023869,0,0,0,0,0,0,1,0,0,-18.34924,-0.000125,-0.000128,0.011644,-0.001825,0,0,-0.001471,0.001694,0.124572,0.101997,0.201309,0.201374,0.038336,0.038336,NaN,NaN,10.10162,0.014419,195.5684,0,-1.123,0,0,0,0.5,0,0,0,0,0,0,0.212,0.038321,0.038321,0.038321,0.038321,0.817065,0.817017
0.83,0.038,0,-0.013192,-178.0724,-0.000449,0.073744,-0.000111,-0.22701,0.101743,-1.071257,3179.352,3189.835,3378.867,3388.409,0.043517,0.04347,0.052536,0.052488,0.016483,0.01653,0.017464,0.017512,0.125185,0.125811,0.137329,0.137895,2801.697,2810.546,2968.92,2976.966,375.5516,377.4291,411.9847,413.6834,-0.008507,-0.008465,-0.0085,-0.008472,0,0,-7.545022,8.104437,0,0,0,0,0,0,0,0,-0.00123,-0.001328,-0.001229,-0.001229,3.428156,3.962238,-21.79864,27.01478,99.6761,107.9494,105.8171,106.1159,0.013493,0.022512,0,0,0,0,0,0,1,0,0,-18.34924,-0.000125,-0.000128,0.011644,-0.001825,0,0,-0.001471,0.001694,0.124572,0.101997,0.201309,0.201374,0.038336,0.038336,NaN,NaN,10.10162,0.014419,195.5684,0,-1.123,0,0,0,0.5,0,0,0,0,0,0,0.212,0.038321,0.038321,0.038321,0.038321,0.817065,0.817017
0.84,0.038,0,-0.013192,-178.0724,-0.000449,0.073744,-0.000111,1.108989,0.097728,-0.376961,3477.947,3442.129,3637.154,3600.581,0.042142,0.042131,0.05114,0.051129,0.017858,0.017869,0.01886,0.018871,0.14855,0.134111,0.144213,0.129759,3035.708,3037.751,3206.194,3208.038,445.6463,402.3289,432.6376,389.2755,-0.011359,-0.011083,-0.011394,-0.011047,0,0,-6.488776,6.976969,0,0,0,0,0,0,0,0,0.006249,0.00612,0.006816,0.006816,4.320199,2.14799,-16.9279,23.25656,-554.0729,-537.0308,-631.9718,-625.6171,0.012137,0.021134,0,0,0,0,0,0,1,0,0,-13.46574,-0.000276,-0.000347,-0.001704,-0.010337,0,0,-0.000857,0.00103,2.369964,2.314074,2.618788,2.611018,0.038497,0.038497,NaN,NaN,10.10161,0.011857,195.5686,0,-2.213,0,0,0,0.5,0,0,0,0,0,0,0.174,0.038479,0.038479,0.038479,0.038479,0.837062,0.837013
0.85,0.039,0,-0.013192,-178.0724,-0.000449,0.073744,-0.000111,-8.319499,0.050849,0.275886,3595.94,3868.78,3693.135,3967.317,0.04073,0.040604,0.049859,0.049734,0.01927,0.019396,0.020141,0.020266,0.102118,0.197157,0.083268,0.178337,3274.753,3298.463,3423.91,3445.219,306.351,591.468,249.8014,535.0078,-0.01316,-0.014362,-0.012882,-0.014641,0,0,-5.830338,6.320969,0,0,0,0,0,0,0,0,-0.048256,-0.048415,-0.051535,-0.051535,-3.426482,9.82393,-23.04127,31.17885,3748.236,3986.87,3833.606,4072.32,0.010667,0.019797,0,0,0,0,0,0,1,0,0,-13.46574,-0.000276,-0.000347,-0.001704,-0.010337,0,0,-0.000857,0.00103,2.369964,2.314074,2.618788,2.611018,0.038497,0.038497,NaN,NaN,10.10161,0.011857,195.5686,0,-2.213,0,0,0,0.5,0,0,0,0,0,0,0.174,0.038479,0.038479,0.038479,0.038479,0.837062,0.837013
0.86,0.039,0,-0.013192,-178.0724,-0.000449,0.073744,-0.000111,10.93874,0.035762,0.86665,4144.793,3831.225,4167.952,3852.73,0.039095,0.039227,0.048486,0.048618,0.020905,0.020773,0.021514,0.021382,0.205204,0.095084,0.174671,0.064611,3555.291,3530.062,3657.351,3634.877,615.6074,285.251,524.0106,193.833,-0.016062,-0.015917,-0.016379,-0.0156,0,0,-13.29951,13.63869,0,0,0,0,0,0,0,0,0.055113,0.054929,0.056439,0.056439,4.96085,-0.23787,-35.53946,41.38624,-4225.345,-3954.204,-4245.234,-3972.917,0.009161,0.018552,0.019782,0.019782,0,0,0,0,1,0,0,-26.93819,-0.000145,-0.000779,-0.012033,-0.078611,0,0,-0.001496,0.001693,15.98688,15.79873,16.00077,15.81164,0.039217,0.039217,NaN,NaN,10.10156,0.008894,195.5688,0,-3.105,0,0,0,0.5,0,0,0,0,0,0,0.123,0.039111,0.039111,0.039111,0.039111,0.857046,0.856997
0.87,0.04,0,-0.013192,-178.0724,-0.000449,0.073744,-0.000111,-11.38815,0.035724,1.373261,4067.123,4362.376,4006.586,4305.364,0.037725,0.037665,0.047471,0.047412,0.022275,0.022335,0.022529,0.022588,0.088826,0.197336,0.050545,0.159055,3786.129,3797.591,3829.833,3839.966,266.4755,592.0038,151.6331,477.1614,-0.017418,-0.017181,-0.017097,-0.017504,0,0,-9.984089,10.13454,0,0,0,0,0,0,0,0,-0.055727,-0.055927,-0.056568,-0.056568,0.347943,1.960512,-33.2803,33.78181,4158.51,4411.546,4106.275,4362.896,0.007695,0.017442,0,0,0,0,0,0,1,0,0,-26.93819,-0.000145,-0.000779,-0.012033,-0.078611,0,0,-0.001496,0.001693,15.98688,15.79873,16.00077,15.81164,0.039217,0.039217,NaN,NaN,10.10156,0.008894,195.5688,0,-3.105,0,0,0,0.5,0,0,0,0,0,0,0.123,0.039111,0.039111,0.039111,0.039111,0.857046,0.856997
0.88,0.04,0,-0.013192,-178.0724,-0.000449,0.073744,-0.000111,11.74946,0.031483,1.775109,4567.816,4239.625,4430.984,4101.436,0.036255,0.036424,0.04641,0.046579,0.023745,0.023576,0.02359,0.023421,0.186041,0.072941,0.144213,0.031114,4038.545,4005.866,4010.305,3981.609,558.1185,218.8218,432.6369,93.34013,-0.018063,-0.017329,-0.018387,-0.017004,0,0,-1.980955,1.967856,0,0,0,0,0,0,0,0,0.056396,0.056192,0.05881,0.05881,0.270117,-0.141218,-2.216892,2.294784,-4586.102,-4306.679,-4469.968,-4188.061,0.00634,0.016494,0,0,0,0,0,0,1,0,0,-3.948811,-0.000734,-0.001383,-0.01647,-0.080742,0,0,0.000084,-0.000091,16.24069,16.04378,16.15859,15.96086,0.040363,0.040363,NaN,NaN,10.10156,0.006129,195.5692,0,-3.381,0,0,0,0.5,0,0,0,0,0,0,-0.001,0.04024,0.04024,0.04024,0.04024,0.877019,0.876968
0.89,0.041,0,-0.013192,-178.0724,-0.000449,0.073744,-0.000111,-12.01929,0.0281,2.07201,4388.365,4707.197,4177.926,4500.712,0.03519,0.03512,0.045765,0.045695,0.02481,0.02488,0.024235,0.024305,0.051931,0.168845,0.010312,0.127196,4216.763,4230.396,4119.923,4131.809,155.7903,506.5308,30.93454,381.5857,-0.017631,-0.016878,-0.017285,-0.017225,0,0,8.183357,-8.351662,0,0,0,0,0,0,0,0,-0.060003,-0.060202,-0.059994,-0.059994,-0.301131,-1.596905,22.75507,-25.21416,4433.692,4703.914,4253.795,4529.21,0.005155,0.01573,0,0,0,0,0,0,1,0,0,-3.948811,-0.000734,-0.001383,-0.01647,-0.080742,0,0,0.000084,-0.000091,16.24069,16.04378,16.15859,15.96086,0.040363,0.040363,NaN,NaN,10.10156,0.006129,195.5692,0,-3.381,0,0,0,0.5,0,0,0,0,0,0,-0.001,0.04024,0.04024,0.04024,0.04024,0.877019,0.876968
0.9,0.042,0,-0.007337,122.7913,0.01181,0.065512,-0.000357,12.1911,0.020182,2.250898,4807.325,4477.737,4541.856,4210.02,0.034115,0.034262,0.045087,0.045234,0.025885,0.025738,0.024913,0.024766,0.144631,0.029325,0.106558,-0.008777,4402.342,4373.515,4235.159,4210.121,433.888,87.97564,319.6716,-26.33011,-0.016035,-0.016208,-0.016372,-0.015873,0,0,11.97093,-12.24271,0,0,0,0,0,0,0,0,0.058378,0.058192,0.059194,0.059194,-3.674751,0.29297,39.90308,-40.80902,-4788.269,-4509.704,-4564.107,-4281.318,0.004188,0.015161,0,0,0,0,0,0,1,0,0,24.21363,0.000173,-0.000499,-0.014986,-0.082359,0,0,0.001755,-0.001929,16.3844,16.18664,16.22511,16.02601,0.041576,0.041576,NaN,NaN,10.10158,0.004061,195.5695,0,-3.042,0,0,0,0.5,0,0,0,0,0,0,-0.094,0.041447,0.041447,0.041447,0.041447,0.896989,0.896937
0.91,0.042,0,-0.007337,122.7913,0.01181,0.065512,-0.000357,-12.26367,0.018177,2.31477,4522.991,4853.565,4212.118,4546.525,0.033523,0.033419,0.044841,0.044737,0.026477,0.026581,0.025159,0.025263,0.001729,0.120729,-0.03022,0.088871,4499.743,4520.078,4277,4294.6,5.185553,362.1841,-90.65777,266.6089,-0.014405,-0.014514,-0.014058,-0.014862,0,0,8.595343,-8.964855,0,0,0,0,0,0,0,0,-0.060216,-0.060383,-0.061763,-0.061763,-0.423151,-4.198062,23.92764,-29.78062,4548.111,4827.152,4283.117,4568.064,0.003471,0.014789,0,0,0,0,0,0,1,0,0,24.21363,0.000173,-0.000499,-0.014986,-0.082359,0,0,0.001755,-0.001929,16.3844,16.18664,16.22511,16.02601,0.041576,0.041576,NaN,NaN,10.10158,0.004061,195.5695,0,-3.042,0,0,0,0.5,0,0,0,0,0,0,-0.094,0.041447,0.041447,0.041447,0.041447,0.896989,0.896937
0.92,0.043,0,-0.007337,122.7913,0.01181,0.065512,-0.000357,12.24849,0.009468,2.275339,4848.486,4522.785,4515.033,4186.26,0.03296,0.033078,0.044553,0.044671,0.02704,0.026922,0.025447,0.025329,0.092342,-0.023708,0.068173,-0.047877,4598.304,4575.034,4326.024,4305.941,277.0246,-71.12251,204.5163,-143.6308,-0.011927,-0.013036,-0.012269,-0.012693,0,0,-0.899073,0.505129,0,0,0,0,0,0,0,0,0.059454,0.05931,0.058612,0.058612,-5.131211,0.016315,-2.996909,-2.599741,-4822.883,-4547.937,-4541.362,-4260.945,0.003019,0.014612,0,0,0,0,0,0,1,0,0,-1.404202,0.001109,0.000424,-0.009523,-0.08289,0,0,-0.000136,0.000024,16.40909,16.21367,16.20902,16.01176,0.042797,0.042797,NaN,NaN,10.10159,0.002983,195.5698,0,-2.328,0,0,0,0.5,0,0,0,0,0,0,-0.139,0.042674,0.042674,0.042674,0.042674,0.916959,0.916906
