TIME,DISTANCE,MARKERS,SPEED,SPEEDANGLE,SPEEDLAT,VELOCITY,YAWRATE,ACCELERATIONLAT,ACCELERATIONLONG,ACCELERATIONVERT,SUSPENSIONLOADFL,SUSPENSIONLOADFR,SUSPENSIONLOADRL,SUSPENSIONLOADRR,SUSPENSIONTRAVELFL,SUSPENSIONTRAVELFR,SUSPENSIONTRAVELRL,SUSPENSIONTRAVELRR,SUSPENSIONCONTACTDEPTHFL,SUSPENSIONCONTACTDEPTHFR,SUSPENSIONCONTACTDEPTHRL,SUSPENSIONCONTACTDEPTHRR,SUSPENSIONCONTACTSPEEDFL,SUSPENSIONCONTACTSPEEDFR,SUSPENSIONCONTACTSPEEDRL,SUSPENSIONCONTACTSPEEDRR,SUSPENSIONSPRINGFORCEFL,SUSPENSIONSPRINGFORCEFR,SUSPENSIONSPRINGFORCERL,SUSPENSIONSPRINGFORCERR,SUSPENSIONDAMPERFORCEFL,SUSPENSIONDAMPERFORCEFR,SUSPENSIONDAMPERFORCERL,SUSPENSIONDAMPERFORCERR,WHEELSPINFL,WHEELSPINFR,WHEELSPINRL,WHEELSPINRR,WHEELSHAFTTORQUEFL,WHEELSHAFTTORQUEFR,WHEELSHAFTTORQUERL,WHEELSHAFTTORQUERR,WHEELBRAKETORQUEFL,WHEELBRAKETORQUEFR,WHEELBRAKETORQUERL,WHEELBRAKETORQUERR,TIRESLIPLONGFL,TIRESLIPLONGFR,TIRESLIPLONGRL,TIRESLIPLONGRR,TIRESLIPLATFL,TIRESLIPLATFR,TIRESLIPLATRL,TIRESLIPLATRR,TIREFORCELONGFL,TIREFORCELONGFR,TIREFORCELONGRL,TIREFORCELONGRR,TIREFORCELATFL,TIREFORCELATFR,TIREFORCELATRL,TIREFORCELATRR,RIDEHEIGHTFRONT,RIDEHEIGHTREAR,ROLLANGLEFRONT,ROLLANGLEREAR,GROUNDSLOPE,GROUNDGRADE,GEAR,STEERINGANGLE,THROTTLE,BRAKEPRESSURE,TORQUEDIFFFRONT,TORQUEDIFFREAR,SPEEDDIFFFRONT,SPEEDDIFFREAR,PITCHRATE,ROLLRATE,SLIPRATIOFL,SLIPRATIOFR,SLIPRATIORL,SLIPRATIORR,SLIPANGLEFL,SLIPANGLEFR,SLIPANGLERL,SLIPANGLERR,LAPDISTANCE,TOTALDISTANCE,FORCEFEEDBACKFORCERATIO,FORCEFEEDBACKDAMPERRATIO,POSITIONX,POSITIONY,POSITIONZ,MOTORRPMFRONT,MOTORRPMREAR,POWERELECTRICALFRONT,POWERELECTRICALREAR,POWERELECTRICALTOTAL,POWERBALANCE,WHEELTORQUEBALANCE,EFFICIENCYFRONT,EFFICIENCYREAR,TORQUEMECHANICALFRONT,TORQUEMECHANICALREAR,TORQUEROTORFRONT,TORQUEROTORREAR,919SPEED,IDRSPEED,919TRAVELEDDISTANCE,IDRTRAVELEDDISTANCE,919TIMEDIFF,IDRTIMEDIFF
0.000000,0.000,0,0.000000,0.000000,0.000000,0.000000,0.000000,0.000000,0.000000,0.000000,0.000000,0.000000,0.000000,0.000000,0.060000,0.060000,0.070000,0.070000,0.000000,0.000000,0.000000,0.000000,0.000000,0.000000,0.000000,0.000000,0.000000,0.000000,0.000000,0.000000,0.000000,0.000000,0.000000,0.000000,0.000000,0.000000,0.258388,0.258388,0.000000,0.000000,484.477400,484.477400,0.000000,0.000000,0.000000,0.000000,0.000000,0.000000,-0.258388,-0.258388,0.000000,0.000000,0.000000,0.000000,0.000000,0.000000,0.000000,0.000000,0.000000,0.000000,0.000000,0.000000,0.030000,0.040000,0.000000,0.000000,0.224686,0.003922,1.000000,0.000000,1.000000,0.000000,0.000000,0.000000,0.000000,0.000000,0.000000,0.000000,NaN,NaN,NaN,NaN,NaN,NaN,NaN,NaN,0.000000,0.000000,NaN,NaN,10.100000,0.470000,195.560000,0.000000,49.348000,0.000000,0.594000,0.594000,0.000000,0.000000,0.000000,0.886000,0.000000,203.809000,0.000000,161.472000,0.000000,0.000000,0.000000,0.000000,0.000000,0.000000
0.010000,0.000,0,0.000000,0.000000,0.000000,0.000000,0.000000,0.000000,-0.000088,-9.810049,0.000000,0.000000,0.000000,0.000000,0.060000,0.060000,0.070000,0.070000,0.000000,0.000000,0.000000,0.000000,0.000000,0.000000,0.000000,0.000000,0.000000,0.000000,0.000000,0.000000,0.000000,0.000000,0.000000,0.000000,0.000000,0.000000,1.579511,1.579511,0.000000,0.000000,502.663900,502.663900,0.000000,0.000000,0.000000,0.000000,0.000000,0.000000,-1.579511,-1.579511,0.000000,0.000000,0.000000,0.000000,0.000000,0.000000,0.000000,0.000000,0.000000,0.000000,0.000000,0.000000,0.030000,0.040000,0.000000,0.000000,0.224686,0.003922,1.000000,0.000000,1.000000,0.000000,0.000000,0.000000,0.000000,0.000000,0.000000,0.000000,NaN,NaN,NaN,NaN,NaN,NaN,NaN,NaN,0.000000,0.000000,NaN,NaN,10.100000,0.470000,195.560000,0.000000,49.348000,0.000000,0.594000,0.594000,0.000000,0.000000,0.000000,0.886000,0.000000,203.809000,0.000000,161.472000,0.000000,0.000000,0.000000,0.000000,0.000000,0.000000
0.020000,0.000,0,0.000000,0.000000,0.000000,0.000000,0.000000,0.000000,-0.000446,-9.810239,0.000000,0.000000,0.000000,0.000000,0.060000,0.060000,0.070000,0.070000,0.000000,0.000000,0.000000,0.000000,0.000000,0.000000,0.000000,0.000000,0.000000,0.000000,0.000000,0.000000,0.000000,0.000000,0.000000,0.000000,0.000000,0.000000,2.942395,2.942395,0.000000,0.000000,515.917000,515.917000,0.000000,0.000000,0.000000,0.000000,0.000000,0.000000,-2.942395,-2.942395,0.000000,0.000000,0.000000,0.000000,0.000000,0.000000,0.000000,0.000000,0.000000,0.000000,0.000000,0.000000,0.030000,0.040000,0.000000,0.000000,0.224686,0.003922,1.000000,0.000000,1.000000,0.000000,0.000000,0.000000,0.000000,0.000000,-0.000001,0.000000,NaN,NaN,NaN,NaN,NaN,NaN,NaN,NaN,0.000000,0.000000,NaN,NaN,10.100000,0.467842,195.560000,0.000000,561.956000,0.000000,12.901000,12.901000,0.000000,0.000000,0.000000,0.944000,0.000000,217.215000,0.000000,172.145000,0.000000,0.000000,0.000000,0.000000,0.018000,0.018000
0.030000,0.000,0,0.000000,0.000000,0.000000,0.000000,0.000000,0.000000,-0.001079,-9.810581,0.000000,0.000000,0.000000,0.000000,0.060000,0.060000,0.070000,0.070000,0.000000,0.000000,0.000000,0.000000,0.000000,0.000000,0.000000,0.000000,0.000000,0.000000,0.000000,0.000000,0.000000,0.000000,0.000000,0.000000,0.000000,0.000000,4.331860,4.331860,0.000000,0.000000,523.831500,523.831500,0.000000,0.000000,0.000000,0.000000,0.000000,0.000000,-4.331860,-4.331860,0.000000,0.000000,0.000000,0.000000,0.000000,0.000000,0.000000,0.000000,0.000000,0.000000,0.000000,0.000000,0.030000,0.040000,0.000000,0.000000,0.224686,0.003922,1.000000,0.000000,1.000000,0.000000,0.000000,0.000000,0.000000,0.000000,-0.000001,0.000000,NaN,NaN,NaN,NaN,NaN,NaN,NaN,NaN,0.000000,0.000000,NaN,NaN,10.100000,0.467842,195.560000,0.000000,561.956000,0.000000,12.901000,12.901000,0.000000,0.000000,0.000000,0.944000,0.000000,217.215000,0.000000,172.145000,0.000000,0.000000,0.000000,0.000000,0.018000,0.018000
0.040000,0.000,0,0.000000,0.000000,0.000000,0.000000,0.000000,0.000000,-0.001986,-9.811073,0.000000,0.000000,0.000000,0.000000,0.060000,0.060000,0.070000,0.070000,0.000000,0.000000,0.000000,0.000000,0.000000,0.000000,0.000000,0.000000,0.000000,0.000000,0.000000,0.000000,0.000000,0.000000,0.000000,0.000000,0.000000,0.000000,5.735540,5.735540,0.000000,0.000000,527.623700,527.623700,0.000000,0.000000,0.000000,0.000000,0.000000,0.000000,-5.735540,-5.735540,0.000000,0.000000,0.000000,0.000000,0.000000,0.000000,0.000000,0.000000,0.000000,0.000000,0.000000,0.000000,0.030000,0.040000,0.000000,0.000000,0.224686,0.003922,1.000000,0.000000,1.000000,0.000000,0.000000,0.000000,0.000000,0.000000,-0.000011,0.000000,NaN,NaN,NaN,NaN,NaN,NaN,NaN,NaN,0.000000,0.000000,NaN,NaN,10.100000,0.461759,195.560000,0.000000,1095.407000,0.000000,25.736000,25.736000,0.000000,0.000000,0.000000,0.964000,0.000000,221.944000,0.000000,175.911000,0.000000,0.000000,0.000000,0.000000,0.038000,0.038000
0.050000,0.000,0,0.000000,0.000000,0.000000,0.000000,0.000000,0.000000,-0.003168,-9.811699,0.000000,0.000000,0.000000,0.000000,0.060000,0.060000,0.070000,0.070000,0.000000,0.000000,0.000000,0.000000,0.000000,0.000000,0.000000,0.000000,0.000000,0.000000,0.000000,0.000000,0.000000,0.000000,0.000000,0.000000,0.000000,0.000000,7.144766,7.144766,0.000000,0.000000,528.769200,528.769200,0.000000,0.000000,0.000000,0.000000,0.000000,0.000000,-7.144766,-7.144766,0.000000,0.000000,0.000000,0.000000,0.000000,0.000000,0.000000,0.000000,0.000000,0.000000,0.000000,0.000000,0.030000,0.040000,0.000000,0.000000,0.224670,0.003921,1.000000,0.000000,1.000000,0.000000,0.000000,0.000000,0.000000,0.000000,-0.000011,0.000000,NaN,NaN,NaN,NaN,NaN,NaN,NaN,NaN,0.000000,0.000000,NaN,NaN,10.100000,0.461759,195.560000,0.000000,1095.407000,0.000000,25.736000,25.736000,0.000000,0.000000,0.000000,0.964000,0.000000,221.944000,0.000000,175.911000,0.000000,0.000000,0.000000,0.000000,0.038000,0.038000
0.060000,0.000,0,0.000000,0.000000,0.000000,0.000000,0.000000,0.000000,-0.004624,-9.812474,0.000000,0.000000,0.000000,0.000000,0.060000,0.060000,0.070000,0.070000,0.000000,0.000000,0.000000,0.000000,0.000000,0.000000,0.000000,0.000000,0.000000,0.000000,0.000000,0.000000,0.000000,0.000000,0.000000,0.000000,0.000000,0.000000,8.509179,8.509179,0.000000,0.000000,483.679200,483.679200,0.000000,0.000000,0.000000,0.000000,0.000000,0.000000,-8.509179,-8.509179,0.000000,0.000000,0.000000,0.000000,0.000000,0.000000,0.000000,0.000000,0.000000,0.000000,0.000000,0.000000,0.030000,0.040000,0.000000,0.000000,0.224655,0.003921,1.000000,0.000000,1.000000,0.000000,0.000000,0.000000,0.000000,0.000000,-0.000039,0.000000,NaN,NaN,NaN,NaN,NaN,NaN,NaN,NaN,0.000000,0.000000,NaN,NaN,10.100000,0.451752,195.560000,0.000000,1625.133000,0.000000,35.000000,35.000000,0.000000,0.000000,0.000000,0.967000,0.000000,201.910000,0.000000,159.960000,0.000000,0.000000,0.000000,0.000000,0.058000,0.058000
0.070000,0.000,0,0.000000,0.000000,0.000000,0.000000,0.000000,0.000000,-0.006353,-9.813428,0.000000,0.000000,0.000000,0.000000,0.060000,0.060000,0.070000,0.070000,0.000000,0.000000,0.000000,0.000000,0.000000,0.000000,0.000000,0.000000,0.000000,0.000000,0.000000,0.000000,0.000000,0.000000,0.000000,0.000000,0.000000,0.000000,9.694785,9.694785,0.000000,0.000000,421.923200,421.923200,0.000000,0.000000,0.000000,0.000000,0.000000,0.000000,-9.694785,-9.694785,0.000000,0.000000,0.000000,0.000000,0.000000,0.000000,0.000000,0.000000,0.000000,0.000000,0.000000,0.000000,0.030000,0.040000,0.000000,0.000000,0.224625,0.003920,1.000000,0.000000,1.000000,0.000000,0.000000,0.000000,0.000000,0.000000,-0.000039,0.000000,NaN,NaN,NaN,NaN,NaN,NaN,NaN,NaN,0.000000,0.000000,NaN,NaN,10.100000,0.451752,195.560000,0.000000,1625.133000,0.000000,35.000000,35.000000,0.000000,0.000000,0.000000,0.967000,0.000000,201.910000,0.000000,159.960000,0.000000,0.000000,0.000000,0.000000,0.058000,0.058000
0.080000,0.000,0,0.000000,0.000000,0.000000,0.000000,0.000000,0.000000,-0.008356,-9.814501,0.000000,0.000000,0.000000,0.000000,0.060000,0.060000,0.070000,0.070000,0.000000,0.000000,0.000000,0.000000,0.000000,0.000000,0.000000,0.000000,0.000000,0.000000,0.000000,0.000000,0.000000,0.000000,0.000000,0.000000,0.000000,0.000000,10.511530,10.511530,0.000000,0.000000,-2.388148,-2.388148,0.000000,0.000000,0.000000,0.000000,0.000000,0.000000,-10.511530,-10.511530,0.000000,0.000000,0.000000,0.000000,0.000000,0.000000,0.000000,0.000000,0.000000,0.000000,0.000000,0.000000,0.030000,0.040000,0.000000,0.000000,0.224579,0.003920,1.000000,0.000000,1.000000,0.000000,0.000000,0.000000,0.000000,0.000000,-0.000094,0.000000,NaN,NaN,NaN,NaN,NaN,NaN,NaN,NaN,0.000000,0.000000,NaN,NaN,10.100000,0.437818,195.560000,0.000000,2007.554000,0.000000,0.000000,0.000000,0.500000,0.000000,0.000000,0.967000,0.000000,0.000000,0.000000,-0.796000,0.000000,0.000000,0.000000,0.000000,0.078000,0.078000
0.090000,0.000,0,0.000000,0.000000,0.000000,0.000000,0.000000,0.000000,-0.010630,-9.815722,0.000000,0.000000,0.000000,0.000000,0.060000,0.060000,0.070000,0.070000,0.000000,0.000000,0.000000,0.000000,0.000000,0.000000,0.000000,0.000000,0.000000,0.000000,0.000000,0.000000,0.000000,0.000000,0.000000,0.000000,0.000000,0.000000,10.505170,10.505170,0.000000,0.000000,-2.388823,-2.388823,0.000000,0.000000,0.000000,0.000000,0.000000,0.000000,-10.505170,-10.505170,0.000000,0.000000,0.000000,0.000000,0.000000,0.000000,0.000000,0.000000,0.000000,0.000000,0.000000,0.000000,0.030000,0.040000,0.000000,0.000000,0.224510,0.003918,1.000000,0.000000,1.000000,0.000000,0.000000,0.000000,0.000000,0.000000,-0.000094,0.000000,NaN,NaN,NaN,NaN,NaN,NaN,NaN,NaN,0.000000,0.000000,NaN,NaN,10.100000,0.437818,195.560000,0.000000,2007.554000,0.000000,0.000000,0.000000,0.500000,0.000000,0.000000,0.967000,0.000000,0.000000,0.000000,-0.796000,0.000000,0.000000,0.000000,0.000000,0.078000,0.078000
0.100000,0.000,0,-0.000440,180.000000,0.000000,0.981239,0.000000,0.000000,-0.013176,-9.817123,0.000000,0.000000,0.000000,0.000000,0.060000,0.060000,0.070000,0.070000,0.000000,0.000000,0.000000,0.000000,0.000000,0.000000,0.000000,0.000000,0.000000,0.000000,0.000000,0.000000,0.000000,0.000000,0.000000,0.000000,0.000000,0.000000,10.498800,10.498800,0.000000,0.000000,-2.388643,-2.388643,0.000000,0.000000,0.000000,0.000000,0.000000,0.000000,-10.498800,-10.498800,0.000000,0.000000,0.000000,0.000000,0.000000,0.000000,0.000000,0.000000,0.000000,0.000000,0.000000,0.000000,0.030000,0.040000,0.000000,0.000000,0.224419,0.003917,1.000000,0.000000,1.000000,0.000000,0.000000,0.000000,0.000000,0.000000,-0.000185,0.000000,NaN,NaN,NaN,NaN,NaN,NaN,NaN,NaN,0.000000,0.000000,NaN,NaN,10.100000,0.419957,195.560000,0.000000,2005.122000,0.000000,0.000000,0.000000,0.500000,0.000000,0.000000,0.967000,0.000000,0.000000,0.000000,-0.796000,0.000000,0.000000,0.000000,0.000000,0.098000,0.098000
0.110000,0.000,0,-0.000440,180.000000,0.000000,0.981239,0.000000,0.000000,-0.015992,-9.818673,0.000000,0.000000,0.000000,0.000000,0.060000,0.060000,0.070000,0.070000,0.000000,0.000000,0.000000,0.000000,0.000000,0.000000,0.000000,0.000000,0.000000,0.000000,0.000000,0.000000,0.000000,0.000000,0.000000,0.000000,0.000000,0.000000,10.492430,10.492430,0.000000,0.000000,-2.388741,-2.388741,0.000000,0.000000,0.000000,0.000000,0.000000,0.000000,-10.492430,-10.492430,0.000000,0.000000,0.000000,0.000000,0.000000,0.000000,0.000000,0.000000,0.000000,0.000000,0.000000,0.000000,0.030000,0.040000,0.000000,0.000000,0.224289,0.003915,1.000000,0.000000,1.000000,0.000000,0.000000,0.000000,0.000000,0.000000,-0.000185,0.000000,NaN,NaN,NaN,NaN,NaN,NaN,NaN,NaN,0.000000,0.000000,NaN,NaN,10.100000,0.419957,195.560000,0.000000,2005.122000,0.000000,0.000000,0.000000,0.500000,0.000000,0.000000,0.967000,0.000000,0.000000,0.000000,-0.796000,0.000000,0.000000,0.000000,0.000000,0.098000,0.098000
0.120000,0.000,0,-0.000440,180.000000,0.000000,0.981239,0.000000,0.000000,-0.019077,-9.820342,0.000000,0.000000,0.000000,0.000000,0.060000,0.060000,0.070000,0.070000,0.000000,0.000000,0.000000,0.000000,0.000000,0.000000,0.000000,0.000000,0.000000,0.000000,0.000000,0.000000,0.000000,0.000000,0.000000,0.000000,0.000000,0.000000,10.486060,10.486060,0.000000,0.000000,-2.388846,-2.388846,0.000000,0.000000,0.000000,0.000000,0.000000,0.000000,-10.486060,-10.486060,0.000000,0.000000,0.000000,0.000000,0.000000,0.000000,0.000000,0.000000,0.000000,0.000000,0.000000,0.000000,0.030000,0.040000,0.000000,0.000000,0.224121,0.003912,1.000000,0.000000,1.000000,0.000000,0.000000,0.000000,0.000000,0.000000,-0.000322,0.000000,NaN,NaN,NaN,NaN,NaN,NaN,NaN,NaN,0.000000,0.000000,NaN,NaN,10.100000,0.398166,195.560000,0.000000,2002.690000,0.000000,0.000000,0.000000,0.500000,0.000000,0.000000,0.967000,0.000000,0.000000,0.000000,-0.796000,0.000000,0.000000,0.000000,0.000000,0.118000,0.118000
0.130000,0.000,0,-0.000440,180.000000,0.000000,0.981239,0.000000,0.000000,-0.022431,-9.822130,0.000000,0.000000,0.000000,0.000000,0.060000,0.060000,0.070000,0.070000,0.000000,0.000000,0.000000,0.000000,0.000000,0.000000,0.000000,0.000000,0.000000,0.000000,0.000000,0.000000,0.000000,0.000000,0.000000,0.000000,0.000000,0.000000,10.479690,10.479690,0.000000,0.000000,-2.388667,-2.388667,0.000000,0.000000,0.000000,0.000000,0.000000,0.000000,-10.479690,-10.479690,0.000000,0.000000,0.000000,0.000000,0.000000,0.000000,0.000000,0.000000,0.000000,0.000000,0.000000,0.000000,0.030000,0.040000,0.000000,0.000000,0.223908,0.003908,1.000000,0.000000,1.000000,0.000000,0.000000,0.000000,0.000000,0.000000,-0.000322,0.000000,NaN,NaN,NaN,NaN,NaN,NaN,NaN,NaN,0.000000,0.000000,NaN,NaN,10.100000,0.398166,195.560000,0.000000,2002.690000,0.000000,0.000000,0.000000,0.500000,0.000000,0.000000,0.967000,0.000000,0.000000,0.000000,-0.796000,0.000000,0.000000,0.000000,0.000000,0.118000,0.118000
0.140000,0.000,0,-0.000440,180.000000,0.000000,0.981239,0.000000,0.000000,-0.026052,-9.824158,0.000000,0.000000,0.000000,0.000000,0.060000,0.060000,0.070000,0.070000,0.000000,0.000000,0.000000,0.000000,0.000000,0.000000,0.000000,0.000000,0.000000,0.000000,0.000000,0.000000,0.000000,0.000000,0.000000,0.000000,0.000000,0.000000,10.473330,10.473330,0.000000,0.000000,-2.388765,-2.388765,0.000000,0.000000,0.000000,0.000000,0.000000,0.000000,-10.473330,-10.473330,0.000000,0.000000,0.000000,0.000000,0.000000,0.000000,0.000000,0.000000,0.000000,0.000000,0.000000,0.000000,0.030000,0.040000,0.000000,0.000000,0.223640,0.003903,1.000000,0.000000,1.000000,0.000000,0.000000,0.000000,0.000000,0.000000,-0.000514,0.000000,NaN,NaN,NaN,NaN,NaN,NaN,NaN,NaN,0.000015,0.000015,NaN,NaN,10.100000,0.372442,195.560000,0.000000,2000.257000,0.000000,0.000000,0.000000,0.500000,0.000000,0.000000,0.967000,0.000000,0.000000,0.000000,-0.796000,0.000015,0.000015,0.000015,0.000015,0.138000,0.138000
0.150000,0.000,0,-0.000440,180.000000,0.000000,0.981239,0.000000,0.000000,-0.029938,-9.826184,0.000000,0.000000,0.000000,0.000000,0.060000,0.060000,0.070000,0.070000,0.000000,0.000000,0.000000,0.000000,0.000000,0.000000,0.000000,0.000000,0.000000,0.000000,0.000000,0.000000,0.000000,0.000000,0.000000,0.000000,0.000000,0.000000,10.471900,10.471900,0.000000,0.000000,-0.615590,-0.615590,0.000000,0.000000,0.000000,0.000000,0.000000,0.000000,-10.471900,-10.471900,0.000000,0.000000,0.000000,0.000000,0.000000,0.000000,0.000000,0.000000,0.000000,0.000000,0.000000,0.000000,0.030000,0.040000,0.000000,0.000000,0.223305,0.003897,1.000000,0.000000,1.000000,0.000000,0.000000,0.000000,0.000000,0.000000,-0.000514,0.000000,NaN,NaN,NaN,NaN,NaN,NaN,NaN,NaN,0.000015,0.000015,NaN,NaN,10.100000,0.372442,195.560000,0.000000,2000.257000,0.000000,0.000000,0.000000,0.500000,0.000000,0.000000,0.967000,0.000000,0.000000,0.000000,-0.796000,0.000015,0.000015,0.000015,0.000015,0.138000,0.138000
0.160000,0.000,0,-0.000440,180.000000,0.000000,0.981239,0.000000,0.000000,-0.034089,-9.828568,0.000000,0.000000,0.000000,0.000000,0.060000,0.060000,0.070000,0.070000,0.000000,0.000000,0.000000,0.000000,0.000000,0.000000,0.000000,0.000000,0.000000,0.000000,0.000000,0.000000,0.000000,0.000000,0.000000,0.000000,0.000000,0.000000,10.472130,10.472130,0.000000,0.000000,0.126312,0.126312,0.000000,0.000000,0.000000,0.000000,0.000000,0.000000,-10.472130,-10.472130,0.000000,0.000000,0.000000,0.000000,0.000000,0.000000,0.000000,0.000000,0.000000,0.000000,0.000000,0.000000,0.030000,0.040000,0.000000,0.000000,0.222893,0.003890,1.000000,0.000000,1.000000,0.000000,0.000000,0.000000,0.000000,0.000000,-0.000769,0.000000,NaN,NaN,NaN,NaN,NaN,NaN,NaN,NaN,0.000015,0.000015,NaN,NaN,10.100000,0.342783,195.560000,0.000000,2000.030000,0.000000,0.456000,0.456000,0.000000,0.000000,0.000000,0.967000,0.000000,2.105000,0.000000,0.880000,0.000015,0.000015,0.000015,0.000015,0.158000,0.158000
0.170000,0.000,0,-0.000440,180.000000,0.000000,0.981239,0.000000,0.000000,-0.038503,-9.830954,0.000000,0.000000,0.000000,0.000000,0.060000,0.060000,0.070000,0.070000,0.000000,0.000000,0.000000,0.000000,0.000000,0.000000,0.000000,0.000000,0.000000,0.000000,0.000000,0.000000,0.000000,0.000000,0.000000,0.000000,0.000000,0.000000,10.471860,10.471860,0.000000,0.000000,-0.730618,-0.730618,0.000000,0.000000,0.000000,0.000000,0.000000,0.000000,-10.471860,-10.471860,0.000000,0.000000,0.000000,0.000000,0.000000,0.000000,0.000000,0.000000,0.000000,0.000000,0.000000,0.000000,0.030000,0.040000,0.000000,0.000000,0.222405,0.003882,1.000000,0.000000,1.000000,0.000000,0.000000,0.000000,0.000000,0.000000,-0.000769,0.000000,NaN,NaN,NaN,NaN,NaN,NaN,NaN,NaN,0.000015,0.000015,NaN,NaN,10.100000,0.342783,195.560000,0.000000,2000.030000,0.000000,0.456000,0.456000,0.000000,0.000000,0.000000,0.967000,0.000000,2.105000,0.000000,0.880000,0.000015,0.000015,0.000015,0.000015,0.158000,0.158000
0.180000,0.000,0,-0.000440,180.000000,0.000000,0.981239,0.000000,0.000000,-0.043178,-9.833457,0.000000,0.000000,0.000000,0.000000,0.060000,0.060000,0.070000,0.070000,0.000000,0.000000,0.000000,0.000000,0.000000,0.000000,0.000000,0.000000,0.000000,0.000000,0.000000,0.000000,0.000000,0.000000,0.000000,0.000000,0.000000,0.000000,10.471900,10.471900,0.000000,0.000000,-0.603775,-0.603775,0.000000,0.000000,0.000000,0.000000,0.000000,0.000000,-10.471900,-10.471900,0.000000,0.000000,0.000000,0.000000,0.000000,0.000000,0.000000,0.000000,0.000000,0.000000,0.000000,0.000000,0.030000,0.040000,0.000000,0.000000,0.221809,0.003871,1.000000,0.000000,1.000000,0.000000,0.000000,0.000000,0.000000,0.000000,-0.001098,0.000000,NaN,NaN,NaN,NaN,NaN,NaN,NaN,NaN,0.000031,0.000031,NaN,NaN,10.100000,0.309185,195.560000,0.000000,1999.986000,0.000000,0.323000,0.323000,0.000000,0.000000,0.000000,0.967000,0.000000,1.494000,0.000000,0.393000,0.000031,0.000031,0.000031,0.000031,0.177999,0.177999
0.190000,0.000,0,-0.000440,180.000000,0.000000,0.981239,0.000000,0.000000,-0.048112,-9.836200,0.000000,0.000000,0.000000,0.000000,0.060000,0.060000,0.070000,0.070000,0.000000,0.000000,0.000000,0.000000,0.000000,0.000000,0.000000,0.000000,0.000000,0.000000,0.000000,0.000000,0.000000,0.000000,0.000000,0.000000,0.000000,0.000000,10.472180,10.472180,0.000000,0.000000,0.267940,0.267940,0.000000,0.000000,0.000000,0.000000,0.000000,0.000000,-10.472180,-10.472180,0.000000,0.000000,0.000000,0.000000,0.000000,0.000000,0.000000,0.000000,0.000000,0.000000,0.000000,0.000000,0.030000,0.040000,0.000000,0.000000,0.221115,0.003859,1.000000,0.000000,1.000000,0.000000,0.000000,0.000000,0.000000,0.000000,-0.001098,0.000000,NaN,NaN,NaN,NaN,NaN,NaN,NaN,NaN,0.000031,0.000031,NaN,NaN,10.100000,0.309185,195.560000,0.000000,1999.986000,0.000000,0.323000,0.323000,0.000000,0.000000,0.000000,0.967000,0.000000,1.494000,0.000000,0.393000,0.000031,0.000031,0.000031,0.000031,0.177999,0.177999
0.200000,0.000,0,-0.003469,180.000000,0.000000,1.963949,0.000000,0.000000,-0.053305,-9.839062,0.000000,0.000000,0.000000,0.000000,0.060000,0.060000,0.070000,0.070000,0.000000,0.000000,0.000000,0.000000,0.000000,0.000000,0.000000,0.000000,0.000000,0.000000,0.000000,0.000000,0.000000,0.000000,0.000000,0.000000,0.000000,0.000000,10.472190,10.472190,0.000000,0.000000,0.300480,0.300480,0.000000,0.000000,0.000000,0.000000,0.000000,0.000000,-10.472190,-10.472190,0.000000,0.000000,0.000000,0.000000,0.000000,0.000000,0.000000,0.000000,0.000000,0.000000,0.000000,0.000000,0.030000,0.040000,0.000000,0.000000,0.220306,0.003845,1.000000,0.000000,1.000000,0.000000,0.000000,0.000000,0.000000,0.000000,-0.001508,0.000000,NaN,NaN,NaN,NaN,NaN,NaN,NaN,NaN,0.000046,0.000046,NaN,NaN,10.100000,0.271644,195.560000,0.000000,2000.040000,0.000000,0.487000,0.487000,0.000000,0.000000,0.000000,0.967000,0.000000,2.251000,0.000000,0.996000,0.000046,0.000046,0.000046,0.000046,0.197999,0.197999
0.210000,0.000,0,-0.003469,180.000000,0.000000,1.963949,0.000000,0.000000,-0.058753,-9.842044,0.000000,0.000000,0.000000,0.000000,0.060000,0.060000,0.070000,0.070000,0.000000,0.000000,0.000000,0.000000,0.000000,0.000000,0.000000,0.000000,0.000000,0.000000,0.000000,0.000000,0.000000,0.000000,0.000000,0.000000,0.000000,0.000000,10.472070,10.472070,0.000000,0.000000,-0.088951,-0.088951,0.000000,0.000000,0.000000,0.000000,0.000000,0.000000,-10.472070,-10.472070,0.000000,0.000000,0.000000,0.000000,0.000000,0.000000,0.000000,0.000000,0.000000,0.000000,0.000000,0.000000,0.030000,0.040000,0.000000,0.000000,0.219353,0.003828,1.000000,0.000000,1.000000,0.000000,0.000000,0.000000,0.000000,0.000000,-0.001508,0.000000,NaN,NaN,NaN,NaN,NaN,NaN,NaN,NaN,0.000046,0.000046,NaN,NaN,10.100000,0.271644,195.560000,0.000000,2000.040000,0.000000,0.487000,0.487000,0.000000,0.000000,0.000000,0.967000,0.000000,2.251000,0.000000,0.996000,0.000046,0.000046,0.000046,0.000046,0.197999,0.197999
0.220000,0.000,0,-0.003469,180.000000,0.000000,1.963949,0.000000,0.000000,-0.064455,-9.845145,0.000000,0.000000,0.000000,0.000000,0.060000,0.060000,0.070000,0.070000,0.000000,0.000000,0.000000,0.000000,0.000000,0.000000,0.000000,0.000000,0.000000,0.000000,0.000000,0.000000,0.000000,0.000000,0.000000,0.000000,0.000000,0.000000,10.472250,10.472250,0.000000,0.000000,0.529684,0.529684,0.000000,0.000000,0.000000,0.000000,0.000000,0.000000,-10.472250,-10.472250,0.000000,0.000000,0.000000,0.000000,0.000000,0.000000,0.000000,0.000000,0.000000,0.000000,0.000000,0.000000,0.030000,0.040000,0.000000,0.000000,0.218269,0.003810,1.000000,0.000000,1.000000,0.000000,0.000000,0.000000,0.000000,0.000000,-0.002010,0.000000,NaN,NaN,NaN,NaN,NaN,NaN,NaN,NaN,0.000183,0.000183,NaN,NaN,10.100000,0.230155,195.560200,0.000000,2000.052000,0.000000,0.524000,0.524000,0.000000,0.000000,0.000000,0.967000,0.000000,2.421000,0.000000,1.131000,0.000168,0.000168,0.000168,0.000168,0.217996,0.217996
0.230000,0.000,0,-0.003469,180.000000,0.000000,1.963949,0.000000,0.000000,-0.070409,-9.848485,0.000000,0.000000,0.000000,0.000000,0.060000,0.060000,0.070000,0.070000,0.000000,0.000000,0.000000,0.000000,0.000000,0.000000,0.000000,0.000000,0.000000,0.000000,0.000000,0.000000,0.000000,0.000000,0.000000,0.000000,0.000000,0.000000,10.472230,10.472230,0.000000,0.000000,0.506650,0.506650,0.000000,0.000000,0.000000,0.000000,0.000000,0.000000,-10.472230,-10.472230,0.000000,0.000000,0.000000,0.000000,0.000000,0.000000,0.000000,0.000000,0.000000,0.000000,0.000000,0.000000,0.030000,0.040000,0.000000,0.000000,0.217018,0.003788,1.000000,0.000000,1.000000,0.000000,0.000000,0.000000,0.000000,0.000000,-0.002010,0.000000,NaN,NaN,NaN,NaN,NaN,NaN,NaN,NaN,0.000183,0.000183,NaN,NaN,10.100000,0.230155,195.560200,0.000000,2000.052000,0.000000,0.524000,0.524000,0.000000,0.000000,0.000000,0.967000,0.000000,2.421000,0.000000,1.131000,0.000168,0.000168,0.000168,0.000168,0.217996,0.217996
0.240000,0.000,0,-0.003469,180.000000,0.000000,1.963949,0.000000,0.000000,-0.076613,-9.851945,0.000000,0.000000,0.000000,0.000000,0.060000,0.060000,0.070000,0.070000,0.000000,0.000000,0.000000,0.000000,0.000000,0.000000,0.000000,0.000000,0.000000,0.000000,0.000000,0.000000,0.000000,0.000000,0.000000,0.000000,0.000000,0.000000,10.472040,10.472040,0.000000,0.000000,-0.182702,-0.182702,0.000000,0.000000,0.000000,0.000000,0.000000,0.000000,-10.472040,-10.472040,0.000000,0.000000,0.000000,0.000000,0.000000,0.000000,0.000000,0.000000,0.000000,0.000000,0.000000,0.000000,0.030000,0.040000,0.000000,0.000000,0.215591,0.003763,1.000000,0.000000,1.000000,0.000000,0.000000,0.000000,0.000000,0.000000,-0.002613,0.000000,NaN,NaN,NaN,NaN,NaN,NaN,NaN,NaN,0.000366,0.000366,NaN,NaN,10.100000,0.184715,195.560400,0.000000,2000.011000,0.000000,0.400000,0.400000,0.000000,0.000000,0.000000,0.967000,0.000000,1.846000,0.000000,0.674000,0.000336,0.000336,0.000336,0.000336,0.237992,0.237991
0.250000,0.000,0,-0.003469,180.000000,0.000000,1.963949,0.000000,0.000000,-0.083065,-9.855524,0.000000,0.000000,0.000000,0.000000,0.060000,0.060000,0.070000,0.070000,0.000000,0.000000,0.000000,0.000000,0.000000,0.000000,0.000000,0.000000,0.000000,0.000000,0.000000,0.000000,0.000000,0.000000,0.000000,0.000000,0.000000,0.000000,10.472030,10.472030,0.000000,0.000000,0.308601,0.308601,0.000000,0.000000,0.000000,0.000000,0.000000,0.000000,-10.472030,-10.472030,0.000000,0.000000,0.000000,0.000000,0.000000,0.000000,0.000000,0.000000,0.000000,0.000000,0.000000,0.000000,0.030000,0.040000,0.000000,0.000000,0.213982,0.003735,1.000000,0.000000,1.000000,0.000000,0.000000,0.000000,0.000000,0.000000,-0.002613,0.000000,NaN,NaN,NaN,NaN,NaN,NaN,NaN,NaN,0.000366,0.000366,NaN,NaN,10.100000,0.184715,195.560400,0.000000,2000.011000,0.000000,0.400000,0.400000,0.000000,0.000000,0.000000,0.967000,0.000000,1.846000,0.000000,0.674000,0.000336,0.000336,0.000336,0.000336,0.237992,0.237991
0.260000,0.001,0,-0.003469,180.000000,0.000000,1.963949,0.000000,0.000000,-0.089761,-9.859344,0.000000,0.000000,0.000000,0.000000,0.060000,0.060000,0.070000,0.070000,0.000000,0.000000,0.000000,0.000000,0.000000,0.000000,0.000000,0.000000,0.000000,0.000000,0.000000,0.000000,0.000000,0.000000,0.000000,0.000000,0.000000,0.000000,10.472110,10.472110,0.000000,0.000000,0.394777,0.394777,0.000000,0.000000,0.000000,0.000000,0.000000,0.000000,-10.472110,-10.472110,0.000000,0.000000,0.000000,0.000000,0.000000,0.000000,0.000000,0.000000,0.000000,0.000000,0.000000,0.000000,0.030000,0.040000,0.000000,0.000000,0.212166,0.003703,1.000000,0.000000,1.000000,0.000000,0.000000,0.000000,0.000000,0.000000,-0.003326,0.000000,NaN,NaN,NaN,NaN,NaN,NaN,NaN,NaN,0.000549,0.000549,NaN,NaN,10.100000,0.135316,195.560600,0.000000,2000.026000,0.000000,0.444000,0.444000,0.000000,0.000000,0.000000,0.967000,0.000000,2.051000,0.000000,0.837000,0.000534,0.000534,0.000534,0.000534,0.257987,0.257986
0.270000,0.001,0,-0.003469,180.000000,0.000000,1.963949,0.000000,0.000000,-0.096700,-9.863401,0.000000,0.000000,0.000000,0.000000,0.060000,0.060000,0.070000,0.070000,0.000000,0.000000,0.000000,0.000000,0.000000,0.000000,0.000000,0.000000,0.000000,0.000000,0.000000,0.000000,0.000000,0.000000,0.000000,0.000000,0.000000,0.000000,10.471970,10.471970,0.000000,0.000000,-0.391462,-0.391462,0.000000,0.000000,0.000000,0.000000,0.000000,0.000000,-10.471970,-10.471970,0.000000,0.000000,0.000000,0.000000,0.000000,0.000000,0.000000,0.000000,0.000000,0.000000,0.000000,0.000000,0.030000,0.040000,0.000000,0.000000,0.210121,0.003667,1.000000,0.000000,1.000000,0.000000,0.000000,0.000000,0.000000,0.000000,-0.003326,0.000000,NaN,NaN,NaN,NaN,NaN,NaN,NaN,NaN,0.000549,0.000549,NaN,NaN,10.100000,0.135316,195.560600,0.000000,2000.026000,0.000000,0.444000,0.444000,0.000000,0.000000,0.000000,0.967000,0.000000,2.051000,0.000000,0.837000,0.000534,0.000534,0.000534,0.000534,0.257987,0.257986
0.280000,0.001,0,-0.003469,180.000000,0.000000,1.963949,0.000000,0.000000,-0.103879,-9.867460,0.000000,0.000000,0.000000,0.000000,0.060000,0.060000,0.070000,0.070000,0.000000,0.000000,0.000000,0.000000,0.000000,0.000000,0.000000,0.000000,0.000000,0.000000,0.000000,0.000000,0.000000,0.000000,0.000000,0.000000,0.000000,0.000000,10.471960,10.471960,0.000000,0.000000,-0.436391,-0.436391,0.000000,0.000000,0.000000,0.000000,0.000000,0.000000,-10.471960,-10.471960,0.000000,0.000000,0.000000,0.000000,0.000000,0.000000,0.000000,0.000000,0.000000,0.000000,0.000000,0.000000,0.030000,0.040000,0.000000,0.000000,0.207840,0.003628,1.000000,0.000000,1.000000,0.000000,0.000000,0.000000,0.000000,0.000000,-0.004159,0.000000,NaN,NaN,NaN,NaN,NaN,NaN,NaN,NaN,0.000732,0.000732,NaN,NaN,10.100000,0.081954,195.560800,0.000000,1999.996000,0.000000,0.354000,0.354000,0.000000,0.000000,0.000000,0.967000,0.000000,1.634000,0.000000,0.505000,0.000717,0.000717,0.000717,0.000717,0.277983,0.277982
0.290000,0.001,0,-0.003469,180.000000,0.000000,1.963949,0.000000,0.000000,-0.111296,-9.871640,0.000000,0.000000,0.000000,0.000000,0.060000,0.060000,0.070000,0.070000,0.000000,0.000000,0.000000,0.000000,0.000000,0.000000,0.000000,0.000000,0.000000,0.000000,0.000000,0.000000,0.000000,0.000000,0.000000,0.000000,0.000000,0.000000,10.472130,10.472130,0.000000,0.000000,0.126312,0.126312,0.000000,0.000000,0.000000,0.000000,0.000000,0.000000,-10.472130,-10.472130,0.000000,0.000000,0.000000,0.000000,0.000000,0.000000,0.000000,0.000000,0.000000,0.000000,0.000000,0.000000,0.030000,0.040000,0.000000,0.000000,0.205292,0.003583,1.000000,0.000000,1.000000,0.000000,0.000000,0.000000,0.000000,0.000000,-0.004159,0.000000,NaN,NaN,NaN,NaN,NaN,NaN,NaN,NaN,0.000732,0.000732,NaN,NaN,10.100000,0.081954,195.560800,0.000000,1999.996000,0.000000,0.354000,0.354000,0.000000,0.000000,0.000000,0.967000,0.000000,1.634000,0.000000,0.505000,0.000717,0.000717,0.000717,0.000717,0.277983,0.277982
0.300000,0.001,0,-0.001206,180.000000,0.000000,2.933996,0.000000,0.000000,4.794896,-2.672049,0.000000,0.000000,10139.000000,10139.000000,0.060000,0.060000,0.061565,0.061565,0.000000,0.000000,0.008435,0.008435,0.000000,0.000000,2.898261,2.898261,0.000000,0.000000,1433.882000,1433.882000,0.000000,0.000000,8694.781000,8694.781000,0.000000,0.000000,9.265912,9.265912,0.000000,0.000000,863.822300,863.822300,0.000000,0.000000,0.000000,0.000000,0.000000,0.000000,-9.282220,-9.282220,0.000000,0.000000,0.000000,0.000000,0.000000,0.000000,7519.582000,7519.582000,0.000000,0.000000,0.000000,0.000000,0.030000,0.031565,0.000000,0.000000,0.010635,0.000186,1.000000,0.000000,1.000000,0.000000,0.000000,0.000000,0.000000,0.000000,-0.023427,0.000000,NaN,NaN,13.423580,13.423580,NaN,NaN,0.000000,0.000000,0.000992,0.000992,NaN,NaN,10.100000,0.024605,195.561000,0.000000,1769.658000,0.000000,35.000000,35.000000,0.000000,0.000000,0.000000,0.967000,0.000000,171.220000,0.000000,367.830000,0.000946,0.000946,0.000946,0.000946,0.297977,0.297976
0.310000,0.001,0,-0.001206,180.000000,0.000000,2.933996,0.000000,0.000000,12.596680,27.636300,13283.580000,13283.580000,14536.570000,14536.570000,0.031311,0.031311,0.033313,0.033313,0.028689,0.028689,0.036687,0.036687,2.804354,2.804354,2.764299,2.764299,4877.188000,4877.188000,6236.731000,6236.731000,8413.059000,8413.059000,8292.896000,8292.896000,0.102141,0.102141,4.639246,4.639246,0.000000,0.000000,1173.138000,1173.138000,0.000000,0.000000,0.000000,0.000000,0.000000,0.000000,-4.537103,-4.537103,-0.000588,0.000588,0.000000,0.000000,-196.511100,-196.511100,10559.310000,10559.310000,199.114300,-199.114300,0.000000,0.000000,0.001311,0.003313,0.000000,0.000000,0.000000,0.000000,1.000000,0.000000,1.000000,0.000000,0.000000,0.000000,0.000000,0.000000,-0.023427,0.000000,NaN,NaN,13.423580,13.423580,NaN,NaN,0.000000,0.000000,0.000992,0.000992,NaN,NaN,10.100000,0.024605,195.561000,0.000000,1769.658000,0.000000,35.000000,35.000000,0.000000,0.000000,0.000000,0.967000,0.000000,171.220000,0.000000,367.830000,0.000946,0.000946,0.000946,0.000946,0.297977,0.297976
0.320000,0.003,0,-0.001206,180.000000,0.000000,2.933996,0.000000,0.000000,8.277191,41.752160,19931.520000,19931.520000,18313.750000,18313.750000,0.005678,0.005678,0.006944,0.006944,0.054322,0.054322,0.063056,0.063056,2.377033,2.377033,2.540856,2.540856,9234.714000,9234.714000,10719.550000,10719.550000,7131.099000,7131.099000,7622.568000,7622.568000,0.277245,0.277245,0.277250,0.277250,0.000000,0.000000,346.269800,346.269800,0.000000,0.000000,0.000000,0.000000,0.000000,0.000000,0.000000,0.000000,-0.001596,0.001596,0.000000,0.000000,-154.540500,-154.540500,999.689800,999.689800,810.944000,-810.944000,0.000000,0.000000,-0.024322,-0.023056,0.000000,0.000000,0.000000,0.000000,1.000000,0.000000,1.000000,0.000000,0.000000,0.000000,0.000000,0.000000,0.064242,0.000000,0.000000,0.000000,0.006961,0.006961,-1.174746,1.174746,0.000000,0.000000,0.003067,0.003067,NaN,NaN,10.100000,-0.029070,195.558500,0.000000,35.414000,0.000000,0.000000,0.000000,0.500000,0.000000,0.000000,0.882000,0.000000,202.860000,0.000000,42.582000,0.002548,0.002548,0.002548,0.002548,0.317938,0.317935
0.330000,0.006,0,-0.001206,180.000000,0.000000,2.933996,0.000000,-0.010149,2.063004,26.815860,15462.110000,15462.600000,11679.450000,11679.990000,0.000619,0.000619,0.000133,0.000133,0.059381,0.059381,0.069867,0.069867,-0.184715,-0.184536,-0.058681,-0.058502,10094.720000,10094.790000,11877.330000,11877.380000,-554.144300,-553.607900,-176.042300,-175.505900,0.288029,0.288038,0.288035,0.288042,0.000000,0.000000,606.272200,606.250200,0.000000,0.000000,0.000000,0.000000,0.000000,0.000000,0.000000,0.000000,-0.001741,0.001575,-0.000069,-0.000069,-83.231450,-83.290900,1937.671000,1937.545000,686.267300,-620.911400,20.588890,20.589840,-0.029381,-0.029867,0.000000,0.000000,0.000000,0.000000,1.000000,0.000000,1.000000,0.000000,0.000000,0.000000,0.000000,0.000000,0.064242,0.000000,0.000000,0.000000,0.006961,0.006961,-1.174746,1.174746,0.000000,0.000000,0.003067,0.003067,NaN,NaN,10.100000,-0.029070,195.558500,0.000000,35.414000,0.000000,0.000000,0.000000,0.500000,0.000000,0.000000,0.882000,0.000000,202.860000,0.000000,42.582000,0.002548,0.002548,0.002548,0.002548,0.317938,0.317935
0.340000,0.009,0,-0.001206,180.000000,0.000000,2.933996,0.000000,29.398540,2.256136,22.192970,13042.830000,12640.730000,11174.350000,10594.020000,0.004585,0.004495,0.001755,0.001665,0.055415,0.055505,0.068245,0.068335,-0.405982,-0.629917,-0.112832,-0.336766,9417.985000,9438.317000,11601.690000,11617.020000,-1217.946000,-1889.749000,-338.494600,-1010.298000,0.343601,0.345682,0.343001,0.346294,0.000000,0.000000,657.994600,559.002700,0.000000,0.000000,0.000000,0.000000,0.000000,0.000000,0.000000,0.000000,0.103220,0.107188,0.111193,0.111193,-101.045100,-20.981410,2102.017000,1832.606000,-11631.970000,-11291.000000,-10055.140000,-9569.820000,-0.025460,-0.028290,-0.019782,0.000000,0.000000,0.000000,1.000000,0.000000,1.000000,0.000000,0.000000,98.991820,-0.002081,-0.003292,0.114968,-0.159958,0.000000,0.000000,0.048391,0.043304,21.325700,21.084440,20.204610,19.856410,0.009194,0.009194,NaN,NaN,10.100080,-0.024623,195.552300,0.000000,67.161000,0.000000,1.571000,1.571000,0.000000,0.000000,0.000000,0.892000,0.000000,205.302000,0.000000,201.111000,0.008440,0.008440,0.008440,0.008440,0.337794,0.337784
0.350000,0.013,0,-0.001206,180.000000,0.000000,2.933996,0.000000,-24.494460,2.400266,16.121200,9058.666000,9853.212000,9444.281000,10158.970000,0.011521,0.010793,0.005351,0.004624,0.048479,0.049207,0.064649,0.065376,-0.852525,-0.630274,-0.507996,-0.285789,8223.859000,8383.022000,10990.210000,11113.840000,-2557.568000,-1890.817000,-1523.982000,-857.365500,0.377195,0.380982,0.377878,0.380311,0.000000,0.000000,731.429400,491.762100,0.000000,0.000000,0.000000,0.000000,0.000000,0.000000,0.000000,0.000000,-0.119715,-0.115350,-0.113110,-0.113110,-28.901290,-33.180300,2401.436000,1613.786000,8295.029000,8953.045000,8613.896000,9207.204000,-0.018843,-0.025012,-0.034264,-0.034264,0.000000,0.000000,1.000000,0.000000,1.000000,0.000000,0.000000,98.991820,-0.002081,-0.003292,0.114968,-0.159958,0.000000,0.000000,0.048391,0.043304,21.325700,21.084440,20.204610,19.856410,0.009194,0.009194,NaN,NaN,10.100080,-0.024623,195.552300,0.000000,67.161000,0.000000,1.571000,1.571000,0.000000,0.000000,0.000000,0.892000,0.000000,205.302000,0.000000,201.111000,0.008440,0.008440,0.008440,0.008440,0.337794,0.337784
0.360000,0.017,0,-0.001206,180.000000,0.000000,2.933996,0.000000,19.275640,2.534735,9.773507,6259.678000,5948.682000,8684.099000,8232.692000,0.019424,0.019158,0.010112,0.009845,0.040576,0.040842,0.059888,0.060155,-0.752717,-0.939429,-0.472173,-0.658885,6892.442000,6948.505000,10180.980000,10226.210000,-2258.136000,-2818.267000,-1416.510000,-1976.641000,0.390216,0.391458,0.389741,0.391946,0.000000,0.000000,726.070700,501.574200,0.000000,0.000000,0.000000,0.000000,0.000000,0.000000,0.000000,0.000000,0.081234,0.085742,0.087498,0.087498,16.080340,-25.298630,2420.236000,1640.516000,-5994.101000,-5737.855000,-7985.945000,-7614.303000,-0.010709,-0.020021,0.000000,0.000000,0.000000,0.000000,1.000000,0.000000,1.000000,0.000000,0.000000,224.496500,-0.001242,-0.002205,0.110040,-0.133370,0.000000,0.000000,0.063565,0.043897,17.255810,17.069210,18.710460,18.439620,0.017034,0.017034,NaN,NaN,10.100330,-0.009252,195.544700,0.000000,74.757000,0.000000,1.798000,1.798000,0.000000,0.000000,0.000000,0.894000,0.000000,205.637000,0.000000,204.511000,0.016237,0.016237,0.016237,0.016237,0.357604,0.357584
0.370000,0.021,0,-0.001206,180.000000,0.000000,2.933996,0.000000,-14.364600,2.610802,3.933180,3150.177000,3524.432000,6748.405000,7099.475000,0.028021,0.027653,0.016728,0.016360,0.031979,0.032347,0.053272,0.053640,-0.902832,-0.794336,-0.767574,-0.659108,5430.466000,5504.855000,9056.113000,9118.667000,-2708.468000,-2382.985000,-2302.698000,-1977.305000,0.393305,0.378236,0.393591,0.377961,0.000000,0.000000,647.270000,582.485600,0.000000,0.000000,0.000000,0.000000,0.000000,0.000000,0.000000,0.000000,-0.050996,-0.046546,-0.077197,-0.077197,-35.811990,59.878420,2117.484000,1941.619000,3350.875000,3685.157000,6395.680000,6683.751000,-0.002163,-0.013456,-0.019782,-0.019782,0.000000,0.000000,1.000000,0.000000,1.000000,0.000000,0.000000,224.496500,-0.001242,-0.002205,0.110040,-0.133370,0.000000,0.000000,0.063565,0.043897,17.255810,17.069210,18.710460,18.439620,0.017034,0.017034,NaN,NaN,10.100330,-0.009252,195.544700,0.000000,74.757000,0.000000,1.798000,1.798000,0.000000,0.000000,0.000000,0.894000,0.000000,205.637000,0.000000,204.511000,0.016237,0.016237,0.016237,0.016237,0.357604,0.357584
0.380000,0.025,0,-0.001206,180.000000,0.000000,2.933996,0.000000,9.848315,2.635494,-0.451879,1850.548000,1598.119000,5431.903000,5174.449000,0.035978,0.035964,0.024371,0.024357,0.024022,0.024036,0.045629,0.045643,-0.736058,-0.833705,-0.771523,-0.869170,4083.575000,4086.154000,7756.906000,7759.165000,-2208.150000,-2501.089000,-2314.543000,-2607.482000,0.372359,0.377505,0.372154,0.377723,0.000000,0.000000,550.409000,678.347500,0.000000,0.000000,0.000000,0.000000,0.000000,0.000000,0.000000,0.000000,0.034420,0.038744,0.046709,0.046709,73.050220,-50.373040,1834.696000,2208.079000,-1623.724000,-1578.414000,-5309.974000,-5095.678000,0.005971,-0.005636,-0.019782,0.000000,0.000000,0.000000,1.000000,0.000000,1.000000,0.000000,0.000000,-127.938500,-0.005146,-0.005568,-0.013923,-0.069812,0.000000,0.000000,0.066648,0.078222,11.211700,12.284370,16.759140,16.604670,0.024839,0.024839,NaN,NaN,10.100260,0.007574,195.537000,0.000000,71.357000,0.000000,1.726000,1.726000,0.000000,0.000000,0.000000,0.893000,0.000000,205.531000,0.000000,205.106000,0.024088,0.024088,0.024088,0.024088,0.377413,0.377382
0.390000,0.029,0,-0.001206,180.000000,0.000000,2.933996,0.000000,-5.523580,2.625092,-3.970556,664.396200,767.376100,3662.248000,3765.801000,0.043332,0.043286,0.032949,0.032904,0.016668,0.016714,0.037051,0.037096,-0.715449,-0.679463,-0.890970,-0.854939,2833.207000,2841.686000,6298.557000,6306.268000,-2146.330000,-2038.372000,-2672.888000,-2564.796000,0.374294,0.365748,0.374405,0.365648,0.000000,0.000000,528.514300,698.596300,0.000000,0.000000,0.000000,0.000000,0.000000,0.000000,0.000000,0.000000,-0.020424,-0.016156,-0.034214,-0.034214,-50.238190,54.913790,1710.084000,2328.654000,345.908400,316.033700,3194.191000,3284.504000,0.013309,0.002927,0.000000,0.000000,0.000000,0.000000,1.000000,0.000000,1.000000,0.000000,0.000000,-127.938500,-0.005146,-0.005568,-0.013923,-0.069812,0.000000,0.000000,0.066648,0.078222,11.211700,12.284370,16.759140,16.604670,0.024839,0.024839,NaN,NaN,10.100260,0.007574,195.537000,0.000000,71.357000,0.000000,1.726000,1.726000,0.000000,0.000000,0.000000,0.893000,0.000000,205.531000,0.000000,205.106000,0.024088,0.024088,0.024088,0.024088,0.377413,0.377382
0.400000,0.032,0,0.438008,-0.795001,-0.005994,0.839216,-0.002538,0.270570,2.657203,-7.037620,0.000000,0.000000,2266.924000,2225.517000,0.049629,0.049736,0.041635,0.041743,0.010371,0.010264,0.028365,0.028257,-0.591621,-0.600353,-0.867113,-0.875816,1763.638000,1744.260000,4822.005000,4803.736000,-1716.139000,-1699.914000,-2601.328000,-2627.434000,0.371755,0.374804,0.371794,0.381298,0.000000,0.000000,574.685100,642.135000,0.000000,0.000000,0.000000,0.000000,0.000000,0.000569,0.000000,-0.005951,-0.007775,-0.003466,0.000840,0.000840,-3.755280,-10.997790,1911.886000,2052.842000,0.000000,0.000000,-48.532970,-47.647420,0.019683,0.011689,0.019782,0.019782,0.000000,0.000000,1.000000,0.000000,1.000000,0.000000,0.000000,-67.449890,-0.003048,-0.009504,-0.108016,-0.006240,0.000000,-0.126056,0.128939,0.134564,0.000000,0.000000,0.285411,0.284341,0.032314,0.032314,NaN,NaN,10.100340,0.021117,195.529600,0.000000,73.254000,0.000000,1.720000,1.720000,0.000000,0.000000,0.000000,0.893000,0.000000,205.521000,0.000000,201.449000,0.031566,0.031566,0.031566,0.031566,0.397230,0.397191
0.410000,0.036,0,0.438008,-0.795001,-0.005994,0.839216,-0.002538,0.017167,1.584248,-8.794509,0.000000,0.000000,1000.149000,957.350300,0.054939,0.055107,0.050039,0.050207,0.005061,0.004893,0.019961,0.019793,-0.490785,-0.496119,-0.816211,-0.821561,860.752500,831.352000,3393.324000,3364.760000,-805.491800,-778.008500,-2448.629000,-2464.677000,0.380555,0.383610,0.764787,0.764787,0.000000,0.000000,560.377300,548.356300,0.000000,0.000000,0.000000,0.000000,0.000586,0.001177,-0.383599,-0.380034,-0.009200,-0.004783,-0.000508,-0.000508,-11.005640,-11.013890,1023.314000,983.244600,0.000000,0.000000,12.946760,12.392970,0.025023,0.020123,0.000000,0.000000,0.000000,0.000000,1.000000,0.000000,1.000000,0.000000,0.000000,-67.449890,-0.003048,-0.009504,-0.108016,-0.006240,0.000000,-0.126056,0.128939,0.134564,0.000000,0.000000,0.285411,0.284341,0.032314,0.032314,NaN,NaN,10.100340,0.021117,195.529600,0.000000,73.254000,0.000000,1.720000,1.720000,0.000000,0.000000,0.000000,0.893000,0.000000,205.521000,0.000000,201.449000,0.031566,0.031566,0.031566,0.031566,0.397230,0.397191
0.420000,0.040,0,0.438008,-0.795001,-0.005994,0.839216,-0.002538,-0.000757,0.163381,-10.155210,0.000000,0.000000,0.000000,0.000000,0.059265,0.059470,0.057705,0.057911,0.000735,0.000530,0.012295,0.012089,-0.393957,-0.396431,-0.729397,-0.731871,125.108500,90.010160,2090.107000,2055.138000,-68.720580,-34.532400,-2147.827000,-2113.699000,0.385429,0.388885,1.868408,1.868408,0.000000,0.000000,506.670000,506.670000,0.000000,0.000000,0.000000,0.000000,0.000000,0.000000,-1.482927,-1.479562,-0.010158,-0.005692,-0.001806,-0.001806,-2.208682,-1.823635,10.790020,10.790030,0.000000,0.000000,0.000000,0.000000,0.029367,0.027808,0.000000,0.000000,0.000000,0.000000,1.000000,0.000000,1.000000,0.000000,0.000000,0.000000,-0.003456,0.000000,-0.131544,-0.001772,-0.000001,0.000003,1.759725,1.753247,0.000000,0.000000,-0.268486,-0.266163,0.040005,0.040005,NaN,NaN,10.100490,0.030446,195.521900,0.000000,356.839000,0.000000,7.976000,7.976000,0.000000,0.000000,0.000000,0.926000,0.000000,213.160000,0.000000,169.153000,0.039227,0.039227,0.039227,0.039227,0.417043,0.416994
0.430000,0.044,0,0.438008,-0.795001,-0.005994,0.839216,-0.002538,-0.001433,0.014431,-10.096240,0.000000,0.000000,0.000000,0.000000,0.060000,0.060000,0.064351,0.064586,0.000000,0.000000,0.005649,0.005414,0.000000,0.000000,-0.621513,-0.624433,0.000000,0.000000,960.407100,920.402800,0.000000,0.000000,-1015.903000,-976.892100,0.385429,0.388885,3.231248,3.231248,0.000000,0.000000,518.645400,518.645400,0.000000,0.000000,0.000000,0.000000,-0.385429,-0.388885,-2.843474,-2.840102,0.000000,0.000000,-0.001577,-0.001577,0.000000,0.000000,10.790030,10.790030,0.000000,0.000000,0.000000,0.000000,0.030000,0.034468,0.000000,0.000000,0.061722,0.001077,1.000000,0.000000,1.000000,0.000000,0.000000,0.000000,-0.003456,0.000000,-0.131544,-0.001772,-0.000001,0.000003,1.759725,1.753247,0.000000,0.000000,-0.268486,-0.266163,0.040005,0.040005,NaN,NaN,10.100490,0.030446,195.521900,0.000000,356.839000,0.000000,7.976000,7.976000,0.000000,0.000000,0.000000,0.926000,0.000000,213.160000,0.000000,169.153000,0.039227,0.039227,0.039227,0.039227,0.417043,0.416994
0.440000,0.048,0,0.438008,-0.795001,-0.005994,0.839216,-0.002538,-0.001843,0.028220,-10.047410,0.000000,0.000000,0.000000,0.000000,0.060000,0.060000,0.069927,0.070192,0.000000,0.000000,0.000073,-0.000192,0.000000,0.000000,-0.515267,-0.518128,0.000000,0.000000,12.337920,0.000000,0.000000,0.000000,-65.893440,-21.937460,0.385429,0.388885,4.617689,4.617689,0.000000,0.000000,525.558900,525.558900,0.000000,0.000000,0.000000,0.000000,-0.385429,-0.388885,-4.227786,-4.224411,0.000000,0.000000,-0.001580,-0.001580,0.000000,0.000000,10.790030,10.790030,0.000000,0.000000,0.000000,0.000000,0.030000,0.040060,0.000000,0.019782,0.116264,0.002029,1.000000,0.000000,1.000000,0.000000,0.000000,0.000000,-0.003456,0.000000,-0.122426,-0.002061,NaN,NaN,5.326976,5.316168,NaN,NaN,-0.232140,-0.230145,0.047896,0.047896,NaN,NaN,10.100650,0.035849,195.513900,0.000000,881.913000,0.000000,20.600000,20.600000,0.000000,0.000000,0.000000,0.960000,0.000000,220.857000,0.000000,175.282000,0.047102,0.047102,0.047102,0.047102,0.436851,0.436792
0.450000,0.052,0,0.438008,-0.795001,-0.005994,0.839216,-0.002538,-0.002100,0.026738,-9.812140,0.000000,0.000000,0.000000,0.000000,0.060000,0.060000,0.070000,0.070000,0.000000,0.000000,0.000000,0.000000,0.000000,0.000000,0.000000,0.000000,0.000000,0.000000,0.000000,0.000000,0.000000,0.000000,0.000000,0.000000,0.385429,0.388885,6.023076,6.023076,0.000000,0.000000,528.022000,528.022000,0.000000,0.000000,0.000000,0.000000,-0.385429,-0.388885,-6.023076,-6.023076,0.000000,0.000000,0.000000,0.000000,0.000000,0.000000,0.000000,0.000000,0.000000,0.000000,0.000000,0.000000,0.030000,0.040000,0.000000,0.000000,0.044891,0.000784,1.000000,0.000000,1.000000,0.000000,0.000000,0.000000,-0.003456,0.000000,-0.122426,-0.002061,NaN,NaN,5.326976,5.316168,NaN,NaN,-0.232140,-0.230145,0.047896,0.047896,NaN,NaN,10.100650,0.035849,195.513900,0.000000,881.913000,0.000000,20.600000,20.600000,0.000000,0.000000,0.000000,0.960000,0.000000,220.857000,0.000000,175.282000,0.047102,0.047102,0.047102,0.047102,0.436851,0.436792
0.460000,0.056,0,0.438008,-0.795001,-0.005994,0.839216,-0.002538,-0.002347,0.039327,-9.811785,0.000000,0.000000,0.000000,0.000000,0.060000,0.060000,0.070000,0.070000,0.000000,0.000000,0.000000,0.000000,0.000000,0.000000,0.000000,0.000000,0.000000,0.000000,0.000000,0.000000,0.000000,0.000000,0.000000,0.000000,0.385429,0.388885,7.432739,7.432739,0.000000,0.000000,528.820300,528.820300,0.000000,0.000000,0.000000,0.000000,-0.385429,-0.388885,-7.432739,-7.432739,0.000000,0.000000,0.000000,0.000000,0.000000,0.000000,0.000000,0.000000,0.000000,0.000000,0.000000,0.000000,0.030000,0.040000,0.000000,0.000000,-0.025146,-0.000439,1.000000,0.000000,1.000000,0.000000,0.000000,0.000000,-0.003456,0.000000,-0.122244,-0.002531,NaN,NaN,NaN,NaN,NaN,NaN,NaN,NaN,0.055817,0.055817,NaN,NaN,10.100800,0.037386,195.506000,0.000000,1419.548000,0.000000,33.541000,33.541000,0.000000,0.000000,0.000000,0.966000,0.000000,222.402000,0.000000,176.276000,0.055023,0.055023,0.055023,0.055023,0.456658,0.456589
0.470000,0.060,0,0.438008,-0.795001,-0.005994,0.839216,-0.002538,-0.002593,0.051619,-9.811548,0.000000,0.000000,0.000000,0.000000,0.060000,0.060000,0.070000,0.070000,0.000000,0.000000,0.000000,0.000000,0.000000,0.000000,0.000000,0.000000,0.000000,0.000000,0.000000,0.000000,0.000000,0.000000,0.000000,0.000000,0.385429,0.388885,8.764606,8.764606,0.000000,0.000000,468.868600,468.868600,0.000000,0.000000,0.000000,0.000000,-0.385429,-0.388885,-8.764606,-8.764606,0.000000,0.000000,0.000000,0.000000,0.000000,0.000000,0.000000,0.000000,0.000000,0.000000,0.000000,0.000000,0.030000,0.040000,0.000000,0.000000,-0.095200,-0.001662,1.000000,0.000000,1.000000,0.000000,0.000000,0.000000,-0.003456,0.000000,-0.122244,-0.002531,NaN,NaN,NaN,NaN,NaN,NaN,NaN,NaN,0.055817,0.055817,NaN,NaN,10.100800,0.037386,195.506000,0.000000,1419.548000,0.000000,33.541000,33.541000,0.000000,0.000000,0.000000,0.966000,0.000000,222.402000,0.000000,176.276000,0.055023,0.055023,0.055023,0.055023,0.456658,0.456589
0.480000,0.064,0,0.438008,-0.795001,-0.005994,0.839216,-0.002538,-0.002840,0.063660,-9.811458,0.000000,0.000000,0.000000,0.000000,0.060000,0.060000,0.070000,0.070000,0.000000,0.000000,0.000000,0.000000,0.000000,0.000000,0.000000,0.000000,0.000000,0.000000,0.000000,0.000000,0.000000,0.000000,0.000000,0.000000,0.385429,0.388885,9.919210,9.919210,0.000000,0.000000,411.987900,411.987900,0.000000,0.000000,0.000000,0.000000,-0.385429,-0.388885,-9.919210,-9.919210,0.000000,0.000000,0.000000,0.000000,0.000000,0.000000,0.000000,0.000000,0.000000,0.000000,0.000000,0.000000,0.030000,0.040000,0.019782,0.000000,-0.165245,-0.002884,1.000000,0.000000,1.000000,0.000000,0.000000,0.000000,-0.003456,0.000000,-0.122270,-0.002531,NaN,NaN,NaN,NaN,NaN,NaN,NaN,NaN,0.063738,0.063738,NaN,NaN,10.100960,0.034999,195.498100,0.000000,1894.429000,0.000000,35.000000,35.000000,0.000000,0.000000,0.000000,0.967000,0.000000,172.503000,0.000000,136.547000,0.062959,0.062959,0.062959,0.062959,0.476464,0.476386
0.490000,0.068,0,0.438008,-0.795001,-0.005994,0.839216,-0.002538,-0.003086,0.075420,-9.811491,0.000000,0.000000,0.000000,0.000000,0.060000,0.060000,0.070000,0.070000,0.000000,0.000000,0.000000,0.000000,0.000000,0.000000,0.000000,0.000000,0.000000,0.000000,0.000000,0.000000,0.000000,0.000000,0.000000,0.000000,0.385429,0.388885,10.503860,10.503860,0.000000,0.000000,-2.388522,-2.388522,0.000000,0.000000,0.000000,0.000000,-0.385429,-0.388885,-10.503860,-10.503860,0.000000,0.000000,0.000000,0.000000,0.000000,0.000000,0.000000,0.000000,0.000000,0.000000,0.000000,0.000000,0.030000,0.040000,0.000000,0.000000,-0.235306,-0.004107,1.000000,0.000000,1.000000,0.000000,0.000000,0.000000,-0.003456,0.000000,-0.122270,-0.002531,NaN,NaN,NaN,NaN,NaN,NaN,NaN,NaN,0.063738,0.063738,NaN,NaN,10.100960,0.034999,195.498100,0.000000,1894.429000,0.000000,35.000000,35.000000,0.000000,0.000000,0.000000,0.967000,0.000000,172.503000,0.000000,136.547000,0.062959,0.062959,0.062959,0.062959,0.476464,0.476386
0.500000,0.072,0,0.466869,-0.724698,-0.005960,0.528154,-0.002405,-0.003277,0.085844,-9.698339,1687.180000,897.956600,0.000000,0.000000,0.058958,0.059431,0.070000,0.070000,0.001042,0.000569,0.000000,0.000000,0.520809,0.284268,0.000000,0.000000,177.313700,96.512360,0.000000,0.000000,1562.359000,852.766200,0.000000,0.000000,0.389576,0.393034,10.497490,10.497490,0.000000,0.000000,-2.388627,-2.388627,0.000000,0.000000,0.000000,0.000000,0.000000,0.000000,-10.497490,-10.497490,-0.010114,-0.005609,0.000000,0.000000,-25.918890,-25.929620,0.000000,0.000000,434.997600,128.389200,0.000000,0.000000,0.029195,0.040000,0.000000,0.000000,-0.287262,-0.005014,1.000000,0.000000,1.000000,0.000000,0.000000,0.000000,-0.003458,0.000000,-0.121941,-0.001680,0.000000,0.000000,NaN,NaN,-3.237804,-1.641218,NaN,NaN,0.071658,0.071658,NaN,NaN,10.101110,0.028693,195.490200,0.000000,2004.873000,0.000000,0.000000,0.000000,0.500000,0.000000,0.000000,0.967000,0.000000,0.000000,0.000000,-0.796000,0.070865,0.070865,0.070865,0.070865,0.496272,0.496183
0.510000,0.076,0,0.466869,-0.724698,-0.005960,0.528154,-0.002405,0.057620,0.020139,-7.093156,2103.141000,2000.417000,0.000000,0.000000,0.054856,0.055364,0.070000,0.070000,0.005144,0.004636,0.000000,0.000000,0.421628,0.416353,0.000000,0.000000,875.800700,786.954100,0.000000,0.000000,1264.818000,1248.994000,0.000000,0.000000,0.413133,0.412237,10.491130,10.491130,0.000000,0.000000,-2.389017,-2.389017,0.000000,0.000000,0.000000,0.000000,0.000000,0.000000,-10.491130,-10.491130,-0.003092,0.001659,0.000000,0.000000,-32.277570,-30.743200,0.000000,0.000000,165.793400,-84.591690,0.000000,0.000000,0.025110,0.040000,0.019782,0.000000,-0.253723,-0.004428,1.000000,0.000000,1.000000,0.000000,0.000000,0.000000,-0.003458,0.000000,-0.121941,-0.001680,0.000000,0.000000,NaN,NaN,-3.237804,-1.641218,NaN,NaN,0.071658,0.071658,NaN,NaN,10.101110,0.028693,195.490200,0.000000,2004.873000,0.000000,0.000000,0.000000,0.500000,0.000000,0.000000,0.967000,0.000000,0.000000,0.000000,-0.796000,0.070865,0.070865,0.070865,0.070865,0.496272,0.496183
0.520000,0.080,0,0.466869,-0.724698,-0.005960,0.528154,-0.002405,0.048585,-0.012017,-6.074323,2849.154000,2746.069000,0.000000,0.000000,0.050612,0.051155,0.070000,0.070000,0.009388,0.008845,0.000000,0.000000,0.421882,0.419632,0.000000,0.000000,1598.363000,1501.146000,0.000000,0.000000,1265.571000,1258.821000,0.000000,0.000000,0.444338,0.442373,10.484760,10.484760,0.000000,0.000000,-2.388546,-2.388546,0.000000,0.000000,0.000000,0.000000,0.000000,0.000000,-10.484760,-10.484760,-0.003041,0.002063,0.000000,0.000000,-43.317310,-42.008170,0.000000,0.000000,220.889000,-144.418900,0.000000,0.000000,0.020884,0.040000,0.019782,0.000000,-0.190811,-0.003330,1.000000,0.000000,1.000000,0.000000,0.000000,0.000000,0.001966,0.000000,-0.033778,-0.001665,0.000000,0.000000,NaN,NaN,-1.092118,0.733890,NaN,NaN,0.079960,0.079960,NaN,NaN,10.101150,0.020101,195.481800,0.000000,2002.441000,0.000000,0.000000,0.000000,0.500000,0.000000,0.000000,0.967000,0.000000,0.000000,0.000000,-0.796000,0.079090,0.079090,0.079090,0.079090,0.516071,0.515972
0.530000,0.085,0,0.466869,-0.724698,-0.005960,0.528154,-0.002405,0.045514,-0.045370,-5.197648,3489.839000,3391.014000,0.000000,0.000000,0.046537,0.047085,0.070000,0.070000,0.013463,0.012915,0.000000,0.000000,0.394464,0.395089,0.000000,0.000000,2292.347000,2191.899000,0.000000,0.000000,1183.322000,1185.199000,0.000000,0.000000,0.483516,0.480540,10.478390,10.478390,0.000000,0.000000,-2.388651,-2.388651,0.000000,0.000000,0.000000,0.000000,0.000000,0.000000,-10.478390,-10.478390,-0.003142,0.002408,0.000000,0.000000,-52.447000,-51.226230,0.000000,0.000000,279.502800,-208.131100,0.000000,0.000000,0.016811,0.040000,0.019782,0.000000,-0.096283,-0.001680,1.000000,0.000000,1.000000,0.000000,0.000000,0.000000,0.001966,0.000000,-0.033778,-0.001665,0.000000,0.000000,NaN,NaN,-1.092118,0.733890,NaN,NaN,0.079960,0.079960,NaN,NaN,10.101150,0.020101,195.481800,0.000000,2002.441000,0.000000,0.000000,0.000000,0.500000,0.000000,0.000000,0.967000,0.000000,0.000000,0.000000,-0.796000,0.079090,0.079090,0.079090,0.079090,0.516071,0.515972
0.540000,0.090,0,0.466869,-0.724698,-0.005960,0.528154,-0.002405,0.064447,0.359986,-3.827188,3985.052000,3928.107000,2101.344000,1880.793000,0.042885,0.043388,0.068341,0.068843,0.017115,0.016612,0.001659,0.001157,0.340611,0.354752,0.621900,0.578467,2913.649000,2819.738000,282.073900,196.668900,1021.781000,1064.203000,1865.607000,1735.314000,0.529395,0.524327,10.295840,10.295840,0.000000,0.000000,327.390000,273.602900,0.000000,0.000000,0.000000,0.000000,0.000000,0.000000,-9.766411,-9.771521,-0.006684,-0.000618,-0.012951,-0.012951,-62.684830,-54.287500,1935.414000,1756.120000,678.984400,61.887770,2.534251,2.302831,0.013137,0.038592,0.019782,0.019782,0.000000,0.000000,1.000000,0.000000,1.000000,0.000000,0.000000,53.787110,0.005068,0.000000,0.110323,0.010136,0.000000,0.000000,12.160950,12.147520,-2.639593,-0.243006,-1.401272,-1.414917,0.089588,0.089588,NaN,NaN,10.101170,0.012149,195.472000,0.000000,1966.359000,0.000000,0.000000,0.000000,0.500000,0.000000,0.000000,0.967000,0.000000,0.000000,0.000000,67.661000,0.088550,0.088550,0.088550,0.088550,0.535840,0.535730
0.550000,0.095,0,0.466869,-0.724698,-0.005960,0.528154,-0.002405,0.225766,3.499372,0.641455,4399.061000,4357.022000,3457.171000,3423.239000,0.039735,0.040117,0.061604,0.061985,0.020265,0.019883,0.008396,0.008015,0.293493,0.305176,0.699431,0.711054,3448.728000,3376.240000,1427.350000,1362.517000,880.447400,915.493600,2098.215000,2133.082000,0.588105,0.580219,9.732052,9.732052,0.000000,0.000000,591.996000,584.601700,0.000000,0.000000,0.000000,0.000000,0.000000,0.000000,-9.143944,-9.151816,-0.002228,0.004497,-0.013190,-0.013189,-77.335990,-71.659480,2966.402000,2941.754000,249.897500,-499.494800,4.224734,4.185988,0.009926,0.031794,0.019782,0.019782,0.000000,0.000000,1.000000,0.000000,1.000000,0.000000,0.000000,53.787110,0.005068,0.000000,0.110323,0.010136,0.000000,0.000000,12.160950,12.147520,-2.639593,-0.243006,-1.401272,-1.414917,0.089588,0.089588,NaN,NaN,10.101170,0.012149,195.472000,0.000000,1966.359000,0.000000,0.000000,0.000000,0.500000,0.000000,0.000000,0.967000,0.000000,0.000000,0.000000,67.661000,0.088550,0.088550,0.088550,0.088550,0.535840,0.535730
0.560000,0.101,0,0.466869,-0.724698,-0.005960,0.528154,-0.002405,-0.222035,4.709388,2.812596,4668.241000,4664.767000,4749.947000,4752.765000,0.037162,0.037401,0.054408,0.054646,0.022838,0.022599,0.015592,0.015354,0.232518,0.248805,0.727475,0.743762,3885.018000,3839.123000,2650.602000,2610.118000,697.537200,746.396900,2182.374000,2231.234000,0.649622,0.642453,8.647653,8.647653,0.000000,0.000000,691.691300,692.274200,0.000000,0.000000,0.000000,0.000000,0.000000,0.000000,-7.998011,-8.005198,-0.005336,0.002102,-0.014693,-0.014693,-75.826320,-81.960240,3878.141000,3880.083000,634.960600,-250.003700,6.962235,6.959986,0.007281,0.024527,0.000000,0.000000,0.000000,0.000000,1.000000,0.000000,1.000000,0.000000,0.000000,-0.582886,0.007168,0.000000,0.194120,0.011647,0.000000,0.000000,9.420690,9.463600,-2.215882,0.872898,-1.295679,-1.310162,0.101139,0.101139,NaN,NaN,10.101170,0.006326,195.460200,0.000000,1651.579000,0.000000,35.000000,35.000000,0.000000,0.000000,0.000000,0.967000,0.000000,192.653000,0.000000,235.257000,0.099872,0.099872,0.099872,0.099872,0.555564,0.555439
