TIME,DISTANCE,MARKERS,SPEED,SPEEDANGLE,SPEEDLAT,VELOCITY,YAWRATE,ACCELERATIONLAT,ACCELERATIONLONG,ACCELERATIONVERT,SUSPENSIONLOADFL,SUSPENSIONLOADFR,SUSPENSIONLOADRL,SUSPENSIONLOADRR,SUSPENSIONTRAVELFL,SUSPENSIONTRAVELFR,SUSPENSIONTRAVELRL,SUSPENSIONTRAVELRR,SUSPENSIONCONTACTDEPTHFL,SUSPENSIONCONTACTDEPTHFR,SUSPENSIONCONTACTDEPTHRL,SUSPENSIONCONTACTDEPTHRR,SUSPENSIONCONTACTSPEEDFL,SUSPENSIONCONTACTSPEEDFR,SUSPENSIONCONTACTSPEEDRL,SUSPENSIONCONTACTSPEEDRR,SUSPENSIONSPRINGFORCEFL,SUSPENSIONSPRINGFORCEFR,SUSPENSIONSPRINGFORCERL,SUSPENSIONSPRINGFORCERR,SUSPENSIONDAMPERFORCEFL,SUSPENSIONDAMPERFORCEFR,SUSPENSIONDAMPERFORCERL,SUSPENSIONDAMPERFORCERR,WHEELSPINFL,WHEELSPINFR,WHEELSPINRL,WHEELSPINRR,WHEELSHAFTTORQUEFL,WHEELSHAFTTORQUEFR,WHEELSHAFTTORQUERL,WHEELSHAFTTORQUERR,WHEELBRAKETORQUEFL,WHEELBRAKETORQUEFR,WHEELBRAKETORQUERL,WHEELBRAKETORQUERR,TIRESLIPLONGFL,TIRESLIPLONGFR,TIRESLIPLONGRL,TIRESLIPLONGRR,TIRESLIPLATFL,TIRESLIPLATFR,TIRESLIPLATRL,TIRESLIPLATRR,TIREFORCELONGFL,TIREFORCELONGFR,TIREFORCELONGRL,TIREFORCELONGRR,TIREFORCELATFL,TIREFORCELATFR,TIREFORCELATRL,TIREFORCELATRR,RIDEHEIGHTFRONT,RIDEHEIGHTREAR,ROLLANGLEFRONT,ROLLANGLEREAR,GROUNDSLOPE,GROUNDGRADE,GEAR,STEERINGANGLE,THROTTLE,BRAKEPRESSURE,TORQUEDIFFFRONT,TORQUEDIFFREAR,SPEEDDIFFFRONT,SPEEDDIFFREAR,PITCHRATE,ROLLRATE,SLIPRATIOFL,SLIPRATIOFR,SLIPRATIORL,SLIPRATIORR,SLIPANGLEFL,SLIPANGLEFR,SLIPANGLERL,SLIPANGLERR,LAPDISTANCE,TOTALDISTANCE,FORCEFEEDBACKFORCERATIO,FORCEFEEDBACKDAMPERRATIO,POSITIONX,POSITIONY,POSITIONZ,MOTORRPMFRONT,MOTORRPMREAR,POWERELECTRICALFRONT,POWERELECTRICALREAR,POWERELECTRICALTOTAL,POWERBALANCE,WHEELTORQUEBALANCE,EFFICIENCYFRONT,EFFICIENCYREAR,TORQUEMECHANICALFRONT,TORQUEMECHANICALREAR,TORQUEROTORFRONT,TORQUEROTORREAR,919SPEED,IDRSPEED,919TRAVELEDDISTANCE,IDRTRAVELEDDISTANCE,919TIMEDIFF,IDRTIMEDIFF
29.440001,1.464,0,0.000000,0.000000,0.000000,0.000000,0.000000,0.000000,0.000000,0.000088,33170.630000,33187.390000,33012.170000,33028.950000,0.037943,0.037845,0.048875,0.048777,0.022057,0.022155,0.021125,0.021223,11.028510,11.077340,10.562500,10.611340,3748.583000,3767.344000,3591.216000,3607.824000,29421.000000,29421.000000,29421.000000,29421.000000,-0.000002,0.000000,-0.000002,0.000000,0.000000,0.000000,0.004540,-0.002510,0.000000,0.000000,0.000000,0.000000,0.000000,0.000000,0.000000,0.000000,0.000198,0.000198,0.000202,0.000202,0.014175,0.002425,0.029309,-0.005943,-167.738000,-167.822700,-169.818600,-169.904900,0.007894,0.018826,-0.019782,-0.019782,0.000000,0.000000,1.000000,0.000000,0.000000,0.000000,0.000000,0.007050,-0.000002,-0.000002,-0.000003,-0.000349,0.000000,0.000000,0.000000,0.000000,0.191933,0.191991,0.194691,0.194750,1.463846,1.463846,NaN,NaN,9.911128,0.007894,195.572400,0.000000,0.000000,0.000000,0.000000,0.000000,0.500000,0.000000,0.000000,0.882000,0.000000,0.000000,0.000000,0.000000,1.463800,1.463800,1.463800,1.463800,29.402300,29.400470
29.450001,1.464,0,0.000000,0.000000,0.000000,0.000000,0.000000,-2.115060,0.010583,-1.791262,3080.925000,3157.676000,2879.418000,2954.646000,0.039134,0.039015,0.050176,0.050058,0.020866,0.020985,0.019824,0.019942,-0.155821,-0.135139,-0.165239,-0.144526,3546.028000,3568.640000,3370.014000,3390.148000,-467.460000,-405.412100,-495.712200,-433.575000,-0.001210,-0.001258,-0.001210,-0.001258,0.000000,0.000000,-0.148286,-0.029664,0.000000,0.000000,0.000000,0.000000,0.000000,0.000000,0.000000,0.000000,-0.010928,-0.010928,-0.011014,-0.011014,-1.517650,-0.898517,-2.011937,-0.906317,858.257100,879.637700,808.480900,829.603600,0.009074,0.020117,0.000000,0.000000,0.000000,0.000000,1.000000,0.000000,0.000000,0.000000,0.000000,0.007050,-0.000002,-0.000002,-0.000003,-0.000349,0.000000,0.000000,0.000000,0.000000,0.191933,0.191991,0.194691,0.194750,1.463846,1.463846,NaN,NaN,9.911128,0.007894,195.572400,0.000000,0.000000,0.000000,0.000000,0.000000,0.500000,0.000000,0.000000,0.882000,0.000000,0.000000,0.000000,0.000000,1.463800,1.463800,1.463800,1.463800,29.402300,29.400470
29.460001,1.464,0,0.000000,0.000000,0.000000,0.000000,0.000000,2.813372,0.004175,-2.266398,2974.959000,2910.958000,2773.941000,2707.688000,0.040456,0.040398,0.051567,0.051509,0.019544,0.019602,0.018433,0.018491,-0.113532,-0.142142,-0.118539,-0.147149,3321.833000,3332.804000,3133.552000,3143.391000,-340.592600,-426.422500,-355.612800,-441.442700,-0.000232,-0.000332,-0.000313,-0.000251,0.000000,0.000000,-0.134403,-0.047642,0.000000,0.000000,0.000000,0.000000,0.000000,0.000000,0.000000,0.000000,0.014128,0.014125,0.014239,0.014239,-1.864539,-0.508021,-0.988938,-1.676053,-1071.432000,-1048.141000,-1006.898000,-982.849200,0.010427,0.021538,0.000000,0.000000,0.000000,0.000000,1.000000,0.000000,0.000000,0.000000,0.000000,-0.086762,0.000100,-0.000062,-0.001989,-0.020432,0.000000,0.000000,-0.000015,-0.000060,5.131059,5.100578,5.078316,5.047399,1.464044,1.464044,NaN,NaN,9.911114,0.010679,195.572500,0.000000,-0.028000,0.000000,0.000000,0.000000,0.500000,0.000000,0.000000,0.882000,0.000000,0.000000,0.000000,-0.064000,1.464016,1.464016,1.464016,1.464016,29.422290,29.420460
29.470001,1.464,0,0.000000,0.000000,0.000000,0.000000,0.000000,-2.049999,0.000423,-2.606085,2782.876000,2846.070000,2588.652000,2650.862000,0.041621,0.041532,0.052756,0.052666,0.018379,0.018468,0.017244,0.017334,-0.114620,-0.096977,-0.115290,-0.097647,3123.509000,3140.434000,2931.405000,2946.685000,-343.855900,-290.927500,-345.867500,-292.939100,0.000580,0.000658,0.000637,0.000602,0.000000,0.000000,-0.373792,-0.420458,0.000000,0.000000,0.000000,0.000000,0.000000,0.000000,0.000000,0.000000,-0.009763,-0.009756,-0.009823,-0.009823,-0.560847,-1.560077,-2.251468,-1.526794,692.599600,707.811300,648.214300,663.791900,0.011576,0.022711,0.000000,0.000000,0.000000,0.000000,1.000000,0.000000,0.000000,0.000000,0.000000,-0.086762,0.000100,-0.000062,-0.001989,-0.020432,0.000000,0.000000,-0.000015,-0.000060,5.131059,5.100578,5.078316,5.047399,1.464044,1.464044,NaN,NaN,9.911114,0.010679,195.572500,0.000000,-0.028000,0.000000,0.000000,0.000000,0.500000,0.000000,0.000000,0.882000,0.000000,0.000000,0.000000,-0.064000,1.464016,1.464016,1.464016,1.464016,29.422290,29.420460
29.480001,1.464,0,0.000000,0.000000,0.000000,0.000000,0.000000,1.321657,-0.007385,-2.801368,2749.894000,2721.352000,2568.856000,2539.100000,0.042508,0.042464,0.053626,0.053582,0.017492,0.017536,0.016374,0.016418,-0.073746,-0.087753,-0.070587,-0.084579,2973.232000,2981.458000,2783.564000,2791.021000,-221.235400,-263.256300,-211.758400,-253.734500,0.001353,0.001308,0.001316,0.001344,0.000000,0.000000,-0.794368,-0.790385,0.000000,0.000000,0.000000,0.000000,0.000000,0.000000,0.000000,0.000000,0.006376,0.006391,0.006434,0.006434,-1.051187,-0.445879,-2.647892,-2.634616,-446.927300,-443.349100,-421.331300,-416.450800,0.012486,0.023604,0.000000,0.000000,0.000000,0.000000,1.000000,0.000000,0.000000,0.000000,0.000000,-0.003983,0.000045,-0.000028,0.001233,-0.010002,0.000000,0.000000,-0.000160,-0.000192,2.268781,2.268243,2.251244,2.244909,1.464252,1.464252,NaN,NaN,9.911121,0.012633,195.572500,0.000000,0.269000,0.000000,0.000000,0.000000,0.500000,0.000000,0.000000,0.882000,0.000000,0.000000,0.000000,-0.287000,1.464238,1.464238,1.464238,1.464238,29.442290,29.440460
29.490001,1.464,0,0.000000,0.000000,0.000000,0.000000,0.000000,-0.890894,-0.018222,-2.857713,2693.758000,2719.957000,2528.574000,2554.227000,0.043156,0.043109,0.054225,0.054178,0.016844,0.016891,0.015775,0.015822,-0.057176,-0.050530,-0.051096,-0.044450,2863.023000,2871.778000,2681.791000,2689.765000,-171.525600,-151.588100,-153.286800,-133.349200,0.001709,0.001732,0.001733,0.001708,0.000000,0.000000,-0.972454,-1.024876,0.000000,0.000000,0.000000,0.000000,0.000000,0.000000,0.000000,0.000000,-0.004293,-0.004273,-0.004329,-0.004329,-0.150566,-0.470897,-3.241512,-3.416255,294.801900,296.298000,279.071200,281.902300,0.013133,0.024201,-0.019782,-0.019782,0.000000,0.000000,1.000000,0.000000,0.000000,0.000000,0.000000,-0.003983,0.000045,-0.000028,0.001233,-0.010002,0.000000,0.000000,-0.000160,-0.000192,2.268781,2.268243,2.251244,2.244909,1.464252,1.464252,NaN,NaN,9.911121,0.012633,195.572500,0.000000,0.269000,0.000000,0.000000,0.000000,0.500000,0.000000,0.000000,0.882000,0.000000,0.000000,0.000000,-0.287000,1.464238,1.464238,1.464238,1.464238,29.442290,29.440460
29.500001,1.464,0,-0.000069,72.149510,0.000011,0.016894,-0.000020,0.719471,-0.024248,-2.783743,2737.005000,2717.080000,2588.666000,2568.121000,0.043513,0.043498,0.054509,0.054494,0.016487,0.016502,0.015491,0.015506,-0.021771,-0.030413,-0.013947,-0.022620,2802.702000,2805.481000,2633.403000,2635.936000,-65.311180,-91.238950,-41.842070,-67.859250,0.001774,0.001762,0.001754,0.001782,0.000000,0.000000,-1.011337,-1.008984,0.000000,0.000000,0.000000,0.000000,0.000000,0.000000,0.000000,0.000000,0.003543,0.003563,0.003605,0.003605,0.003158,0.163972,-3.110064,-3.363281,-247.212700,-246.820400,-237.922000,-236.033600,0.013505,0.024502,0.000000,0.000000,0.000000,0.000000,1.000000,0.000000,0.000000,0.000000,0.000000,-0.002353,0.000012,-0.000029,0.003045,-0.006164,0.000000,0.000000,-0.000186,-0.000219,1.259363,1.264257,1.263889,1.261441,1.464360,1.464360,NaN,NaN,9.911124,0.013539,195.572500,0.000000,0.336000,0.000000,0.000000,0.000000,0.500000,0.000000,0.000000,0.882000,0.000000,0.000000,0.000000,-0.333000,1.464353,1.464353,1.464353,1.464353,29.462290,29.460450
29.510001,1.464,0,-0.000069,72.149510,0.000011,0.016894,-0.000020,-0.737942,-0.021624,-2.588272,2781.084000,2798.629000,2648.171000,2665.689000,0.043613,0.043600,0.054527,0.054514,0.016387,0.016400,0.015473,0.015486,-0.002369,0.003383,0.006080,0.011832,2785.725000,2788.158000,2630.444000,2632.663000,-7.107789,10.147600,18.238850,35.494240,0.001573,0.001576,0.001595,0.001555,0.000000,0.000000,-0.870615,-0.908311,0.000000,0.000000,0.000000,0.000000,0.000000,0.000000,0.000000,0.000000,-0.003782,-0.003764,-0.003845,-0.003845,0.354381,0.300445,-2.813185,-2.461730,268.115100,268.515500,259.596600,261.314000,0.013606,0.024520,0.000000,0.000000,0.000000,0.000000,1.000000,0.000000,0.000000,0.000000,0.000000,-0.002353,0.000012,-0.000029,0.003045,-0.006164,0.000000,0.000000,-0.000186,-0.000219,1.259363,1.264257,1.263889,1.261441,1.464360,1.464360,NaN,NaN,9.911124,0.013539,195.572500,0.000000,0.336000,0.000000,0.000000,0.000000,0.500000,0.000000,0.000000,0.882000,0.000000,0.000000,0.000000,-0.333000,1.464353,1.464353,1.464353,1.464353,29.462290,29.460450
29.520001,1.464,0,-0.000069,72.149510,0.000011,0.016894,-0.000020,0.963061,-0.012067,-2.297033,2907.472000,2874.836000,2788.326000,2755.821000,0.043440,0.043459,0.054270,0.054289,0.016560,0.016541,0.015730,0.015711,0.030935,0.019878,0.039190,0.028193,2815.372000,2811.781000,2674.081000,2670.829000,92.803590,59.633900,117.569100,84.578220,0.001255,0.001262,0.001227,0.001290,0.000000,0.000000,-0.721354,-0.686979,0.000000,0.000000,0.000000,0.000000,0.000000,0.000000,0.000000,0.000000,0.004868,0.004882,0.004990,0.004990,0.462059,0.394761,-1.601485,-2.236124,-360.802800,-357.812800,-354.664400,-350.529900,0.013449,0.024280,0.000000,0.000000,0.000000,0.000000,1.000000,0.000000,0.000000,0.000000,0.000000,-0.034376,-0.000007,-0.000063,0.003223,-0.007883,0.000000,0.000000,-0.000097,-0.000157,1.757332,1.757374,1.781878,1.776571,1.464455,1.464455,NaN,NaN,9.911124,0.013381,195.572400,0.000000,0.231000,0.000000,0.000000,0.000000,0.500000,0.000000,0.000000,0.882000,0.000000,0.000000,0.000000,-0.220000,1.464446,1.464446,1.464446,1.464446,29.482280,29.480450
29.530001,1.465,0,-0.000069,72.149510,0.000011,0.016894,-0.000020,-1.481750,-0.002004,-1.924331,3005.182000,3041.009000,2896.100000,2932.503000,0.043057,0.043063,0.053810,0.053816,0.016943,0.016937,0.016190,0.016184,0.040352,0.054419,0.047594,0.061661,2880.295000,2879.191000,2752.199000,2751.196000,121.055900,163.255700,142.781600,184.981400,0.000901,0.000875,0.000946,0.000830,0.000000,0.000000,-0.459364,-0.520001,0.000000,0.000000,0.000000,0.000000,0.000000,0.000000,0.000000,0.000000,-0.007820,-0.007810,-0.008025,-0.008025,0.335950,0.628816,-1.531213,-0.574733,599.109900,605.461300,592.488700,599.936300,0.013060,0.023813,0.000000,0.000000,0.000000,0.000000,1.000000,0.000000,0.000000,0.000000,0.000000,-0.034376,-0.000007,-0.000063,0.003223,-0.007883,0.000000,0.000000,-0.000097,-0.000157,1.757332,1.757374,1.781878,1.776571,1.464455,1.464455,NaN,NaN,9.911124,0.013381,195.572400,0.000000,0.231000,0.000000,0.000000,0.000000,0.500000,0.000000,0.000000,0.882000,0.000000,0.000000,0.000000,-0.220000,1.464446,1.464446,1.464446,1.464446,29.482280,29.480450
29.540001,1.465,0,-0.000069,72.149510,0.000011,0.016894,-0.000020,2.868157,0.005048,-1.497870,3225.019000,3132.170000,3122.455000,3029.705000,0.042440,0.042504,0.053130,0.053194,0.017560,0.017496,0.016870,0.016806,0.081375,0.050619,0.086933,0.056192,2985.792000,2973.676000,2867.926000,2856.947000,244.123600,151.856400,260.797800,168.575300,0.000439,0.000515,0.000352,0.000602,0.000000,0.000000,-0.301649,-0.202620,0.000000,0.000000,0.000000,0.000000,0.000000,0.000000,0.000000,0.000000,0.015104,0.015110,0.015562,0.015562,0.964158,0.110430,0.970201,-1.576482,-1241.773000,-1206.460000,-1238.674000,-1201.881000,0.012472,0.023162,0.000000,0.000000,0.000000,0.000000,1.000000,0.000000,0.000000,0.000000,0.000000,-0.099029,-0.000076,-0.000250,0.002200,-0.021968,0.000000,0.000000,0.000073,-0.000147,5.607078,5.564236,5.725735,5.679295,1.464625,1.464625,NaN,NaN,9.911113,0.012329,195.572400,0.000000,0.079000,0.000000,0.000000,0.000000,0.500000,0.000000,0.000000,0.882000,0.000000,0.000000,0.000000,-0.066000,1.464600,1.464600,1.464600,1.464600,29.502280,29.500450
29.550001,1.465,0,-0.000069,72.149510,0.000011,0.016894,-0.000020,-6.906919,0.008411,-1.035469,3247.365000,3446.525000,3146.141000,3347.060000,0.041746,0.041705,0.052392,0.052351,0.018254,0.018295,0.017608,0.017649,0.043422,0.116378,0.046998,0.119910,3102.758000,3110.523000,2993.338000,3000.340000,130.264800,349.131100,140.993500,359.725800,0.000170,-0.000123,0.000385,-0.000338,0.000000,0.000000,-0.038682,0.058158,0.000000,0.000000,0.000000,0.000000,0.000000,0.000000,0.000000,0.000000,-0.037378,-0.037378,-0.038695,-0.038695,-0.877444,2.055260,-3.443583,4.686360,3094.242000,3283.988000,3103.360000,3301.546000,0.011726,0.022371,-0.019782,-0.019782,0.000000,0.000000,1.000000,0.000000,0.000000,0.000000,0.000000,-0.099029,-0.000076,-0.000250,0.002200,-0.021968,0.000000,0.000000,0.000073,-0.000147,5.607078,5.564236,5.725735,5.679295,1.464625,1.464625,NaN,NaN,9.911113,0.012329,195.572400,0.000000,0.079000,0.000000,0.000000,0.000000,0.500000,0.000000,0.000000,0.882000,0.000000,0.000000,0.000000,-0.066000,1.464600,1.464600,1.464600,1.464600,29.502280,29.500450
29.560001,1.465,0,-0.000069,72.149510,0.000011,0.016894,-0.000020,9.689500,0.008477,-0.566450,3659.391000,3385.092000,3556.577000,3281.509000,0.040790,0.040938,0.051415,0.051562,0.019210,0.019062,0.018585,0.018438,0.136629,0.042662,0.137761,0.043795,3267.107000,3239.161000,3159.494000,3134.375000,409.882700,127.984900,413.280100,131.382400,-0.000571,-0.000360,-0.000844,-0.000087,0.000000,0.000000,2.992323,-2.895318,0.000000,0.000000,0.000000,0.000000,0.000000,0.000000,0.000000,0.000000,0.047504,0.047498,0.048878,0.048878,0.627155,0.625411,12.040370,-10.443430,-3804.014000,-3561.544000,-3713.542000,-3469.018000,0.010864,0.021488,0.000000,0.000000,0.000000,0.000000,1.000000,0.000000,0.000000,0.000000,0.000000,5.887642,-0.000211,-0.000757,0.000407,-0.067121,0.000000,0.000000,0.000767,-0.000777,15.695630,15.531060,15.633950,15.468910,1.465287,1.465287,NaN,NaN,9.911080,0.010681,195.572400,0.000000,-0.102000,0.000000,0.000000,0.000000,0.500000,0.000000,0.000000,0.882000,0.000000,0.000000,0.000000,0.034000,1.465192,1.465192,1.465192,1.465192,29.522260,29.520430
29.570001,1.466,0,-0.000069,72.149510,0.000011,0.016894,-0.000020,-10.114980,0.007100,-0.107760,3559.715000,3830.379000,3447.768000,3721.344000,0.039960,0.039907,0.050589,0.050535,0.020040,0.020093,0.019411,0.019465,0.044957,0.144377,0.043586,0.143006,3406.177000,3416.384000,3299.893000,3309.022000,134.869200,433.128300,130.756500,429.015600,-0.000998,-0.000927,-0.000707,-0.001218,0.000000,0.000000,5.724860,-5.629868,0.000000,0.000000,0.000000,0.000000,0.000000,0.000000,0.000000,0.000000,-0.050725,-0.050736,-0.051662,-0.051662,0.366074,0.869296,15.868840,-14.316820,3716.311000,3953.469000,3617.264000,3858.306000,0.009934,0.020562,0.000000,0.000000,0.000000,0.000000,1.000000,0.000000,0.000000,0.000000,0.000000,5.887642,-0.000211,-0.000757,0.000407,-0.067121,0.000000,0.000000,0.000767,-0.000777,15.695630,15.531060,15.633950,15.468910,1.465287,1.465287,NaN,NaN,9.911080,0.010681,195.572400,0.000000,-0.102000,0.000000,0.000000,0.000000,0.500000,0.000000,0.000000,0.882000,0.000000,0.000000,0.000000,0.034000,1.465192,1.465192,1.465192,1.465192,29.522260,29.520430
29.580001,1.466,0,-0.000069,72.149510,0.000011,0.016894,-0.000020,10.495130,0.006828,0.319928,4001.822000,3713.883000,3881.031000,3591.759000,0.038914,0.039047,0.049570,0.049703,0.021086,0.020953,0.020430,0.020297,0.145197,0.044912,0.141472,0.041217,3585.975000,3560.586000,3472.990000,3450.414000,435.586900,134.735100,424.411200,123.648700,-0.001338,-0.001488,-0.001632,-0.001194,0.000000,0.000000,4.196486,-4.119154,0.000000,0.000000,0.000000,0.000000,0.000000,0.000000,0.000000,0.000000,0.051074,0.051058,0.051862,0.051862,0.420133,0.624269,13.988290,-13.730510,-4102.158000,-3851.776000,-3997.514000,-3744.555000,0.008981,0.019637,0.019782,0.000000,0.000000,0.000000,1.000000,0.000000,0.000000,0.000000,0.000000,8.315640,0.000150,-0.000437,-0.001494,-0.071600,0.000000,0.000000,0.000863,-0.000886,15.901090,15.728330,15.828620,15.655060,1.466268,1.466268,NaN,NaN,9.911090,0.008795,195.572400,0.000000,-0.281000,0.000000,0.000000,0.000000,0.500000,0.000000,0.000000,0.882000,0.000000,0.000000,0.000000,0.027000,1.466165,1.466165,1.466165,1.466165,29.542240,29.540410
29.590001,1.467,0,-0.000069,72.149510,0.000011,0.016894,-0.000020,-10.831730,0.005578,0.697994,3857.526000,4152.644000,3721.338000,4019.157000,0.038093,0.038004,0.048799,0.048709,0.021907,0.021996,0.021201,0.021291,0.038326,0.144571,0.032723,0.138968,3723.172000,3740.334000,3604.213000,3619.412000,114.976300,433.709400,98.167980,416.901000,-0.001633,-0.001913,-0.001324,-0.002222,0.000000,0.000000,1.138555,-1.080928,0.000000,0.000000,0.000000,0.000000,0.000000,0.000000,0.000000,0.000000,-0.053751,-0.053771,-0.055395,-0.055395,0.410102,0.379228,0.391375,0.590122,3977.087000,4232.089000,3858.300000,4117.132000,0.008048,0.018754,0.000000,0.000000,0.000000,0.000000,1.000000,0.000000,0.000000,0.000000,0.000000,8.315640,0.000150,-0.000437,-0.001494,-0.071600,0.000000,0.000000,0.000863,-0.000886,15.901090,15.728330,15.828620,15.655060,1.466268,1.466268,NaN,NaN,9.911090,0.008795,195.572400,0.000000,-0.281000,0.000000,0.000000,0.000000,0.500000,0.000000,0.000000,0.882000,0.000000,0.000000,0.000000,0.027000,1.466165,1.466165,1.466165,1.466165,29.542240,29.540410
29.600001,1.467,0,-0.000080,92.145570,0.010961,0.078983,-0.000242,11.117630,0.004042,1.017114,4279.744000,3980.417000,4130.632000,3828.987000,0.037122,0.037233,0.047894,0.048005,0.022878,0.022767,0.022106,0.021995,0.137001,0.030696,0.129834,0.023529,3890.472000,3869.073000,3758.022000,3739.155000,411.000200,92.088350,389.498000,70.586170,-0.001874,-0.002157,-0.002185,-0.001846,0.000000,0.000000,-3.492444,3.524834,0.000000,0.000000,0.000000,0.000000,0.000000,0.000000,0.000000,0.000000,0.054139,0.054116,0.054745,0.054745,0.097298,0.372512,-7.635877,8.213652,-4341.003000,-4083.654000,-4213.174000,-3952.256000,0.007178,0.017949,0.019782,0.019782,0.000000,0.000000,1.000000,0.000000,0.000000,0.000000,0.000000,-7.017278,0.000283,-0.000339,-0.002845,-0.075921,0.000000,0.000000,-0.000292,0.000319,16.067850,15.888250,15.978380,15.797390,1.467322,1.467322,NaN,NaN,9.911097,0.007021,195.572400,0.000000,-0.390000,0.000000,0.000000,0.000000,0.500000,0.000000,0.000000,0.882000,0.000000,0.000000,0.000000,0.011000,1.467213,1.467213,1.467213,1.467213,29.562220,29.560380
29.610001,1.468,0,-0.000080,92.145570,0.010961,0.078983,-0.000242,-11.342790,0.002481,1.265245,4074.030000,4383.561000,3907.059000,4219.163000,0.036460,0.036346,0.047309,0.047194,0.023540,0.023654,0.022691,0.022806,0.017896,0.127882,0.009850,0.119850,4000.383000,4022.556000,3857.438000,3876.923000,53.688400,383.641800,29.548730,359.546800,-0.002132,-0.002117,-0.001810,-0.002438,0.000000,0.000000,-4.949321,4.955812,0.000000,0.000000,0.000000,0.000000,0.000000,0.000000,0.000000,0.000000,-0.055897,-0.055921,-0.057052,-0.057052,0.603872,-0.469207,-16.497740,16.519370,4164.461000,4429.600000,4020.109000,4289.154000,0.006403,0.017252,0.000000,0.000000,0.000000,0.000000,1.000000,0.000000,0.000000,0.000000,0.000000,-7.017278,0.000283,-0.000339,-0.002845,-0.075921,0.000000,0.000000,-0.000292,0.000319,16.067850,15.888250,15.978380,15.797390,1.467322,1.467322,NaN,NaN,9.911097,0.007021,195.572400,0.000000,-0.390000,0.000000,0.000000,0.000000,0.500000,0.000000,0.000000,0.882000,0.000000,0.000000,0.000000,0.011000,1.467213,1.467213,1.467213,1.467213,29.562220,29.560380
29.620001,1.468,0,-0.000080,92.145570,0.010961,0.078983,-0.000242,11.502960,0.000850,1.437702,4453.021000,4144.973000,4274.449000,3963.639000,0.035701,0.035803,0.046632,0.046733,0.024299,0.024197,0.023368,0.023267,0.114605,0.004187,0.106394,-0.003979,4131.992000,4112.298000,3972.571000,3955.335000,343.811300,12.561560,319.179900,-11.935720,-0.002136,-0.002055,-0.002456,-0.001735,0.000000,0.000000,-4.346891,4.327845,0.000000,0.000000,0.000000,0.000000,0.000000,0.000000,0.000000,0.000000,0.055753,0.055729,0.057054,0.057054,-0.533291,0.330182,-10.991710,10.725100,-4488.705000,-4225.499000,-4336.475000,-4069.137000,0.005752,0.016682,0.019782,0.019782,0.000000,0.000000,1.000000,0.000000,0.000000,0.000000,0.000000,-8.674736,-0.000081,-0.000722,-0.003263,-0.078877,0.000000,0.000000,-0.000366,0.000380,16.171810,15.986980,16.064670,15.878180,1.468422,1.468422,NaN,NaN,9.911102,0.005646,195.572400,0.000000,-0.398000,0.000000,0.000000,0.000000,0.500000,0.000000,0.000000,0.882000,0.000000,0.000000,0.000000,-0.006000,1.468311,1.468311,1.468311,1.468311,29.582190,29.580350
29.630001,1.469,0,-0.000080,92.145570,0.010961,0.078983,-0.000242,-11.595370,-0.000833,1.530572,4184.545000,4498.474000,3990.962000,4307.319000,0.035305,0.035184,0.046315,0.046194,0.024695,0.024816,0.023685,0.023806,-0.010818,0.100434,-0.018537,0.092685,4196.697000,4220.215000,4026.390000,4046.919000,-32.454430,301.298600,-55.610610,278.053100,-0.002144,-0.001735,-0.001817,-0.002062,0.000000,0.000000,-0.253837,0.211122,0.000000,0.000000,0.000000,0.000000,0.000000,0.000000,0.000000,0.000000,-0.056896,-0.056918,-0.057354,-0.057354,0.480530,-0.992308,-4.424947,3.770746,4259.474000,4527.311000,4092.772000,4364.566000,0.005244,0.016255,0.000000,0.000000,0.000000,0.000000,1.000000,0.000000,0.000000,0.000000,0.000000,-8.674736,-0.000081,-0.000722,-0.003263,-0.078877,0.000000,0.000000,-0.000366,0.000380,16.171810,15.986980,16.064670,15.878180,1.468422,1.468422,NaN,NaN,9.911102,0.005646,195.572400,0.000000,-0.398000,0.000000,0.000000,0.000000,0.500000,0.000000,0.000000,0.882000,0.000000,0.000000,0.000000,-0.006000,1.468311,1.468311,1.468311,1.468311,29.582190,29.580350
29.640001,1.470,0,-0.000080,92.145570,0.010961,0.078983,-0.000242,11.625760,-0.002373,1.551949,4508.956000,4196.507000,4308.046000,3992.645000,0.034841,0.034946,0.045924,0.046030,0.025159,0.025054,0.024076,0.023970,0.084549,-0.027329,0.077695,-0.034168,4278.287000,4257.772000,4092.804000,4074.930000,253.645100,-81.985400,233.081800,-102.504100,-0.001726,-0.001626,-0.002050,-0.001302,0.000000,0.000000,3.093738,-3.154564,0.000000,0.000000,0.000000,0.000000,0.000000,0.000000,0.000000,0.000000,0.056402,0.056383,0.057753,0.057753,-1.293766,0.537010,10.620580,-11.590320,-4536.205000,-4269.734000,-4365.188000,-4094.226000,0.004894,0.015977,0.019782,0.019782,0.000000,0.000000,1.000000,0.000000,0.000000,0.000000,0.000000,6.248302,-0.000100,-0.000748,-0.002729,-0.079940,0.000000,0.000000,0.000660,-0.000714,16.205370,16.017900,16.084830,15.895590,1.469545,1.469545,NaN,NaN,9.911110,0.004849,195.572500,0.000000,-0.311000,0.000000,0.000000,0.000000,0.500000,0.000000,0.000000,0.882000,0.000000,0.000000,0.000000,-0.021000,1.469433,1.469433,1.469433,1.469433,29.602160,29.600320
29.650001,1.470,0,-0.000080,92.145570,0.010961,0.078983,-0.000242,-11.593910,-0.003047,1.501187,4181.325000,4493.073000,3970.896000,4285.496000,0.034761,0.034646,0.045904,0.045790,0.025239,0.025354,0.024096,0.024210,-0.042871,0.068039,-0.048369,0.062585,4289.195000,4311.527000,4096.198000,4115.653000,-128.610700,204.114200,-145.106100,187.752800,-0.001421,-0.001232,-0.001096,-0.001557,0.000000,0.000000,5.308348,-5.383920,0.000000,0.000000,0.000000,0.000000,0.000000,0.000000,0.000000,0.000000,-0.056504,-0.056520,-0.057351,-0.057351,0.321859,-1.274674,13.961920,-15.166640,4256.710000,4522.726000,4075.417000,4345.919000,0.004704,0.015847,0.000000,0.000000,0.000000,0.000000,1.000000,0.000000,0.000000,0.000000,0.000000,6.248302,-0.000100,-0.000748,-0.002729,-0.079940,0.000000,0.000000,0.000660,-0.000714,16.205370,16.017900,16.084830,15.895590,1.469545,1.469545,NaN,NaN,9.911110,0.004849,195.572500,0.000000,-0.311000,0.000000,0.000000,0.000000,0.500000,0.000000,0.000000,0.882000,0.000000,0.000000,0.000000,-0.021000,1.469433,1.469433,1.469433,1.469433,29.602160,29.600320
29.660001,1.471,0,-0.000080,92.145570,0.010961,0.078983,-0.000242,11.506100,-0.004709,1.386737,4451.640000,4141.961000,4241.202000,3928.628000,0.034616,0.034726,0.045804,0.045914,0.025384,0.025274,0.024196,0.024086,0.052422,-0.058085,0.048712,-0.061810,4316.580000,4295.240000,4113.210000,4094.647000,157.265300,-174.252500,146.134300,-185.428300,-0.000751,-0.001096,-0.001073,-0.000774,0.000000,0.000000,3.428225,-3.506859,0.000000,0.000000,0.000000,0.000000,0.000000,0.000000,0.000000,0.000000,0.056073,0.056062,0.056614,0.056614,-1.640615,0.613432,11.427420,-11.689530,-4487.531000,-4222.911000,-4308.029000,-4038.813000,0.004671,0.015859,0.000000,0.000000,0.000000,0.000000,1.000000,0.000000,0.000000,0.000000,0.000000,6.935084,0.000345,-0.000300,-0.001514,-0.078935,0.000000,0.000000,0.000642,-0.000702,16.170980,15.985180,16.044720,15.857180,1.470669,1.470669,NaN,NaN,9.911112,0.004686,195.572500,0.000000,-0.165000,0.000000,0.000000,0.000000,0.500000,0.000000,0.000000,0.882000,0.000000,0.000000,0.000000,-0.027000,1.470558,1.470558,1.470558,1.470558,29.622130,29.620290
29.670001,1.471,0,-0.000080,92.145570,0.010961,0.078983,-0.000242,-11.371150,-0.005377,1.223019,4081.714000,4387.336000,3868.812000,4177.207000,0.034840,0.034731,0.046055,0.045946,0.025160,0.025269,0.023945,0.024054,-0.071689,0.037298,-0.073582,0.035405,4275.787000,4297.022000,4070.663000,4089.156000,-215.066400,111.891700,-220.743700,106.214500,-0.000422,-0.000582,-0.000105,-0.000899,0.000000,0.000000,0.078621,-0.159555,0.000000,0.000000,0.000000,0.000000,0.000000,0.000000,0.000000,0.000000,-0.055222,-0.055228,-0.056671,-0.056671,0.439341,-1.492088,-3.277808,1.955281,4171.081000,4432.816000,3986.898000,4253.177000,0.004786,0.016000,-0.019782,-0.019782,0.000000,0.000000,1.000000,0.000000,0.000000,0.000000,0.000000,6.935084,0.000345,-0.000300,-0.001514,-0.078935,0.000000,0.000000,0.000642,-0.000702,16.170980,15.985180,16.044720,15.857180,1.470669,1.470669,NaN,NaN,9.911112,0.004686,195.572500,0.000000,-0.165000,0.000000,0.000000,0.000000,0.500000,0.000000,0.000000,0.882000,0.000000,0.000000,0.000000,-0.027000,1.470558,1.470558,1.470558,1.470558,29.622130,29.620290
29.680001,1.472,0,-0.000080,92.145570,0.010961,0.078983,-0.000242,11.161410,-0.004819,1.011730,4307.116000,4007.638000,4100.737000,3798.450000,0.034978,0.035083,0.046201,0.046306,0.025022,0.024917,0.023799,0.023694,0.024363,-0.082538,0.024378,-0.082552,4254.960000,4234.507000,4045.863000,4028.020000,73.089480,-247.610200,73.134190,-247.654900,0.000141,-0.000320,-0.000172,-0.000008,0.000000,0.000000,-6.282392,6.202440,0.000000,0.000000,0.000000,0.000000,0.000000,0.000000,0.000000,0.000000,0.054361,0.054359,0.054659,0.054659,-1.103465,0.073156,-18.139670,16.842800,-4364.393000,-4107.183000,-4187.459000,-3925.652000,0.005031,0.016253,0.000000,0.000000,0.000000,0.000000,1.000000,0.000000,0.000000,0.000000,0.000000,-12.484830,0.000461,-0.000164,-0.000052,-0.076361,0.000000,0.000000,-0.000751,0.000766,16.084270,15.904580,15.960440,15.779070,1.471766,1.471766,NaN,NaN,9.911111,0.005094,195.572500,0.000000,-0.006000,0.000000,0.000000,0.000000,0.500000,0.000000,0.000000,0.882000,0.000000,0.000000,0.000000,-0.028000,1.471659,1.471659,1.471659,1.471659,29.642110,29.640270
29.690001,1.472,0,-0.000080,92.145570,0.010961,0.078983,-0.000242,-10.956570,-0.005962,0.778969,3918.137000,4213.197000,3715.412000,4013.011000,0.035440,0.035334,0.046652,0.046546,0.024560,0.024666,0.023348,0.023454,-0.092179,0.012934,-0.090450,0.014648,4173.862000,4194.509000,3969.134000,3987.165000,-276.533100,38.802250,-271.347500,43.943100,0.000124,0.000446,0.000433,0.000138,0.000000,0.000000,-5.374287,5.012550,0.000000,0.000000,0.000000,0.000000,0.000000,0.000000,0.000000,0.000000,-0.053744,-0.053740,-0.054280,-0.054280,0.711879,-1.580742,-17.914290,16.708500,4029.718000,4284.041000,3853.114000,4111.824000,0.005387,0.016599,-0.019782,-0.019782,0.000000,0.000000,1.000000,0.000000,0.000000,0.000000,0.000000,-12.484830,0.000461,-0.000164,-0.000052,-0.076361,0.000000,0.000000,-0.000751,0.000766,16.084270,15.904580,15.960440,15.779070,1.471766,1.471766,NaN,NaN,9.911111,0.005094,195.572500,0.000000,-0.006000,0.000000,0.000000,0.000000,0.500000,0.000000,0.000000,0.882000,0.000000,0.000000,0.000000,-0.028000,1.471659,1.471659,1.471659,1.471659,29.642110,29.640270
29.700001,1.473,0,-0.000335,90.713100,0.010589,0.047579,-0.000750,10.772810,-0.005614,0.524720,4114.522000,3823.752000,3922.908000,3629.536000,0.035776,0.035879,0.046961,0.047065,0.024224,0.024121,0.023039,0.022935,0.004947,-0.098705,0.008196,-0.095487,4119.294000,4099.226000,3916.525000,3898.955000,14.841410,-296.113000,24.586680,-286.457200,0.000366,0.000820,0.000068,0.001118,0.000000,0.000000,-0.101647,-0.605738,0.000000,0.000000,0.000000,0.000000,0.000000,0.000000,0.000000,0.000000,0.051948,0.051955,0.053863,0.053863,-1.078993,0.375634,2.360241,-5.421551,-4199.321000,-3947.698000,-4033.854000,-3777.792000,0.005828,0.017013,0.000000,0.000000,0.000000,0.000000,1.000000,0.000000,0.000000,0.000000,0.000000,0.504091,-0.000454,-0.001051,0.001228,-0.074041,0.000000,0.000000,0.000264,-0.000401,15.968710,15.794250,15.853740,15.677720,1.472831,1.472831,NaN,NaN,9.911119,0.005920,195.572500,0.000000,0.120000,0.000000,0.000000,0.000000,0.500000,0.000000,0.000000,0.882000,0.000000,0.000000,0.000000,-0.129000,1.472725,1.472725,1.472725,1.472725,29.662080,29.660240
29.710001,1.473,0,-0.000335,90.713100,0.010589,0.047579,-0.000750,-10.552750,-0.005741,0.270104,3728.575000,4010.692000,3544.419000,3828.945000,0.036376,0.036280,0.047522,0.047426,0.023624,0.023720,0.022478,0.022574,-0.102192,-0.001341,-0.097737,0.003085,4014.880000,4033.511000,3821.268000,3837.612000,-306.573500,-4.023275,-293.207300,9.253532,0.000417,0.001212,0.000716,0.000913,0.000000,0.000000,9.912156,-10.864900,0.000000,0.000000,0.000000,0.000000,0.000000,0.000000,0.000000,0.000000,-0.052019,-0.052009,-0.051656,-0.051656,0.514330,-0.992926,29.847320,-33.501750,3864.632000,4109.822000,3702.812000,3952.220000,0.006328,0.017474,0.000000,0.000000,0.000000,0.000000,1.000000,0.000000,0.000000,0.000000,0.000000,0.504091,-0.000454,-0.001051,0.001228,-0.074041,0.000000,0.000000,0.000264,-0.000401,15.968710,15.794250,15.853740,15.677720,1.472831,1.472831,NaN,NaN,9.911119,0.005920,195.572500,0.000000,0.120000,0.000000,0.000000,0.000000,0.500000,0.000000,0.000000,0.882000,0.000000,0.000000,0.000000,-0.129000,1.472725,1.472725,1.472725,1.472725,29.662080,29.660240
29.720001,1.474,0,-0.000335,90.713100,0.010589,0.047579,-0.000750,10.347170,-0.005550,0.022012,3913.754000,3632.260000,3742.352000,3458.771000,0.036806,0.036914,0.047902,0.048011,0.023194,0.023086,0.022098,0.021989,-0.004023,-0.103712,0.001207,-0.098482,3944.186000,3923.268000,3756.586000,3738.165000,-12.069830,-311.133300,3.620948,-295.442500,0.000983,0.000909,0.000693,0.001199,0.000000,0.000000,13.913090,-15.007040,0.000000,0.000000,0.000000,0.000000,0.000000,0.000000,0.000000,0.000000,0.050531,0.050542,0.051458,0.051458,-1.316993,1.082401,46.376950,-50.023460,-4025.917000,-3780.186000,-3876.679000,-3627.026000,0.006860,0.017956,0.000000,0.000000,0.000000,0.000000,1.000000,0.000000,0.000000,0.000000,0.000000,28.920130,0.000074,-0.000506,0.002013,-0.071219,0.000000,0.000000,0.002335,-0.002652,15.848250,15.679360,15.745410,15.575260,1.473857,1.473857,NaN,NaN,9.911129,0.006963,195.572500,0.000000,0.183000,0.000000,0.000000,0.000000,0.500000,0.000000,0.000000,0.882000,0.000000,0.000000,0.000000,-0.185000,1.473756,1.473756,1.473756,1.473756,29.682060,29.680210
29.730001,1.474,0,-0.000335,90.713100,0.010589,0.047579,-0.000750,-10.143350,-0.004458,-0.206797,3547.059000,3819.266000,3383.971000,3658.652000,0.037442,0.037354,0.048482,0.048395,0.022558,0.022646,0.021518,0.021605,-0.102207,-0.004575,-0.096530,0.001118,3833.914000,3850.835000,3657.945000,3672.890000,-306.618300,-13.723840,-289.586400,3.352730,0.001243,0.000738,0.001526,0.000455,0.000000,0.000000,9.191411,-10.327350,0.000000,0.000000,0.000000,0.000000,0.000000,0.000000,0.000000,0.000000,-0.049232,-0.049221,-0.051175,-0.051175,0.299037,-0.322114,27.367690,-31.177160,3705.143000,3943.792000,3560.546000,3803.365000,0.007398,0.018439,0.000000,0.000000,0.000000,0.000000,1.000000,0.000000,0.000000,0.000000,0.000000,28.920130,0.000074,-0.000506,0.002013,-0.071219,0.000000,0.000000,0.002335,-0.002652,15.848250,15.679360,15.745410,15.575260,1.473857,1.473857,NaN,NaN,9.911129,0.006963,195.572500,0.000000,0.183000,0.000000,0.000000,0.000000,0.500000,0.000000,0.000000,0.882000,0.000000,0.000000,0.000000,-0.185000,1.473756,1.473756,1.473756,1.473756,29.682060,29.680210
29.740001,1.475,0,-0.000335,90.713100,0.010589,0.047579,-0.000750,9.954038,-0.003049,-0.411017,3739.465000,3469.797000,3588.409000,3316.834000,0.037864,0.037967,0.048848,0.048950,0.022136,0.022033,0.021153,0.021050,-0.002444,-0.097990,0.003278,-0.092253,3764.263000,3744.525000,3595.892000,3578.434000,-7.331303,-293.967300,9.834674,-276.756700,0.001433,0.000473,0.001150,0.000756,0.000000,0.000000,-2.511691,1.425974,0.000000,0.000000,0.000000,0.000000,0.000000,0.000000,0.000000,0.000000,0.049275,0.049286,0.048566,0.048566,-0.542221,0.705788,-5.404546,1.949031,-3874.155000,-3636.801000,-3741.604000,-3500.635000,0.007915,0.018899,0.000000,0.000000,0.000000,0.000000,1.000000,0.000000,0.000000,0.000000,0.000000,-3.937665,0.000960,0.000393,0.002206,-0.068217,0.000000,0.000000,-0.000319,0.000158,15.743680,15.581880,15.653050,15.490100,1.474844,1.474844,NaN,NaN,9.911123,0.008009,195.572500,0.000000,0.180000,0.000000,0.000000,0.000000,0.500000,0.000000,0.000000,0.882000,0.000000,0.000000,0.000000,-0.178000,1.474749,1.474749,1.474749,1.474749,29.702030,29.700190
29.750001,1.475,0,-0.000335,90.713100,0.010589,0.047579,-0.000750,-9.808041,-0.001662,-0.575370,3403.538000,3670.690000,3259.287000,3528.573000,0.038439,0.038345,0.049367,0.049273,0.021561,0.021655,0.020633,0.020727,-0.093326,0.001907,-0.087857,0.007391,3664.299000,3682.264000,3507.561000,3523.500000,-279.975300,5.721993,-263.569300,22.172720,0.001120,0.000573,0.001396,0.000297,0.000000,0.000000,-12.864320,11.907440,0.000000,0.000000,0.000000,0.000000,0.000000,0.000000,0.000000,0.000000,-0.048021,-0.048011,-0.050016,-0.050016,0.964607,-0.632533,-42.881070,39.691450,3577.963000,3813.928000,3449.094000,3688.817000,0.008392,0.019320,-0.019782,-0.019782,0.000000,0.000000,1.000000,0.000000,0.000000,0.000000,0.000000,-3.937665,0.000960,0.000393,0.002206,-0.068217,0.000000,0.000000,-0.000319,0.000158,15.743680,15.581880,15.653050,15.490100,1.474844,1.474844,NaN,NaN,9.911123,0.008009,195.572500,0.000000,0.180000,0.000000,0.000000,0.000000,0.500000,0.000000,0.000000,0.882000,0.000000,0.000000,0.000000,-0.178000,1.474749,1.474749,1.474749,1.474749,29.702030,29.700190
29.760001,1.476,0,-0.000335,90.713100,0.010589,0.047579,-0.000750,9.685947,-0.000247,-0.705808,3616.416000,3356.160000,3481.293000,3219.134000,0.038765,0.038853,0.049642,0.049730,0.021235,0.021147,0.020358,0.020270,0.007525,-0.085488,0.012383,-0.080571,3610.822000,3594.035000,3460.829000,3445.914000,22.575050,-256.461500,37.148250,-241.709500,0.000673,0.000690,0.000402,0.000961,0.000000,0.000000,-16.502610,15.739690,0.000000,0.000000,0.000000,0.000000,0.000000,0.000000,0.000000,0.000000,0.047135,0.047143,0.048158,0.048158,0.341497,0.118351,-51.249660,49.166430,-3766.255000,-3535.757000,-3646.989000,-3413.027000,0.008809,0.019686,0.000000,0.000000,0.000000,0.000000,1.000000,0.000000,0.000000,0.000000,0.000000,-32.242310,-0.000018,-0.000560,0.001868,-0.066436,0.000000,0.000000,-0.002423,0.002440,15.669850,15.513700,15.588780,15.431480,1.475798,1.475798,NaN,NaN,9.911125,0.008879,195.572400,0.000000,0.125000,0.000000,0.000000,0.000000,0.500000,0.000000,0.000000,0.882000,0.000000,0.000000,0.000000,-0.119000,1.475703,1.475703,1.475703,1.475703,29.722010,29.720160
29.770001,1.476,0,-0.000335,90.713100,0.010589,0.047579,-0.000750,-9.570036,0.001629,-0.793733,3320.995000,3581.574000,3189.358000,3451.740000,0.039202,0.039103,0.050035,0.049936,0.020798,0.020897,0.019965,0.020064,-0.077292,0.015005,-0.073209,0.019088,3534.586000,3553.514000,3394.040000,3410.911000,-231.874900,45.016000,-219.626200,57.264650,0.000024,0.000932,0.000299,0.000657,0.000000,0.000000,-8.165684,7.639214,0.000000,0.000000,0.000000,0.000000,0.000000,0.000000,0.000000,0.000000,-0.047889,-0.047883,-0.047236,-0.047236,0.974794,-0.442082,-27.218940,25.464040,3504.355000,3735.583000,3386.223000,3620.788000,0.009152,0.019985,0.000000,0.000000,0.000000,0.000000,1.000000,0.000000,0.000000,0.000000,0.000000,-32.242310,-0.000018,-0.000560,0.001868,-0.066436,0.000000,0.000000,-0.002423,0.002440,15.669850,15.513700,15.588780,15.431480,1.475798,1.475798,NaN,NaN,9.911125,0.008879,195.572400,0.000000,0.125000,0.000000,0.000000,0.000000,0.500000,0.000000,0.000000,0.882000,0.000000,0.000000,0.000000,-0.119000,1.475703,1.475703,1.475703,1.475703,29.722010,29.720160
29.780001,1.477,0,-0.000335,90.713100,0.010589,0.047579,-0.000750,9.524815,0.003169,-0.839721,3561.839000,3303.955000,3435.491000,3175.673000,0.039369,0.039456,0.050167,0.050254,0.020631,0.020544,0.019833,0.019746,0.023589,-0.068560,0.026703,-0.065416,3508.154000,3491.568000,3371.621000,3356.838000,70.764980,-205.678900,80.107920,-196.246500,-0.000163,0.000670,-0.000427,0.000935,0.000000,0.000000,4.973722,-5.241916,0.000000,0.000000,0.000000,0.000000,0.000000,0.000000,0.000000,0.000000,0.045969,0.045972,0.048448,0.048448,-0.156791,0.723887,16.579070,-17.473050,-3718.184000,-3489.116000,-3606.364000,-3373.886000,0.009412,0.020210,0.000000,0.000000,0.000000,0.000000,1.000000,0.000000,0.000000,0.000000,0.000000,10.215640,-0.000833,-0.001362,0.001181,-0.065817,0.000000,0.000000,0.001175,-0.001281,15.637100,15.482370,15.561290,15.405400,1.476730,1.476730,NaN,NaN,9.911140,0.009451,195.572400,0.000000,0.042000,0.000000,0.000000,0.000000,0.500000,0.000000,0.000000,0.882000,0.000000,0.000000,0.000000,-0.035000,1.476636,1.476636,1.476636,1.476636,29.741990,29.740140
