TIME,DISTANCE,MARKERS,919SPEED,IDRSPEED,919TRAVELEDDISTANCE,IDRTRAVELEDDISTANCE,919TIMEDIFF,IDRTIMEDIFF,MOTORRPMFRONT,MOTORRPMREAR,POWERELECTRICALFRONT,POWERELECTRICALREAR,POWERELECTRICALTOTAL,POWERBALANCE,WHEELTORQUEBALANCE,EFFICIENCYFRONT,EFFICIENCYREAR,TORQUEMECHANICALFRONT,TORQUEMECHANICALREAR,TORQUEROTORFRONT,TORQUEROTORREAR,GEAR,STEERINGANGLE,THROTTLE,BRAKEPRESSURE,TORQUEDIFFFRONT,TORQUEDIFFREAR,SPEEDDIFFFRONT,SPEEDDIFFREAR,PITCHRATE,ROLLRATE,SLIPRATIOFL,SLIPRATIOFR,SLIPRATIORL,SLIPRATIORR,SLIPANGLEFL,SLIPANGLEFR,SLIPANGLERL,SLIPANGLERR,LAPDISTANCE,TOTALDISTANCE,FORCEFEEDBACKFORCERATIO,FORCEFEEDBACKDAMPERRATIO,POSITIONX,POSITIONY,POSITIONZ,RIDEHEIGHTFRONT,RIDEHEIGHTREAR,ROLLANGLEFRONT,ROLLANGLEREAR,GROUNDSLOPE,GROUNDGRADE,SPEED,SPEEDANGLE,SPEEDLAT,VELOCITY,YAWRATE,ACCELERATIONLAT,ACCELERATIONLONG,ACCELERATIONVERT,SUSPENSIONLOADFL,SUSPENSIONLOADFR,SUSPENSIONLOADRL,SUSPENSIONLOADRR,SUSPENSIONTRAVELFL,SUSPENSIONTRAVELFR,SUSPENSIONTRAVELRL,SUSPENSIONTRAVELRR,SUSPENSIONCONTACTDEPTHFL,SUSPENSIONCONTACTDEPTHFR,SUSPENSIONCONTACTDEPTHRL,SUSPENSIONCONTACTDEPTHRR,SUSPENSIONCONTACTSPEEDFL,SUSPENSIONCONTACTSPEEDFR,SUSPENSIONCONTACTSPEEDRL,SUSPENSIONCONTACTSPEEDRR,SUSPENSIONSPRINGFORCEFL,SUSPENSIONSPRINGFORCEFR,SUSPENSIONSPRINGFORCERL,SUSPENSIONSPRINGFORCERR,SUSPENSIONDAMPERFORCEFL,SUSPENSIONDAMPERFORCEFR,SUSPENSIONDAMPERFORCERL,SUSPENSIONDAMPERFORCERR,WHEELSPINFL,WHEELSPINFR,WHEELSPINRL,WHEELSPINRR,WHEELSHAFTTORQUEFL,WHEELSHAFTTORQUEFR,WHEELSHAFTTORQUERL,WHEELSHAFTTORQUERR,WHEELBRAKETORQUEFL,WHEELBRAKETORQUEFR,WHEELBRAKETORQUERL,WHEELBRAKETORQUERR,TIRESLIPLONGFL,TIRESLIPLONGFR,TIRESLIPLONGRL,TIRESLIPLONGRR,TIRESLIPLATFL,TIRESLIPLATFR,TIRESLIPLATRL,TIRESLIPLATRR,TIREFORCELONGFL,TIREFORCELONGFR,TIREFORCELONGRL,TIREFORCELONGRR,TIREFORCELATFL,TIREFORCELATFR,TIREFORCELATRL,TIREFORCELATRR
0.000000,0.000,0,0.000000,0.000000,0.000000,0.000000,0.000000,0.000000,0.000000,0.000000,0.000000,0.000000,0.000000,0.500000,0.500000,0.000000,0.000000,0.000000,0.000000,0.000000,0.000000,0.000000,0.000000,0.000000,0.000000,0.000000,0.000000,0.000000,0.000000,0.000000,0.000000,NaN,NaN,NaN,NaN,NaN,NaN,NaN,NaN,0.000000,0.000000,NaN,NaN,10.100000,0.470000,195.560000,0.030000,0.040000,0.000000,0.000000,0.224686,0.003922,0.000000,0.000000,0.000000,0.000000,0.000000,0.000000,0.000000,0.000000,0.000000,0.000000,0.000000,0.000000,0.060000,0.060000,0.070000,0.070000,0.000000,0.000000,0.000000,0.000000,0.000000,0.000000,0.000000,0.000000,0.000000,0.000000,0.000000,0.000000,0.000000,0.000000,0.000000,0.000000,0.000000,0.000000,0.000000,0.000000,0.000000,0.000000,0.000000,0.000000,0.000000,0.000000,0.000000,0.000000,0.000000,0.000000,0.000000,0.000000,0.000000,0.000000,0.000000,0.000000,0.000000,0.000000,0.000000,0.000000,0.000000,0.000000,0.000000,0.000000
0.010000,0.000,0,0.000000,0.000000,0.000000,0.000000,0.000000,0.000000,0.000000,0.000000,0.000000,0.000000,0.000000,0.500000,0.500000,0.000000,0.000000,0.000000,0.000000,0.000000,0.000000,0.000000,0.000000,0.000000,0.000000,0.000000,0.000000,0.000000,0.000000,0.000000,0.000000,NaN,NaN,NaN,NaN,NaN,NaN,NaN,NaN,0.000000,0.000000,NaN,NaN,10.100000,0.470000,195.560000,0.030000,0.040000,0.000000,0.000000,0.224686,0.003922,0.000000,0.000000,0.000000,0.000000,0.000000,0.000000,-0.000088,-9.810049,0.000000,0.000000,0.000000,0.000000,0.060000,0.060000,0.070000,0.070000,0.000000,0.000000,0.000000,0.000000,0.000000,0.000000,0.000000,0.000000,0.000000,0.000000,0.000000,0.000000,0.000000,0.000000,0.000000,0.000000,0.000000,0.000000,0.000000,0.000000,0.000000,0.000000,0.000000,0.000000,0.000000,0.000000,0.000000,0.000000,0.000000,0.000000,0.000000,0.000000,0.000000,0.000000,0.000000,0.000000,0.000000,0.000000,0.000000,0.000000,0.000000,0.000000,0.000000,0.000000
0.020000,0.000,0,0.000000,0.000000,0.000000,0.000000,0.018000,0.018000,0.000000,0.000000,0.000000,0.000000,0.000000,0.500000,0.500000,0.000000,0.000000,0.000000,0.000000,0.000000,0.000000,0.000000,0.000000,0.000000,0.000000,0.000000,0.000000,0.000000,0.000000,-0.000001,0.000000,NaN,NaN,NaN,NaN,NaN,NaN,NaN,NaN,0.000000,0.000000,NaN,NaN,10.100000,0.467842,195.560000,0.030000,0.040000,0.000000,0.000000,0.224686,0.003922,0.000000,0.000000,0.000000,0.000000,0.000000,0.000000,-0.000446,-9.810239,0.000000,0.000000,0.000000,0.000000,0.060000,0.060000,0.070000,0.070000,0.000000,0.000000,0.000000,0.000000,0.000000,0.000000,0.000000,0.000000,0.000000,0.000000,0.000000,0.000000,0.000000,0.000000,0.000000,0.000000,0.000000,0.000000,0.000000,0.000000,0.000000,0.000000,0.000000,0.000000,0.000000,0.000000,0.000000,0.000000,0.000000,0.000000,0.000000,0.000000,0.000000,0.000000,0.000000,0.000000,0.000000,0.000000,0.000000,0.000000,0.000000,0.000000,0.000000,0.000000
0.030000,0.000,0,0.000000,0.000000,0.000000,0.000000,0.018000,0.018000,0.000000,0.000000,0.000000,0.000000,0.000000,0.500000,0.500000,0.000000,0.000000,0.000000,0.000000,0.000000,0.000000,0.000000,0.000000,0.000000,0.000000,0.000000,0.000000,0.000000,0.000000,-0.000001,0.000000,NaN,NaN,NaN,NaN,NaN,NaN,NaN,NaN,0.000000,0.000000,NaN,NaN,10.100000,0.467842,195.560000,0.030000,0.040000,0.000000,0.000000,0.224686,0.003922,0.000000,0.000000,0.000000,0.000000,0.000000,0.000000,-0.001079,-9.810581,0.000000,0.000000,0.000000,0.000000,0.060000,0.060000,0.070000,0.070000,0.000000,0.000000,0.000000,0.000000,0.000000,0.000000,0.000000,0.000000,0.000000,0.000000,0.000000,0.000000,0.000000,0.000000,0.000000,0.000000,0.000000,0.000000,0.000000,0.000000,0.000000,0.000000,0.000000,0.000000,0.000000,0.000000,0.000000,0.000000,0.000000,0.000000,0.000000,0.000000,0.000000,0.000000,0.000000,0.000000,0.000000,0.000000,0.000000,0.000000,0.000000,0.000000,0.000000,0.000000
0.040000,0.000,0,0.000000,0.000000,0.000000,0.000000,0.038000,0.038000,0.000000,0.000000,0.000000,0.000000,0.000000,0.500000,0.500000,0.000000,0.000000,0.000000,0.000000,0.000000,0.000000,0.000000,0.000000,0.000000,0.000000,0.000000,0.000000,0.000000,0.000000,-0.000011,0.000000,NaN,NaN,NaN,NaN,NaN,NaN,NaN,NaN,0.000000,0.000000,NaN,NaN,10.100000,0.461759,195.560000,0.030000,0.040000,0.000000,0.000000,0.224686,0.003922,0.000000,0.000000,0.000000,0.000000,0.000000,0.000000,-0.001986,-9.811073,0.000000,0.000000,0.000000,0.000000,0.060000,0.060000,0.070000,0.070000,0.000000,0.000000,0.000000,0.000000,0.000000,0.000000,0.000000,0.000000,0.000000,0.000000,0.000000,0.000000,0.000000,0.000000,0.000000,0.000000,0.000000,0.000000,0.000000,0.000000,0.000000,0.000000,0.000000,0.000000,0.000000,0.000000,0.000000,0.000000,0.000000,0.000000,0.000000,0.000000,0.000000,0.000000,0.000000,0.000000,0.000000,0.000000,0.000000,0.000000,0.000000,0.000000,0.000000,0.000000
0.050000,0.000,0,0.000000,0.000000,0.000000,0.000000,0.038000,0.038000,0.000000,0.000000,0.000000,0.000000,0.000000,0.500000,0.500000,0.000000,0.000000,0.000000,0.000000,0.000000,0.000000,0.000000,0.000000,0.000000,0.000000,0.000000,0.000000,0.000000,0.000000,-0.000011,0.000000,NaN,NaN,NaN,NaN,NaN,NaN,NaN,NaN,0.000000,0.000000,NaN,NaN,10.100000,0.461759,195.560000,0.030000,0.040000,0.000000,0.000000,0.224670,0.003921,0.000000,0.000000,0.000000,0.000000,0.000000,0.000000,-0.003168,-9.811699,0.000000,0.000000,0.000000,0.000000,0.060000,0.060000,0.070000,0.070000,0.000000,0.000000,0.000000,0.000000,0.000000,0.000000,0.000000,0.000000,0.000000,0.000000,0.000000,0.000000,0.000000,0.000000,0.000000,0.000000,0.000000,0.000000,0.000000,0.000000,0.000000,0.000000,0.000000,0.000000,0.000000,0.000000,0.000000,0.000000,0.000000,0.000000,0.000000,0.000000,0.000000,0.000000,0.000000,0.000000,0.000000,0.000000,0.000000,0.000000,0.000000,0.000000,0.000000,0.000000
0.060000,0.000,0,0.000000,0.000000,0.000000,0.000000,0.058000,0.058000,0.000000,0.000000,0.000000,0.000000,0.000000,0.500000,0.500000,0.000000,0.000000,0.000000,0.000000,0.000000,0.000000,0.000000,0.000000,0.000000,0.000000,0.000000,0.000000,0.000000,0.000000,-0.000039,0.000000,NaN,NaN,NaN,NaN,NaN,NaN,NaN,NaN,0.000000,0.000000,NaN,NaN,10.100000,0.451752,195.560000,0.030000,0.040000,0.000000,0.000000,0.224655,0.003921,0.000000,0.000000,0.000000,0.000000,0.000000,0.000000,-0.004624,-9.812474,0.000000,0.000000,0.000000,0.000000,0.060000,0.060000,0.070000,0.070000,0.000000,0.000000,0.000000,0.000000,0.000000,0.000000,0.000000,0.000000,0.000000,0.000000,0.000000,0.000000,0.000000,0.000000,0.000000,0.000000,0.000000,0.000000,0.000000,0.000000,0.000000,0.000000,0.000000,0.000000,0.000000,0.000000,0.000000,0.000000,0.000000,0.000000,0.000000,0.000000,0.000000,0.000000,0.000000,0.000000,0.000000,0.000000,0.000000,0.000000,0.000000,0.000000,0.000000,0.000000
0.070000,0.000,0,0.000000,0.000000,0.000000,0.000000,0.058000,0.058000,0.000000,0.000000,0.000000,0.000000,0.000000,0.500000,0.500000,0.000000,0.000000,0.000000,0.000000,0.000000,0.000000,0.000000,0.000000,0.000000,0.000000,0.000000,0.000000,0.000000,0.000000,-0.000039,0.000000,NaN,NaN,NaN,NaN,NaN,NaN,NaN,NaN,0.000000,0.000000,NaN,NaN,10.100000,0.451752,195.560000,0.030000,0.040000,0.000000,0.000000,0.224625,0.003920,0.000000,0.000000,0.000000,0.000000,0.000000,0.000000,-0.006353,-9.813428,0.000000,0.000000,0.000000,0.000000,0.060000,0.060000,0.070000,0.070000,0.000000,0.000000,0.000000,0.000000,0.000000,0.000000,0.000000,0.000000,0.000000,0.000000,0.000000,0.000000,0.000000,0.000000,0.000000,0.000000,0.000000,0.000000,0.000000,0.000000,0.000000,0.000000,0.000000,0.000000,0.000000,0.000000,0.000000,0.000000,0.000000,0.000000,0.000000,0.000000,0.000000,0.000000,0.000000,0.000000,0.000000,0.000000,0.000000,0.000000,0.000000,0.000000,0.000000,0.000000
0.080000,0.000,0,0.000000,0.000000,0.000000,0.000000,0.078000,0.078000,0.000000,0.000000,0.000000,0.000000,0.000000,0.500000,0.500000,0.000000,0.000000,0.000000,0.000000,0.000000,0.000000,0.000000,0.000000,0.000000,0.000000,0.000000,0.000000,0.000000,0.000000,-0.000094,0.000000,NaN,NaN,NaN,NaN,NaN,NaN,NaN,NaN,0.000000,0.000000,NaN,NaN,10.100000,0.437818,195.560000,0.030000,0.040000,0.000000,0.000000,0.224579,0.003920,0.000000,0.000000,0.000000,0.000000,0.000000,0.000000,-0.008356,-9.814501,0.000000,0.000000,0.000000,0.000000,0.060000,0.060000,0.070000,0.070000,0.000000,0.000000,0.000000,0.000000,0.000000,0.000000,0.000000,0.000000,0.000000,0.000000,0.000000,0.000000,0.000000,0.000000,0.000000,0.000000,0.000000,0.000000,0.000000,0.000000,0.000000,0.000000,0.000000,0.000000,0.000000,0.000000,0.000000,0.000000,0.000000,0.000000,0.000000,0.000000,0.000000,0.000000,0.000000,0.000000,0.000000,0.000000,0.000000,0.000000,0.000000,0.000000,0.000000,0.000000
0.090000,0.000,0,0.000000,0.000000,0.000000,0.000000,0.078000,0.078000,0.000000,0.000000,0.000000,0.000000,0.000000,0.500000,0.500000,0.000000,0.000000,0.000000,0.000000,0.000000,0.000000,0.000000,0.000000,0.000000,0.000000,0.000000,0.000000,0.000000,0.000000,-0.000094,0.000000,NaN,NaN,NaN,NaN,NaN,NaN,NaN,NaN,0.000000,0.000000,NaN,NaN,10.100000,0.437818,195.560000,0.030000,0.040000,0.000000,0.000000,0.224510,0.003918,0.000000,0.000000,0.000000,0.000000,0.000000,0.000000,-0.010630,-9.815722,0.000000,0.000000,0.000000,0.000000,0.060000,0.060000,0.070000,0.070000,0.000000,0.000000,0.000000,0.000000,0.000000,0.000000,0.000000,0.000000,0.000000,0.000000,0.000000,0.000000,0.000000,0.000000,0.000000,0.000000,0.000000,0.000000,0.000000,0.000000,0.000000,0.000000,0.000000,0.000000,0.000000,0.000000,0.000000,0.000000,0.000000,0.000000,0.000000,0.000000,0.000000,0.000000,0.000000,0.000000,0.000000,0.000000,0.000000,0.000000,0.000000,0.000000,0.000000,0.000000
0.100000,0.000,0,0.000000,0.000000,0.000000,0.000000,0.098000,0.098000,0.000000,0.000000,0.000000,0.000000,0.000000,0.500000,0.500000,0.000000,0.000000,0.000000,0.000000,0.000000,0.000000,0.000000,0.000000,0.000000,0.000000,0.000000,0.000000,0.000000,0.000000,-0.000185,0.000000,NaN,NaN,NaN,NaN,NaN,NaN,NaN,NaN,0.000000,0.000000,NaN,NaN,10.100000,0.419957,195.560000,0.030000,0.040000,0.000000,0.000000,0.224419,0.003917,-0.000440,180.000000,0.000000,0.981239,0.000000,0.000000,-0.013176,-9.817123,0.000000,0.000000,0.000000,0.000000,0.060000,0.060000,0.070000,0.070000,0.000000,0.000000,0.000000,0.000000,0.000000,0.000000,0.000000,0.000000,0.000000,0.000000,0.000000,0.000000,0.000000,0.000000,0.000000,0.000000,0.000000,0.000000,0.000000,0.000000,0.000000,0.000000,0.000000,0.000000,0.000000,0.000000,0.000000,0.000000,0.000000,0.000000,0.000000,0.000000,0.000000,0.000000,0.000000,0.000000,0.000000,0.000000,0.000000,0.000000,0.000000,0.000000,0.000000,0.000000
0.110000,0.000,0,0.000000,0.000000,0.000000,0.000000,0.098000,0.098000,0.000000,0.000000,0.000000,0.000000,0.000000,0.500000,0.500000,0.000000,0.000000,0.000000,0.000000,0.000000,0.000000,0.000000,0.000000,0.000000,0.000000,0.000000,0.000000,0.000000,0.000000,-0.000185,0.000000,NaN,NaN,NaN,NaN,NaN,NaN,NaN,NaN,0.000000,0.000000,NaN,NaN,10.100000,0.419957,195.560000,0.030000,0.040000,0.000000,0.000000,0.224289,0.003915,-0.000440,180.000000,0.000000,0.981239,0.000000,0.000000,-0.015992,-9.818673,0.000000,0.000000,0.000000,0.000000,0.060000,0.060000,0.070000,0.070000,0.000000,0.000000,0.000000,0.000000,0.000000,0.000000,0.000000,0.000000,0.000000,0.000000,0.000000,0.000000,0.000000,0.000000,0.000000,0.000000,0.000000,0.000000,0.000000,0.000000,0.000000,0.000000,0.000000,0.000000,0.000000,0.000000,0.000000,0.000000,0.000000,0.000000,0.000000,0.000000,0.000000,0.000000,0.000000,0.000000,0.000000,0.000000,0.000000,0.000000,0.000000,0.000000,0.000000,0.000000
0.120000,0.000,0,0.000000,0.000000,0.000000,0.000000,0.118000,0.118000,0.000000,0.000000,0.000000,0.000000,0.000000,0.500000,0.500000,0.000000,0.000000,0.000000,0.000000,0.000000,0.000000,0.000000,0.000000,0.000000,0.000000,0.000000,0.000000,0.000000,0.000000,-0.000322,0.000000,NaN,NaN,NaN,NaN,NaN,NaN,NaN,NaN,0.000000,0.000000,NaN,NaN,10.100000,0.398166,195.560000,0.030000,0.040000,0.000000,0.000000,0.224121,0.003912,-0.000440,180.000000,0.000000,0.981239,0.000000,0.000000,-0.019077,-9.820342,0.000000,0.000000,0.000000,0.000000,0.060000,0.060000,0.070000,0.070000,0.000000,0.000000,0.000000,0.000000,0.000000,0.000000,0.000000,0.000000,0.000000,0.000000,0.000000,0.000000,0.000000,0.000000,0.000000,0.000000,0.000000,0.000000,0.000000,0.000000,0.000000,0.000000,0.000000,0.000000,0.000000,0.000000,0.000000,0.000000,0.000000,0.000000,0.000000,0.000000,0.000000,0.000000,0.000000,0.000000,0.000000,0.000000,0.000000,0.000000,0.000000,0.000000,0.000000,0.000000
0.130000,0.000,0,0.000000,0.000000,0.000000,0.000000,0.118000,0.118000,0.000000,0.000000,0.000000,0.000000,0.000000,0.500000,0.500000,0.000000,0.000000,0.000000,0.000000,0.000000,0.000000,0.000000,0.000000,0.000000,0.000000,0.000000,0.000000,0.000000,0.000000,-0.000322,0.000000,NaN,NaN,NaN,NaN,NaN,NaN,NaN,NaN,0.000000,0.000000,NaN,NaN,10.100000,0.398166,195.560000,0.030000,0.040000,0.000000,0.000000,0.223908,0.003908,-0.000440,180.000000,0.000000,0.981239,0.000000,0.000000,-0.022431,-9.822130,0.000000,0.000000,0.000000,0.000000,0.060000,0.060000,0.070000,0.070000,0.000000,0.000000,0.000000,0.000000,0.000000,0.000000,0.000000,0.000000,0.000000,0.000000,0.000000,0.000000,0.000000,0.000000,0.000000,0.000000,0.000000,0.000000,0.000000,0.000000,0.000000,0.000000,0.000000,0.000000,0.000000,0.000000,0.000000,0.000000,0.000000,0.000000,0.000000,0.000000,0.000000,0.000000,0.000000,0.000000,0.000000,0.000000,0.000000,0.000000,0.000000,0.000000,0.000000,0.000000
0.140000,0.000,0,0.000015,0.000015,0.000015,0.000015,0.138000,0.138000,0.000000,0.000000,0.000000,0.000000,0.000000,0.500000,0.500000,0.000000,0.000000,0.000000,0.000000,0.000000,0.000000,0.000000,0.000000,0.000000,0.000000,0.000000,0.000000,0.000000,0.000000,-0.000514,0.000000,NaN,NaN,NaN,NaN,NaN,NaN,NaN,NaN,0.000015,0.000015,NaN,NaN,10.100000,0.372442,195.560000,0.030000,0.040000,0.000000,0.000000,0.223640,0.003903,-0.000440,180.000000,0.000000,0.981239,0.000000,0.000000,-0.026052,-9.824158,0.000000,0.000000,0.000000,0.000000,0.060000,0.060000,0.070000,0.070000,0.000000,0.000000,0.000000,0.000000,0.000000,0.000000,0.000000,0.000000,0.000000,0.000000,0.000000,0.000000,0.000000,0.000000,0.000000,0.000000,0.000000,0.000000,0.000000,0.000000,0.000000,0.000000,0.000000,0.000000,0.000000,0.000000,0.000000,0.000000,0.000000,0.000000,0.000000,0.000000,0.000000,0.000000,0.000000,0.000000,0.000000,0.000000,0.000000,0.000000,0.000000,0.000000,0.000000,0.000000
0.150000,0.000,0,0.000015,0.000015,0.000015,0.000015,0.138000,0.138000,0.000000,0.000000,0.000000,0.000000,0.000000,0.500000,0.500000,0.000000,0.000000,0.000000,0.000000,0.000000,0.000000,0.000000,0.000000,0.000000,0.000000,0.000000,0.000000,0.000000,0.000000,-0.000514,0.000000,NaN,NaN,NaN,NaN,NaN,NaN,NaN,NaN,0.000015,0.000015,NaN,NaN,10.100000,0.372442,195.560000,0.030000,0.040000,0.000000,0.000000,0.223305,0.003897,-0.000440,180.000000,0.000000,0.981239,0.000000,0.000000,-0.029938,-9.826184,0.000000,0.000000,0.000000,0.000000,0.060000,0.060000,0.070000,0.070000,0.000000,0.000000,0.000000,0.000000,0.000000,0.000000,0.000000,0.000000,0.000000,0.000000,0.000000,0.000000,0.000000,0.000000,0.000000,0.000000,0.000000,0.000000,0.000000,0.000000,0.000000,0.000000,0.000000,0.000000,0.000000,0.000000,0.000000,0.000000,0.000000,0.000000,0.000000,0.000000,0.000000,0.000000,0.000000,0.000000,0.000000,0.000000,0.000000,0.000000,0.000000,0.000000,0.000000,0.000000
0.160000,0.000,0,0.000015,0.000015,0.000015,0.000015,0.158000,0.158000,0.000000,0.000000,0.000000,0.000000,0.000000,0.500000,0.500000,0.000000,0.000000,0.000000,0.000000,0.000000,0.000000,0.000000,0.000000,0.000000,0.000000,0.000000,0.000000,0.000000,0.000000,-0.000769,0.000000,NaN,NaN,NaN,NaN,NaN,NaN,NaN,NaN,0.000015,0.000015,NaN,NaN,10.100000,0.342783,195.560000,0.030000,0.040000,0.000000,0.000000,0.222893,0.003890,-0.000440,180.000000,0.000000,0.981239,0.000000,0.000000,-0.034089,-9.828568,0.000000,0.000000,0.000000,0.000000,0.060000,0.060000,0.070000,0.070000,0.000000,0.000000,0.000000,0.000000,0.000000,0.000000,0.000000,0.000000,0.000000,0.000000,0.000000,0.000000,0.000000,0.000000,0.000000,0.000000,0.000000,0.000000,0.000000,0.000000,0.000000,0.000000,0.000000,0.000000,0.000000,0.000000,0.000000,0.000000,0.000000,0.000000,0.000000,0.000000,0.000000,0.000000,0.000000,0.000000,0.000000,0.000000,0.000000,0.000000,0.000000,0.000000,0.000000,0.000000
0.170000,0.000,0,0.000015,0.000015,0.000015,0.000015,0.158000,0.158000,0.000000,0.000000,0.000000,0.000000,0.000000,0.500000,0.500000,0.000000,0.000000,0.000000,0.000000,0.000000,0.000000,0.000000,0.000000,0.000000,0.000000,0.000000,0.000000,0.000000,0.000000,-0.000769,0.000000,NaN,NaN,NaN,NaN,NaN,NaN,NaN,NaN,0.000015,0.000015,NaN,NaN,10.100000,0.342783,195.560000,0.030000,0.040000,0.000000,0.000000,0.222405,0.003882,-0.000440,180.000000,0.000000,0.981239,0.000000,0.000000,-0.038503,-9.830954,0.000000,0.000000,0.000000,0.000000,0.060000,0.060000,0.070000,0.070000,0.000000,0.000000,0.000000,0.000000,0.000000,0.000000,0.000000,0.000000,0.000000,0.000000,0.000000,0.000000,0.000000,0.000000,0.000000,0.000000,0.000000,0.000000,0.000000,0.000000,0.000000,0.000000,0.000000,0.000000,0.000000,0.000000,0.000000,0.000000,0.000000,0.000000,0.000000,0.000000,0.000000,0.000000,0.000000,0.000000,0.000000,0.000000,0.000000,0.000000,0.000000,0.000000,0.000000,0.000000
0.180000,0.000,0,0.000031,0.000031,0.000031,0.000031,0.177999,0.177999,0.000000,0.000000,0.000000,0.000000,0.000000,0.500000,0.500000,0.000000,0.000000,0.000000,0.000000,0.000000,0.000000,0.000000,0.000000,0.000000,0.000000,0.000000,0.000000,0.000000,0.000000,-0.001098,0.000000,NaN,NaN,NaN,NaN,NaN,NaN,NaN,NaN,0.000031,0.000031,NaN,NaN,10.100000,0.309185,195.560000,0.030000,0.040000,0.000000,0.000000,0.221809,0.003871,-0.000440,180.000000,0.000000,0.981239,0.000000,0.000000,-0.043178,-9.833457,0.000000,0.000000,0.000000,0.000000,0.060000,0.060000,0.070000,0.070000,0.000000,0.000000,0.000000,0.000000,0.000000,0.000000,0.000000,0.000000,0.000000,0.000000,0.000000,0.000000,0.000000,0.000000,0.000000,0.000000,0.000000,0.000000,0.000000,0.000000,0.000000,0.000000,0.000000,0.000000,0.000000,0.000000,0.000000,0.000000,0.000000,0.000000,0.000000,0.000000,0.000000,0.000000,0.000000,0.000000,0.000000,0.000000,0.000000,0.000000,0.000000,0.000000,0.000000,0.000000
0.190000,0.000,0,0.000031,0.000031,0.000031,0.000031,0.177999,0.177999,0.000000,0.000000,0.000000,0.000000,0.000000,0.500000,0.500000,0.000000,0.000000,0.000000,0.000000,0.000000,0.000000,0.000000,0.000000,0.000000,0.000000,0.000000,0.000000,0.000000,0.000000,-0.001098,0.000000,NaN,NaN,NaN,NaN,NaN,NaN,NaN,NaN,0.000031,0.000031,NaN,NaN,10.100000,0.309185,195.560000,0.030000,0.040000,0.000000,0.000000,0.221115,0.003859,-0.000440,180.000000,0.000000,0.981239,0.000000,0.000000,-0.048112,-9.836200,0.000000,0.000000,0.000000,0.000000,0.060000,0.060000,0.070000,0.070000,0.000000,0.000000,0.000000,0.000000,0.000000,0.000000,0.000000,0.000000,0.000000,0.000000,0.000000,0.000000,0.000000,0.000000,0.000000,0.000000,0.000000,0.000000,0.000000,0.000000,0.000000,0.000000,0.000000,0.000000,0.000000,0.000000,0.000000,0.000000,0.000000,0.000000,0.000000,0.000000,0.000000,0.000000,0.000000,0.000000,0.000000,0.000000,0.000000,0.000000,0.000000,0.000000,0.000000,0.000000
0.200000,0.000,0,0.000046,0.000046,0.000046,0.000046,0.197999,0.197999,0.000000,0.000000,0.000000,0.000000,0.000000,0.500000,0.500000,0.000000,0.000000,0.000000,0.000000,0.000000,0.000000,0.000000,0.000000,0.000000,0.000000,0.000000,0.000000,0.000000,0.000000,-0.001508,0.000000,NaN,NaN,NaN,NaN,NaN,NaN,NaN,NaN,0.000046,0.000046,NaN,NaN,10.100000,0.271644,195.560000,0.030000,0.040000,0.000000,0.000000,0.220306,0.003845,-0.003469,180.000000,0.000000,1.963949,0.000000,0.000000,-0.053305,-9.839062,0.000000,0.000000,0.000000,0.000000,0.060000,0.060000,0.070000,0.070000,0.000000,0.000000,0.000000,0.000000,0.000000,0.000000,0.000000,0.000000,0.000000,0.000000,0.000000,0.000000,0.000000,0.000000,0.000000,0.000000,0.000000,0.000000,0.000000,0.000000,0.000000,0.000000,0.000000,0.000000,0.000000,0.000000,0.000000,0.000000,0.000000,0.000000,0.000000,0.000000,0.000000,0.000000,0.000000,0.000000,0.000000,0.000000,0.000000,0.000000,0.000000,0.000000,0.000000,0.000000
0.210000,0.000,0,0.000046,0.000046,0.000046,0.000046,0.197999,0.197999,0.000000,0.000000,0.000000,0.000000,0.000000,0.500000,0.500000,0.000000,0.000000,0.000000,0.000000,0.000000,0.000000,0.000000,0.000000,0.000000,0.000000,0.000000,0.000000,0.000000,0.000000,-0.001508,0.000000,NaN,NaN,NaN,NaN,NaN,NaN,NaN,NaN,0.000046,0.000046,NaN,NaN,10.100000,0.271644,195.560000,0.030000,0.040000,0.000000,0.000000,0.219353,0.003828,-0.003469,180.000000,0.000000,1.963949,0.000000,0.000000,-0.058753,-9.842044,0.000000,0.000000,0.000000,0.000000,0.060000,0.060000,0.070000,0.070000,0.000000,0.000000,0.000000,0.000000,0.000000,0.000000,0.000000,0.000000,0.000000,0.000000,0.000000,0.000000,0.000000,0.000000,0.000000,0.000000,0.000000,0.000000,0.000000,0.000000,0.000000,0.000000,0.000000,0.000000,0.000000,0.000000,0.000000,0.000000,0.000000,0.000000,0.000000,0.000000,0.000000,0.000000,0.000000,0.000000,0.000000,0.000000,0.000000,0.000000,0.000000,0.000000,0.000000,0.000000
0.220000,0.000,0,0.000168,0.000168,0.000168,0.000168,0.217996,0.217996,0.000000,0.000000,0.000000,0.000000,0.000000,0.500000,0.500000,0.000000,0.000000,0.000000,0.000000,0.000000,0.000000,0.000000,0.000000,0.000000,0.000000,0.000000,0.000000,0.000000,0.000000,-0.002010,0.000000,NaN,NaN,NaN,NaN,NaN,NaN,NaN,NaN,0.000183,0.000183,NaN,NaN,10.100000,0.230155,195.560200,0.030000,0.040000,0.000000,0.000000,0.218269,0.003810,-0.003469,180.000000,0.000000,1.963949,0.000000,0.000000,-0.064455,-9.845145,0.000000,0.000000,0.000000,0.000000,0.060000,0.060000,0.070000,0.070000,0.000000,0.000000,0.000000,0.000000,0.000000,0.000000,0.000000,0.000000,0.000000,0.000000,0.000000,0.000000,0.000000,0.000000,0.000000,0.000000,0.000000,0.000000,0.000000,0.000000,0.000000,0.000000,0.000000,0.000000,0.000000,0.000000,0.000000,0.000000,0.000000,0.000000,0.000000,0.000000,0.000000,0.000000,0.000000,0.000000,0.000000,0.000000,0.000000,0.000000,0.000000,0.000000,0.000000,0.000000
0.230000,0.000,0,0.000168,0.000168,0.000168,0.000168,0.217996,0.217996,0.000000,0.000000,0.000000,0.000000,0.000000,0.500000,0.500000,0.000000,0.000000,0.000000,0.000000,0.000000,0.000000,0.000000,0.000000,0.000000,0.000000,0.000000,0.000000,0.000000,0.000000,-0.002010,0.000000,NaN,NaN,NaN,NaN,NaN,NaN,NaN,NaN,0.000183,0.000183,NaN,NaN,10.100000,0.230155,195.560200,0.030000,0.040000,0.000000,0.000000,0.217018,0.003788,-0.003469,180.000000,0.000000,1.963949,0.000000,0.000000,-0.070409,-9.848485,0.000000,0.000000,0.000000,0.000000,0.060000,0.060000,0.070000,0.070000,0.000000,0.000000,0.000000,0.000000,0.000000,0.000000,0.000000,0.000000,0.000000,0.000000,0.000000,0.000000,0.000000,0.000000,0.000000,0.000000,0.000000,0.000000,0.000000,0.000000,0.000000,0.000000,0.000000,0.000000,0.000000,0.000000,0.000000,0.000000,0.000000,0.000000,0.000000,0.000000,0.000000,0.000000,0.000000,0.000000,0.000000,0.000000,0.000000,0.000000,0.000000,0.000000,0.000000,0.000000
0.240000,0.000,0,0.000336,0.000336,0.000336,0.000336,0.237992,0.237991,0.000000,0.000000,0.000000,0.000000,0.000000,0.500000,0.500000,0.000000,0.000000,0.000000,0.000000,0.000000,0.000000,0.000000,0.000000,0.000000,0.000000,0.000000,0.000000,0.000000,0.000000,-0.002613,0.000000,NaN,NaN,NaN,NaN,NaN,NaN,NaN,NaN,0.000366,0.000366,NaN,NaN,10.100000,0.184715,195.560400,0.030000,0.040000,0.000000,0.000000,0.215591,0.003763,-0.003469,180.000000,0.000000,1.963949,0.000000,0.000000,-0.076613,-9.851945,0.000000,0.000000,0.000000,0.000000,0.060000,0.060000,0.070000,0.070000,0.000000,0.000000,0.000000,0.000000,0.000000,0.000000,0.000000,0.000000,0.000000,0.000000,0.000000,0.000000,0.000000,0.000000,0.000000,0.000000,0.000000,0.000000,0.000000,0.000000,0.000000,0.000000,0.000000,0.000000,0.000000,0.000000,0.000000,0.000000,0.000000,0.000000,0.000000,0.000000,0.000000,0.000000,0.000000,0.000000,0.000000,0.000000,0.000000,0.000000,0.000000,0.000000,0.000000,0.000000
0.250000,0.000,0,0.000336,0.000336,0.000336,0.000336,0.237992,0.237991,0.000000,0.000000,0.000000,0.000000,0.000000,0.500000,0.500000,0.000000,0.000000,0.000000,0.000000,0.000000,0.000000,0.000000,0.000000,0.000000,0.000000,0.000000,0.000000,0.000000,0.000000,-0.002613,0.000000,NaN,NaN,NaN,NaN,NaN,NaN,NaN,NaN,0.000366,0.000366,NaN,NaN,10.100000,0.184715,195.560400,0.030000,0.040000,0.000000,0.000000,0.213982,0.003735,-0.003469,180.000000,0.000000,1.963949,0.000000,0.000000,-0.083065,-9.855524,0.000000,0.000000,0.000000,0.000000,0.060000,0.060000,0.070000,0.070000,0.000000,0.000000,0.000000,0.000000,0.000000,0.000000,0.000000,0.000000,0.000000,0.000000,0.000000,0.000000,0.000000,0.000000,0.000000,0.000000,0.000000,0.000000,0.000000,0.000000,0.000000,0.000000,0.000000,0.000000,0.000000,0.000000,0.000000,0.000000,0.000000,0.000000,0.000000,0.000000,0.000000,0.000000,0.000000,0.000000,0.000000,0.000000,0.000000,0.000000,0.000000,0.000000,0.000000,0.000000
0.260000,0.001,0,0.000534,0.000534,0.000534,0.000534,0.257987,0.257986,0.000000,0.000000,0.000000,0.000000,0.000000,0.500000,0.500000,0.000000,0.000000,0.000000,0.000000,0.000000,0.000000,0.000000,0.000000,0.000000,0.000000,0.000000,0.000000,0.000000,0.000000,-0.003326,0.000000,NaN,NaN,NaN,NaN,NaN,NaN,NaN,NaN,0.000549,0.000549,NaN,NaN,10.100000,0.135316,195.560600,0.030000,0.040000,0.000000,0.000000,0.212166,0.003703,-0.003469,180.000000,0.000000,1.963949,0.000000,0.000000,-0.089761,-9.859344,0.000000,0.000000,0.000000,0.000000,0.060000,0.060000,0.070000,0.070000,0.000000,0.000000,0.000000,0.000000,0.000000,0.000000,0.000000,0.000000,0.000000,0.000000,0.000000,0.000000,0.000000,0.000000,0.000000,0.000000,0.000000,0.000000,0.000000,0.000000,0.000000,0.000000,0.000000,0.000000,0.000000,0.000000,0.000000,0.000000,0.000000,0.000000,0.000000,0.000000,0.000000,0.000000,0.000000,0.000000,0.000000,0.000000,0.000000,0.000000,0.000000,0.000000,0.000000,0.000000
0.270000,0.001,0,0.000534,0.000534,0.000534,0.000534,0.257987,0.257986,0.000000,0.000000,0.000000,0.000000,0.000000,0.500000,0.500000,0.000000,0.000000,0.000000,0.000000,0.000000,0.000000,0.000000,0.000000,0.000000,0.000000,0.000000,0.000000,0.000000,0.000000,-0.003326,0.000000,NaN,NaN,NaN,NaN,NaN,NaN,NaN,NaN,0.000549,0.000549,NaN,NaN,10.100000,0.135316,195.560600,0.030000,0.040000,0.000000,0.000000,0.210121,0.003667,-0.003469,180.000000,0.000000,1.963949,0.000000,0.000000,-0.096700,-9.863401,0.000000,0.000000,0.000000,0.000000,0.060000,0.060000,0.070000,0.070000,0.000000,0.000000,0.000000,0.000000,0.000000,0.000000,0.000000,0.000000,0.000000,0.000000,0.000000,0.000000,0.000000,0.000000,0.000000,0.000000,0.000000,0.000000,0.000000,0.000000,0.000000,0.000000,0.000000,0.000000,0.000000,0.000000,0.000000,0.000000,0.000000,0.000000,0.000000,0.000000,0.000000,0.000000,0.000000,0.000000,0.000000,0.000000,0.000000,0.000000,0.000000,0.000000,0.000000,0.000000
0.280000,0.001,0,0.000717,0.000717,0.000717,0.000717,0.277983,0.277982,0.000000,0.000000,0.000000,0.000000,0.000000,0.500000,0.500000,0.000000,0.000000,0.000000,0.000000,0.000000,0.000000,0.000000,0.000000,0.000000,0.000000,0.000000,0.000000,0.000000,0.000000,-0.004159,0.000000,NaN,NaN,NaN,NaN,NaN,NaN,NaN,NaN,0.000732,0.000732,NaN,NaN,10.100000,0.081954,195.560800,0.030000,0.040000,0.000000,0.000000,0.207840,0.003628,-0.003469,180.000000,0.000000,1.963949,0.000000,0.000000,-0.103879,-9.867460,0.000000,0.000000,0.000000,0.000000,0.060000,0.060000,0.070000,0.070000,0.000000,0.000000,0.000000,0.000000,0.000000,0.000000,0.000000,0.000000,0.000000,0.000000,0.000000,0.000000,0.000000,0.000000,0.000000,0.000000,0.000000,0.000000,0.000000,0.000000,0.000000,0.000000,0.000000,0.000000,0.000000,0.000000,0.000000,0.000000,0.000000,0.000000,0.000000,0.000000,0.000000,0.000000,0.000000,0.000000,0.000000,0.000000,0.000000,0.000000,0.000000,0.000000,0.000000,0.000000
0.290000,0.001,0,0.000717,0.000717,0.000717,0.000717,0.277983,0.277982,0.000000,0.000000,0.000000,0.000000,0.000000,0.500000,0.500000,0.000000,0.000000,0.000000,0.000000,0.000000,0.000000,0.000000,0.000000,0.000000,0.000000,0.000000,0.000000,0.000000,0.000000,-0.004159,0.000000,NaN,NaN,NaN,NaN,NaN,NaN,NaN,NaN,0.000732,0.000732,NaN,NaN,10.100000,0.081954,195.560800,0.030000,0.040000,0.000000,0.000000,0.205292,0.003583,-0.003469,180.000000,0.000000,1.963949,0.000000,0.000000,-0.111296,-9.871640,0.000000,0.000000,0.000000,0.000000,0.060000,0.060000,0.070000,0.070000,0.000000,0.000000,0.000000,0.000000,0.000000,0.000000,0.000000,0.000000,0.000000,0.000000,0.000000,0.000000,0.000000,0.000000,0.000000,0.000000,0.000000,0.000000,0.000000,0.000000,0.000000,0.000000,0.000000,0.000000,0.000000,0.000000,0.000000,0.000000,0.000000,0.000000,0.000000,0.000000,0.000000,0.000000,0.000000,0.000000,0.000000,0.000000,0.000000,0.000000,0.000000,0.000000,0.000000,0.000000
0.300000,0.001,0,0.000946,0.000946,0.000946,0.000946,0.297977,0.297976,0.000000,-7.717000,0.000000,0.000000,0.000000,0.500000,0.000000,0.000000,0.000000,0.000000,0.000000,0.000000,4.198000,0.000000,0.000000,0.000000,0.000000,0.000000,0.000000,0.000000,0.000000,-0.030494,0.000000,NaN,NaN,0.001012,0.001012,NaN,NaN,0.000000,0.000000,0.000992,0.000992,NaN,NaN,10.100000,0.024588,195.561100,0.030000,0.031584,0.000000,0.000000,0.010239,0.000179,-0.010495,180.000000,0.000000,2.934018,0.000000,0.000000,0.129712,-2.674045,0.000000,0.000000,10111.420000,10111.420000,0.060000,0.060000,0.061584,0.061584,0.000000,0.000000,0.008416,0.008416,0.000000,0.000000,2.889067,2.889067,0.000000,0.000000,1430.756000,1430.756000,0.000000,0.000000,8667.199000,8667.199000,0.000000,0.000000,-0.029815,-0.029815,0.000000,0.000000,6.989420,6.989420,0.000000,0.000000,0.000000,0.000000,0.000000,0.000000,0.000000,0.000000,0.000000,0.000000,0.000000,0.000000,0.000000,0.000000,105.889000,105.889000,0.000000,0.000000,0.000000,0.000000
0.310000,0.002,0,0.000946,0.000946,0.000946,0.000946,0.297977,0.297976,0.000000,-7.717000,0.000000,0.000000,0.000000,0.500000,0.000000,0.000000,0.000000,0.000000,0.000000,0.000000,4.198000,0.000000,0.000000,0.000000,0.000000,0.000000,0.000000,0.000000,0.000000,-0.030494,0.000000,NaN,NaN,0.001012,0.001012,NaN,NaN,0.000000,0.000000,0.000992,0.000992,NaN,NaN,10.100000,0.024588,195.561100,0.000658,0.003992,0.000000,0.000000,0.000000,0.000000,-0.010495,180.000000,0.000000,2.934018,0.000000,0.000000,0.259071,27.609950,13661.420000,13661.420000,14143.930000,14143.930000,0.030658,0.030658,0.033991,0.033991,0.029342,0.029342,0.036009,0.036009,2.904713,2.904713,2.660021,2.660021,4988.059000,4988.059000,6121.442000,6121.442000,8714.132000,8714.132000,7980.057000,7980.057000,-0.062075,-0.062075,-0.062076,-0.062076,0.000000,0.000000,0.528047,0.528047,0.000000,0.000000,0.000000,0.000000,0.000000,0.000000,0.000000,0.000000,0.000357,-0.000357,0.000000,0.000000,7.773476,7.773476,9.533755,9.533755,-124.451700,124.451700,0.000000,0.000000
0.320000,0.002,0,0.002014,0.002014,0.002014,0.002014,0.317951,0.317948,0.000000,-7.449000,0.000000,0.000000,0.000000,0.500000,0.000000,0.000000,0.000000,0.000000,0.000000,0.000000,-3.332000,0.000000,0.000000,0.000000,0.000000,0.000000,0.000000,0.000000,0.000000,-0.074584,0.000000,0.000000,0.000000,-0.000576,-0.000576,0.195675,-0.195675,0.000000,0.000000,0.002121,0.002121,NaN,NaN,10.100000,-0.031222,195.562200,-0.026480,-0.020802,0.000000,0.000000,0.000000,0.000000,-0.010495,180.000000,0.000000,2.934018,0.000000,0.000000,0.233621,42.311460,21216.140000,21216.140000,17445.730000,17445.730000,0.003520,0.003520,0.009198,0.009198,0.056480,0.056480,0.060802,0.060802,2.549037,2.549037,2.358839,2.358839,9601.579000,9601.579000,10336.250000,10336.250000,7647.092000,7647.092000,7076.499000,7076.499000,-0.044796,-0.044796,-0.044797,-0.044797,0.000000,0.000000,-4.986832,-4.986832,0.000000,0.000000,0.000000,0.000000,0.000000,0.000000,0.000000,0.000000,0.000258,-0.000258,0.000000,0.000000,-52.907120,-52.907120,-69.530750,-69.530750,-139.474900,139.474900,0.000000,0.000000
0.330000,0.005,0,0.002014,0.002014,0.002014,0.002014,0.317951,0.317948,0.000000,-7.449000,0.000000,0.000000,0.000000,0.500000,0.000000,0.000000,0.000000,0.000000,0.000000,0.000000,-3.332000,0.000000,0.000000,0.000000,0.000000,0.000000,0.000000,0.000000,0.000000,-0.074584,0.000000,0.000000,0.000000,-0.000576,-0.000576,0.195675,-0.195675,0.000000,0.000000,0.002121,0.002121,NaN,NaN,10.100000,-0.031222,195.562200,-0.029154,-0.030078,0.000000,0.000000,0.000000,0.000000,-0.010495,180.000000,0.000000,2.934018,0.000000,0.004154,-0.666982,26.727320,15288.540000,15288.330000,11786.250000,11786.070000,0.000846,0.000846,-0.000078,-0.000078,0.059154,0.059154,0.070078,0.070078,-0.216514,-0.216574,-0.031635,-0.031695,10056.150000,10056.120000,11900.000000,11900.000000,-649.541500,-649.720300,-94.905490,-95.084300,0.030405,0.030402,0.030406,0.030403,0.000000,0.000000,7.304431,7.312819,0.000000,0.000000,0.000000,0.000000,0.000000,0.000000,0.000000,0.000000,-0.000142,0.000208,0.000028,0.000028,-32.417350,-32.394970,-8.068422,-8.020813,55.336980,-81.091450,-8.385465,-8.385339
0.340000,0.005,0,0.004900,0.004900,0.004900,0.004900,0.337881,0.337874,0.000000,9.727000,0.000000,0.000000,0.000000,0.500000,0.000000,0.000000,0.000000,0.000000,0.000000,0.000000,-1.755000,0.000000,0.000000,0.000000,0.000000,0.000000,-18.907950,-0.005812,-0.003566,0.114717,0.277286,0.000000,0.000000,-0.000286,-0.000540,-20.789420,-21.422440,-19.719560,-20.395940,0.005068,0.005068,NaN,NaN,10.100280,-0.024257,195.560400,-0.025097,-0.028593,-0.019782,-0.019782,0.000000,0.000000,-0.010495,180.000000,0.000000,2.934018,0.000000,-29.397640,-0.227844,22.022120,12149.040000,13204.070000,10365.940000,11493.230000,0.005181,0.004624,0.001685,0.001129,0.054819,0.055376,0.068315,0.068871,-0.713482,-0.325263,-0.420958,-0.032738,9303.978000,9429.258000,11613.520000,11708.130000,-2140.445000,-975.786600,-1262.872000,-98.213460,0.046261,0.052074,0.047385,0.050951,0.000000,0.000000,-13.445540,5.462414,0.000000,0.000000,0.000000,0.000000,0.000000,0.000000,0.000000,0.000000,-0.195393,-0.194827,-0.188628,-0.188628,20.429200,-50.985870,-33.832440,-23.335450,10875.280000,11768.940000,9379.585000,10322.960000
0.350000,0.007,0,0.004900,0.004900,0.004900,0.004900,0.337881,0.337874,0.000000,9.727000,0.000000,0.000000,0.000000,0.500000,0.000000,0.000000,0.000000,0.000000,0.000000,0.000000,-1.755000,0.000000,0.000000,0.000000,0.000000,0.000000,-18.907950,-0.005812,-0.003566,0.114717,0.277286,0.000000,0.000000,-0.000286,-0.000540,-20.789420,-21.422440,-19.719560,-20.395940,0.005068,0.005068,NaN,NaN,10.100280,-0.024257,195.560400,-0.018622,-0.025149,-0.034264,-0.039565,0.000000,0.000000,-0.010495,180.000000,0.000000,2.934018,0.000000,24.553670,-0.028193,16.050290,9393.115000,9447.511000,9902.546000,9610.546000,0.011829,0.010927,0.005302,0.004400,0.048171,0.049073,0.064698,0.065600,-0.634044,-0.801489,-0.338793,-0.506252,8167.228000,8364.560000,10998.540000,11151.980000,-1902.126000,-2404.458000,-1016.375000,-1518.751000,0.048910,0.048929,0.048493,0.049349,0.000000,0.000000,-8.064033,4.238070,0.000000,0.000000,0.000000,0.000000,0.000000,0.000000,0.000000,0.000000,0.072462,0.073025,0.074301,0.074301,5.285262,16.337050,-13.501280,14.341900,-8571.587000,-8616.624000,-8994.020000,-8751.707000
0.360000,0.008,0,0.007417,0.007417,0.007417,0.007417,0.357819,0.357810,0.000000,4.646000,0.000000,0.000000,0.000000,0.500000,0.000000,0.000000,0.000000,0.000000,0.000000,0.000000,0.997000,0.000000,0.000000,0.000000,0.000000,0.000000,-9.214954,0.003525,0.004591,0.077064,0.115566,0.000000,0.000000,-0.001330,0.001797,-16.976900,-17.518910,-18.284200,-18.684740,0.007584,0.007584,NaN,NaN,10.100900,-0.009384,195.559500,-0.010839,-0.019796,-0.059347,-0.059347,0.000000,0.000000,-0.010495,180.000000,0.000000,2.934018,0.000000,-19.410570,0.035966,9.748119,5794.835000,6698.183000,7973.667000,8641.232000,0.019858,0.018463,0.010902,0.009506,0.040142,0.041537,0.059098,0.060494,-0.885352,-0.723585,-0.688821,-0.527054,6796.005000,7090.278000,10046.670000,10283.940000,-2656.040000,-2170.742000,-2066.449000,-1581.152000,0.029953,0.026428,0.030486,0.025895,0.000000,0.000000,-4.728472,4.486482,0.000000,0.000000,0.000000,0.000000,0.000000,0.000000,0.000000,0.000000,-0.092761,-0.092436,-0.100950,-0.100950,12.905900,56.119380,-15.761570,77.027700,5610.814000,6354.518000,7401.406000,7950.638000
0.370000,0.008,0,0.007417,0.007417,0.007417,0.007417,0.357819,0.357810,0.000000,4.646000,0.000000,0.000000,0.000000,0.500000,0.000000,0.000000,0.000000,0.000000,0.000000,0.000000,0.997000,0.000000,0.000000,0.000000,0.000000,0.000000,-9.214954,0.003525,0.004591,0.077064,0.115566,0.000000,0.000000,-0.001330,0.001797,-16.976900,-17.518910,-18.284200,-18.684740,0.007584,0.007584,NaN,NaN,10.100900,-0.009384,195.559500,-0.002772,-0.012741,-0.034264,-0.034264,0.000000,0.000000,-0.010495,180.000000,0.000000,2.934018,0.000000,14.530040,0.153600,4.013673,3715.184000,3564.084000,6826.380000,6499.134000,0.027617,0.026840,0.017648,0.016871,0.032383,0.033160,0.052352,0.053129,-0.711367,-0.884041,-0.679508,-0.852197,5492.514000,5650.080000,8899.773000,9031.869000,-2134.083000,-2652.103000,-2038.507000,-2556.572000,-0.009428,-0.002563,-0.009777,-0.002215,0.000000,0.000000,-1.122499,8.282368,0.000000,0.000000,0.000000,0.000000,0.000000,0.000000,0.000000,0.000000,0.060599,0.060530,0.074319,0.074319,86.426100,7.122826,87.152530,27.607890,-3852.914000,-3720.165000,-6459.762000,-6191.012000
0.380000,0.009,0,0.008813,0.008813,0.008813,0.008813,0.377785,0.377774,0.000000,-9.214000,0.000000,0.000000,0.000000,0.500000,0.000000,0.000000,0.000000,0.000000,0.000000,0.000000,2.325000,0.000000,0.000000,0.000000,0.000000,0.000000,14.341600,0.006733,0.007181,-0.057667,0.036273,0.000000,0.000000,-0.000913,0.002638,-12.719840,-13.200070,-16.393150,-16.529590,0.008923,0.008923,NaN,NaN,10.100850,0.006432,195.559700,0.004829,-0.004367,-0.019782,-0.019782,0.000000,0.000000,-0.010495,180.000000,0.000000,2.934018,0.000000,-10.370730,0.205240,-0.480035,1944.146000,2182.644000,4821.909000,5049.316000,0.035102,0.034557,0.025906,0.025361,0.024898,0.025443,0.044094,0.044639,-0.755742,-0.705048,-0.902757,-0.852063,4225.892000,4332.171000,7495.987000,7588.550000,-2267.211000,-2115.131000,-2708.253000,-2556.173000,-0.039896,-0.046629,-0.039673,-0.046854,0.000000,0.000000,10.404920,-3.936682,0.000000,0.000000,0.000000,0.000000,0.000000,0.000000,0.000000,0.000000,-0.038671,-0.039169,-0.051979,-0.051979,-1.505875,88.726230,30.112150,78.669860,1916.522000,2179.341000,4800.538000,4991.280000
0.390000,0.010,0,0.008813,0.008813,0.008813,0.008813,0.377785,0.377774,0.000000,-9.214000,0.000000,0.000000,0.000000,0.500000,0.000000,0.000000,0.000000,0.000000,0.000000,0.000000,2.325000,0.000000,0.000000,0.000000,0.000000,0.000000,14.341600,0.006733,0.007181,-0.057667,0.036273,0.000000,0.000000,-0.000913,0.002638,-12.719840,-13.200070,-16.393150,-16.529590,0.008923,0.008923,NaN,NaN,10.100850,0.006432,195.559700,0.011616,0.004765,0.000000,0.000000,0.000000,0.000000,-0.010495,180.000000,0.000000,2.934018,0.000000,5.907300,0.161161,-3.997563,1257.450000,1042.109000,3361.624000,3142.562000,0.041637,0.041595,0.034786,0.034743,0.018363,0.018405,0.035214,0.035257,-0.600010,-0.685140,-0.886634,-0.971720,3121.256000,3129.290000,5986.351000,5993.611000,-1800.024000,-2055.414000,-2659.892000,-2915.148000,-0.076603,-0.069190,-0.076709,-0.069088,0.000000,0.000000,8.493732,-3.746829,0.000000,0.000000,0.000000,0.000000,0.000000,0.000000,0.000000,0.000000,0.018508,0.017671,0.031948,0.031948,80.777280,-15.717740,110.610200,-29.727320,-593.281800,-469.426800,-2737.794000,-2559.392000
0.400000,0.010,0,0.010166,0.010166,0.010166,0.010166,0.397752,0.397739,0.000000,-18.258000,0.000000,0.000000,0.000000,0.500000,0.000000,0.000000,0.000000,0.000000,0.000000,0.000000,1.066000,0.000000,0.000000,0.000000,0.000000,0.000000,33.380200,-0.000457,-0.000431,-0.148439,-0.020696,0.000000,0.000000,0.005508,-0.003979,-0.487435,-0.773672,-0.485424,-0.479407,0.010334,0.010334,NaN,NaN,10.100850,0.018895,195.561200,0.017462,0.014067,0.019782,0.019782,0.000000,0.000000,-0.006795,-119.280800,-0.013701,0.716642,-0.000308,0.056901,0.082002,-7.066941,492.802600,374.390000,1762.052000,1645.719000,0.047347,0.047577,0.043951,0.044182,0.012653,0.012423,0.026049,0.025818,-0.530452,-0.559419,-0.908971,-0.937954,2152.538000,2110.399000,4428.280000,4389.036000,-1591.353000,-1678.257000,-2726.910000,-2813.858000,-0.093447,-0.092990,-0.093435,-0.093004,0.000000,0.000000,18.149480,-15.230710,0.000000,0.000000,0.000000,0.000000,0.000000,0.000000,0.000000,0.000000,-0.001752,-0.002823,-0.001504,-0.001504,20.359820,21.002490,60.498270,-29.735660,22.005310,26.942680,67.567750,63.106840
0.410000,0.011,0,0.010166,0.010166,0.010166,0.010166,0.397752,0.397739,0.000000,-18.258000,0.000000,0.000000,0.000000,0.500000,0.000000,0.000000,0.000000,0.000000,0.000000,0.000000,1.066000,0.000000,0.000000,0.000000,0.000000,0.000000,33.380200,-0.000457,-0.000431,-0.148439,-0.020696,0.000000,0.000000,0.005508,-0.003979,-0.487435,-0.773672,-0.485424,-0.479407,0.010334,0.010334,NaN,NaN,10.100850,0.018895,195.561200,0.022297,0.022989,0.019782,0.019782,0.000000,0.000000,-0.006795,-119.280800,-0.013701,0.716642,-0.000308,0.074631,0.029947,-9.538668,0.000000,0.000000,436.549800,305.498300,0.052064,0.052530,0.052756,0.053222,0.007936,0.007470,0.017244,0.016778,-0.432521,-0.452042,-0.854924,-0.874445,1350.905000,1268.203000,2931.432000,2852.315000,-1276.922000,-1201.345000,-2564.772000,-2623.334000,-0.104205,-0.103280,-0.104175,-0.103313,0.000000,0.000000,26.963130,-26.073520,0.000000,0.000000,0.000000,0.000000,0.000000,0.000000,0.000000,0.000000,-0.004838,-0.006034,-0.003869,-0.003869,8.012197,7.641243,89.877080,-79.249540,0.000000,0.000000,43.058490,30.132440
0.420000,0.012,0,0.012106,0.012106,0.012106,0.012106,0.417705,0.417690,0.000000,-19.924000,0.000000,0.000000,0.000000,0.500000,0.000000,0.000000,0.000000,0.000000,0.000000,0.000000,-0.038000,0.000000,0.000000,0.000000,0.000000,0.000000,5.953844,-0.000665,-0.000108,-0.164613,-0.011507,0.000001,-0.000001,0.108581,-0.117630,0.000000,0.000000,0.000000,0.000000,0.012305,0.012305,NaN,NaN,10.100960,0.027181,195.563100,0.026124,0.031043,0.034264,0.034264,0.000000,0.000000,-0.006795,-119.280800,-0.013701,0.716642,-0.000308,-0.003195,0.007729,-10.313780,0.000000,0.000000,0.000000,0.000000,0.055808,0.056440,0.060727,0.061359,0.004192,0.003560,0.009273,0.008641,-0.335082,-0.351161,-0.754833,-0.770926,714.003200,604.043300,1576.417000,1468.908000,-641.085500,-536.968900,-1646.383000,-1544.346000,-0.104465,-0.103799,-0.104429,-0.104322,0.000000,0.000000,2.923820,-3.030024,0.000000,0.000000,0.000000,0.000000,0.000000,0.000000,0.000000,0.000484,-0.005786,-0.006986,-0.005311,-0.005311,-1.121718,-0.973638,8.623585,-10.100080,0.000000,0.000000,0.000000,0.000000
0.430000,0.013,0,0.012106,0.012106,0.012106,0.012106,0.417705,0.417690,0.000000,-19.924000,0.000000,0.000000,0.000000,0.500000,0.000000,0.000000,0.000000,0.000000,0.000000,0.000000,-0.038000,0.000000,0.000000,0.000000,0.000000,0.000000,5.953844,-0.000665,-0.000108,-0.164613,-0.011507,0.000001,-0.000001,0.108581,-0.117630,0.000000,0.000000,0.000000,0.000000,0.012305,0.012305,NaN,NaN,10.100960,0.027181,195.563100,0.028963,0.038032,0.034264,0.034264,0.000000,0.000000,-0.006795,-119.280800,-0.013701,0.716642,-0.000308,-0.005169,0.026990,-10.219810,0.000000,0.000000,0.000000,0.000000,0.058568,0.059358,0.067637,0.068426,0.001432,0.000642,0.002363,0.001574,-0.236899,-0.252277,-0.648648,-0.664055,243.952400,108.961400,401.687800,267.510300,-172.529100,-43.119710,-470.463000,-341.513700,-0.103459,-0.102913,-0.103424,-0.103305,0.000000,0.000000,2.623245,-2.831216,0.000000,0.000000,0.000000,0.000000,0.000000,0.000000,0.000000,0.000354,-0.005922,-0.007108,-0.005657,-0.005657,-1.356653,-1.212298,7.386380,-9.437387,0.000000,0.000000,0.000000,0.000000
0.440000,0.014,0,0.014094,0.014094,0.014094,0.014094,0.437656,0.437639,0.000000,-19.694000,0.000000,0.000000,0.000000,0.500000,0.500000,0.000000,0.000000,0.000000,0.000000,0.000000,0.000000,0.000000,0.000000,0.000000,0.000000,0.000000,0.000000,-0.000065,0.000000,-0.160174,-0.013764,NaN,NaN,NaN,NaN,NaN,NaN,NaN,NaN,0.014292,0.014292,NaN,NaN,10.101080,0.031470,195.565100,0.030000,0.040000,0.000000,0.000000,-0.070930,-0.001238,-0.006795,-119.280800,-0.013701,0.716642,-0.000308,-0.006814,0.048902,-9.810785,0.000000,0.000000,0.000000,0.000000,0.060000,0.060000,0.070000,0.070000,0.000000,0.000000,0.000000,0.000000,0.000000,0.000000,0.000000,0.000000,0.000000,0.000000,0.000000,0.000000,0.000000,0.000000,0.000000,0.000000,-0.102977,-0.102913,-0.103118,-0.103118,0.000000,0.000000,0.000005,0.000005,0.000000,0.000000,0.000000,0.000000,0.102977,0.102913,0.103118,0.103118,0.000000,0.000000,0.000000,0.000000,0.000000,0.000000,0.000000,0.000000,0.000000,0.000000,0.000000,0.000000
0.450000,0.015,0,0.014094,0.014094,0.014094,0.014094,0.437656,0.437639,0.000000,-19.694000,0.000000,0.000000,0.000000,0.500000,0.500000,0.000000,0.000000,0.000000,0.000000,0.000000,0.000000,0.000000,0.000000,0.000000,0.000000,0.000000,0.000000,-0.000065,0.000000,-0.160174,-0.013764,NaN,NaN,NaN,NaN,NaN,NaN,NaN,NaN,0.014292,0.014292,NaN,NaN,10.101080,0.031470,195.565100,0.030000,0.040000,0.019782,0.019782,-0.162705,-0.002840,-0.006795,-119.280800,-0.013701,0.716642,-0.000308,-0.008164,0.065447,-9.810248,0.000000,0.000000,0.000000,0.000000,0.060000,0.060000,0.070000,0.070000,0.000000,0.000000,0.000000,0.000000,0.000000,0.000000,0.000000,0.000000,0.000000,0.000000,0.000000,0.000000,0.000000,0.000000,0.000000,0.000000,-0.102977,-0.102913,-0.103118,-0.103118,0.000000,0.000000,0.000005,0.000005,0.000000,0.000000,0.000000,0.000000,0.102977,0.102913,0.103118,0.103118,0.000000,0.000000,0.000000,0.000000,0.000000,0.000000,0.000000,0.000000,0.000000,0.000000,0.000000,0.000000
0.460000,0.016,0,0.016065,0.016065,0.016065,0.016065,0.457608,0.457588,0.000000,-19.694000,0.000000,0.000000,0.000000,0.500000,0.500000,0.000000,0.000000,0.000000,0.000000,0.000000,0.000000,0.000000,0.000000,0.000000,0.000000,0.000000,0.000000,-0.000065,0.000000,-0.160182,-0.013764,NaN,NaN,NaN,NaN,NaN,NaN,NaN,NaN,0.016263,0.016263,NaN,NaN,10.101170,0.031841,195.567100,0.030000,0.040000,0.000000,0.000000,-0.254479,-0.004442,-0.006795,-119.280800,-0.013701,0.716642,-0.000308,-0.009514,0.081718,-9.809826,0.000000,0.000000,0.000000,0.000000,0.060000,0.060000,0.070000,0.070000,0.000000,0.000000,0.000000,0.000000,0.000000,0.000000,0.000000,0.000000,0.000000,0.000000,0.000000,0.000000,0.000000,0.000000,0.000000,0.000000,-0.102977,-0.102913,-0.103118,-0.103118,0.000000,0.000000,0.000005,0.000005,0.000000,0.000000,0.000000,0.000000,0.102977,0.102913,0.103118,0.103118,0.000000,0.000000,0.000000,0.000000,0.000000,0.000000,0.000000,0.000000,0.000000,0.000000,0.000000,0.000000
0.470000,0.017,0,0.016065,0.016065,0.016065,0.016065,0.457608,0.457588,0.000000,-19.694000,0.000000,0.000000,0.000000,0.500000,0.500000,0.000000,0.000000,0.000000,0.000000,0.000000,0.000000,0.000000,0.000000,0.000000,0.000000,0.000000,0.000000,-0.000065,0.000000,-0.160182,-0.013764,NaN,NaN,NaN,NaN,NaN,NaN,NaN,NaN,0.016263,0.016263,NaN,NaN,10.101170,0.031841,195.567100,0.030000,0.040000,0.000000,0.000000,-0.346260,-0.006043,-0.006795,-119.280800,-0.013701,0.716642,-0.000308,-0.010863,0.097713,-9.809529,0.000000,0.000000,0.000000,0.000000,0.060000,0.060000,0.070000,0.070000,0.000000,0.000000,0.000000,0.000000,0.000000,0.000000,0.000000,0.000000,0.000000,0.000000,0.000000,0.000000,0.000000,0.000000,0.000000,0.000000,-0.102977,-0.102913,-0.103118,-0.103118,0.000000,0.000000,0.000005,0.000005,0.000000,0.000000,0.000000,0.000000,0.102977,0.102913,0.103118,0.103118,0.000000,0.000000,0.000000,0.000000,0.000000,0.000000,0.000000,0.000000,0.000000,0.000000,0.000000,0.000000
0.480000,0.018,0,0.018038,0.018038,0.018038,0.018038,0.477560,0.477538,0.000000,-19.694000,0.000000,0.000000,0.000000,0.500000,0.500000,0.000000,0.000000,0.000000,0.000000,0.000000,0.000000,0.000000,0.000000,0.000000,0.000000,0.000000,0.000000,0.002230,0.000000,-0.152398,0.016209,0.000000,0.000000,NaN,NaN,-5.462639,-5.935615,NaN,NaN,0.018239,0.018239,NaN,NaN,10.101350,0.028369,195.569000,0.028491,0.040000,0.062557,-0.019782,-0.401894,-0.007014,-0.006795,-119.280800,-0.013701,0.716642,-0.000308,0.230204,0.108247,-9.133501,990.281600,1186.378000,0.000000,0.000000,0.057734,0.059248,0.070000,0.070000,0.002266,0.000752,0.000000,0.000000,0.221446,0.375880,0.000000,0.000000,386.927800,127.221400,0.000000,0.000000,664.293900,1127.564000,0.000000,0.000000,-0.098132,-0.100362,-0.103118,-0.103118,0.000000,0.000000,0.000005,0.000005,0.000000,0.000000,0.000000,0.000000,0.000000,0.000000,0.103118,0.103118,-0.018463,-0.019606,0.000000,0.000000,-11.449130,-15.940140,0.000000,0.000000,466.088300,592.940600,0.000000,0.000000
0.490000,0.019,0,0.018038,0.018038,0.018038,0.018038,0.477560,0.477538,0.000000,-19.694000,0.000000,0.000000,0.000000,0.500000,0.500000,0.000000,0.000000,0.000000,0.000000,0.000000,0.000000,0.000000,0.000000,0.000000,0.000000,0.000000,0.000000,0.002230,0.000000,-0.152398,0.016209,0.000000,0.000000,NaN,NaN,-5.462639,-5.935615,NaN,NaN,0.018239,0.018239,NaN,NaN,10.101350,0.028369,195.569000,0.025844,0.040000,0.062557,0.000000,-0.420967,-0.007347,-0.006795,-119.280800,-0.013701,0.716642,-0.000308,0.149533,0.104346,-7.839393,1624.137000,1382.150000,0.000000,0.000000,0.055110,0.056577,0.070000,0.070000,0.004890,0.003423,0.000000,0.000000,0.280738,0.285640,0.000000,0.000000,834.774500,579.325900,0.000000,0.000000,842.143100,856.849300,0.000000,0.000000,-0.078779,-0.087273,-0.103118,-0.103118,0.000000,0.000000,0.000005,0.000005,0.000000,0.000000,0.000000,0.000000,0.000000,0.000000,0.103118,0.103118,-0.002333,-0.003288,0.000000,0.000000,-25.675340,-21.606110,0.000000,0.000000,96.574190,115.860800,0.000000,0.000000
0.500000,0.020,0,0.019725,0.019725,0.019725,0.019725,0.497519,0.497494,0.000000,-19.694000,0.000000,0.000000,0.000000,0.500000,0.500000,0.000000,0.000000,0.000000,0.000000,0.000000,0.000000,0.000000,0.000000,0.000000,0.000000,0.000000,0.000000,0.011109,0.000000,-0.086765,0.007201,0.000000,0.000000,NaN,NaN,-0.407571,-0.625268,NaN,NaN,0.019862,0.019862,NaN,NaN,10.101420,0.022400,195.570600,0.022833,0.040000,0.059347,0.000000,-0.412567,-0.007201,-0.004303,-135.979900,-0.007281,0.216240,0.007948,0.106894,0.098613,-7.007819,2220.415000,2001.170000,0.000000,0.000000,0.052138,0.053527,0.070000,0.070000,0.007862,0.006473,0.000000,0.000000,0.304654,0.314683,0.000000,0.000000,1341.807000,1095.773000,0.000000,0.000000,913.873500,943.956000,0.000000,0.000000,-0.053838,-0.064947,-0.103118,-0.103118,0.000000,0.000000,0.000005,0.000005,0.000000,0.000000,0.000000,0.000000,0.000000,0.000000,0.103118,0.103118,-0.001205,-0.001890,0.000000,0.000000,-34.873720,-31.901880,0.000000,0.000000,68.197510,96.405180,0.000000,0.000000
0.510000,0.020,0,0.019725,0.019725,0.019725,0.019725,0.497519,0.497494,0.000000,-19.694000,0.000000,0.000000,0.000000,0.500000,0.500000,0.000000,0.000000,0.000000,0.000000,0.000000,0.000000,0.000000,0.000000,0.000000,0.000000,0.000000,0.000000,0.011109,0.000000,-0.086765,0.007201,0.000000,0.000000,NaN,NaN,-0.407571,-0.625268,NaN,NaN,0.019862,0.019862,NaN,NaN,10.101420,0.022400,195.570600,0.019701,0.040000,0.048457,0.000000,-0.374741,-0.006541,-0.004303,-135.979900,-0.007281,0.216240,0.007948,0.087186,0.087845,-6.241008,2766.872000,2581.265000,0.000000,0.000000,0.049073,0.050328,0.070000,0.070000,0.010927,0.009672,0.000000,0.000000,0.304967,0.320360,0.000000,0.000000,1864.253000,1638.000000,0.000000,0.000000,914.804900,960.978600,0.000000,0.000000,-0.021798,-0.035019,-0.103118,-0.103118,0.000000,0.000000,0.000005,0.000005,0.000000,0.000000,0.000000,0.000000,0.000000,0.000000,0.103118,0.103118,-0.000811,-0.001139,0.000000,0.000000,-43.337110,-40.910960,0.000000,0.000000,57.231320,74.947270,0.000000,0.000000
0.520000,0.020,0,0.020457,0.020457,0.020457,0.020457,0.517501,0.517476,0.000000,-19.694000,0.000000,0.000000,0.000000,0.500000,0.500000,0.000000,0.000000,0.000000,0.000000,0.000000,0.000000,0.000000,0.000000,0.000000,0.000000,0.000000,0.000000,0.014718,0.000000,0.027290,0.014277,0.000000,0.000000,NaN,NaN,-0.292248,-0.251769,NaN,NaN,0.020457,0.020457,NaN,NaN,10.101430,0.015985,195.571100,0.016667,0.040000,0.048457,0.000000,-0.305725,-0.005336,-0.004303,-135.979900,-0.007281,0.216240,0.007948,0.051609,0.032183,-5.574311,3233.420000,3089.254000,0.000000,0.000000,0.046131,0.047203,0.070000,0.070000,0.013869,0.012797,0.000000,0.000000,0.284374,0.304356,0.000000,0.000000,2365.002000,2168.388000,0.000000,0.000000,853.031600,912.972600,0.000000,0.000000,0.016057,0.001338,-0.103118,-0.103118,0.000000,0.000000,0.000005,0.000005,0.000000,0.000000,0.000000,0.000000,0.000000,0.000000,0.103118,0.103118,-0.000787,-0.000686,0.000000,0.000000,-49.120750,-48.248230,0.000000,0.000000,64.844670,54.043930,0.000000,0.000000
0.530000,0.021,0,0.020457,0.020457,0.020457,0.020457,0.517501,0.517476,0.000000,-19.694000,0.000000,0.000000,0.000000,0.500000,0.500000,0.000000,0.000000,0.000000,0.000000,0.000000,0.000000,0.000000,0.000000,0.000000,0.000000,0.000000,0.000000,0.014718,0.000000,0.027290,0.014277,0.000000,0.000000,NaN,NaN,-0.292248,-0.251769,NaN,NaN,0.020457,0.020457,NaN,NaN,10.101430,0.015985,195.571100,0.013918,0.040000,0.034264,0.000000,-0.204186,-0.003564,-0.004303,-135.979900,-0.007281,0.216240,0.007948,0.047820,-0.034083,-5.040448,3603.806000,3505.467000,0.000000,0.000000,0.043491,0.044345,0.070000,0.070000,0.016509,0.015655,0.000000,0.000000,0.248089,0.271216,0.000000,0.000000,2813.287000,2654.452000,0.000000,0.000000,744.197300,813.570600,0.000000,0.000000,0.057721,0.041791,-0.103118,-0.103118,0.000000,0.000000,0.000005,0.000005,0.000000,0.000000,0.000000,0.000000,0.000000,0.000000,0.103118,0.103118,-0.000626,-0.000054,0.000000,0.000000,-53.945310,-52.644880,0.000000,0.000000,57.541430,4.860513,0.000000,0.000000
0.540000,0.021,0,0.021190,0.021190,0.021190,0.021190,0.537483,0.537457,0.000000,-19.694000,0.000000,0.000000,0.000000,0.500000,0.500000,0.000000,0.000000,0.000000,0.000000,0.000000,0.000000,0.000000,0.000000,0.000000,0.000000,0.000000,0.000000,0.016608,0.000000,0.176793,0.017828,0.000000,0.000000,NaN,NaN,-0.270958,0.151715,NaN,NaN,0.021358,0.021358,NaN,NaN,10.101430,0.010721,195.570000,0.011605,0.040000,0.034264,0.000000,-0.069092,-0.001206,-0.004303,-135.979900,-0.007281,0.216240,0.007948,0.021255,-0.059718,-4.656358,3859.252000,3810.144000,0.000000,0.000000,0.041300,0.041909,0.070000,0.070000,0.018700,0.018091,0.000000,0.000000,0.198245,0.223413,0.000000,0.000000,3184.465000,3069.677000,0.000000,0.000000,594.689800,670.188200,0.000000,0.000000,0.102454,0.085846,-0.103118,-0.103118,0.000000,0.000000,0.000005,0.000005,0.000000,0.000000,0.000000,0.000000,0.000000,0.000000,0.103118,0.103118,-0.000693,0.000389,0.000000,0.000000,-56.984340,-56.397710,0.000000,0.000000,68.162770,-37.826100,0.000000,0.000000
0.550000,0.022,0,0.021190,0.021190,0.021190,0.021190,0.537483,0.537457,0.000000,-19.694000,0.000000,0.000000,0.000000,0.500000,0.500000,0.000000,0.000000,0.000000,0.000000,0.000000,0.000000,0.000000,0.000000,0.000000,0.000000,0.000000,0.000000,0.016608,0.000000,0.176793,0.017828,0.000000,0.000000,NaN,NaN,-0.270958,0.151715,NaN,NaN,0.021358,0.021358,NaN,NaN,10.101430,0.010721,195.570000,0.009747,0.035658,0.000000,0.019782,0.000000,0.000000,-0.004303,-135.979900,-0.007281,0.216240,0.007948,-0.669437,-0.080885,-0.449174,4109.762000,4053.007000,2982.182000,2935.552000,0.039526,0.039968,0.065437,0.065878,0.020474,0.020032,0.004563,0.004122,0.174552,0.185058,0.769317,0.779986,3484.880000,3400.912000,775.646500,700.642400,523.629500,555.143800,2307.832000,2339.838000,0.120694,0.121162,0.120730,0.121129,0.000000,0.000000,-117.411700,153.944000,0.000000,0.000000,0.000000,0.000000,0.000000,0.000000,0.000000,0.000000,-0.006662,-0.005271,-0.005241,-0.005241,11.176470,-36.285160,-380.700200,477.364700,697.957700,544.602400,398.408700,392.179000
0.560000,0.024,0,0.023423,0.023423,0.023423,0.023423,0.557429,0.557400,0.000000,23.239000,0.000000,0.000000,0.000000,0.500000,0.000000,0.000000,0.000000,0.000000,0.000000,0.000000,-0.622000,0.000000,0.000000,0.000000,0.000000,0.000000,-222.228700,-0.001544,-0.002180,0.238780,-0.077581,0.000000,0.000000,-0.014924,0.015342,16.223640,15.986750,16.190900,15.958940,0.023675,0.023675,NaN,NaN,10.101360,0.007098,195.567600,0.008025,0.027851,0.019782,0.019782,0.000000,0.000000,-0.004303,-135.979900,-0.007281,0.216240,0.007948,9.058378,-0.099993,1.715525,4539.406000,4144.591000,4484.824000,4098.230000,0.037736,0.038315,0.057562,0.058141,0.022264,0.021685,0.012438,0.011859,0.222489,0.114128,0.831515,0.723168,3791.287000,3680.136000,2114.392000,2015.970000,667.447400,342.373600,2494.468000,2169.439000,0.121481,0.123025,0.121166,0.123345,0.000000,0.000000,-113.528800,108.700000,0.000000,0.000000,0.000000,0.000000,0.000000,0.000000,0.000000,0.000000,0.054511,0.055917,0.059178,0.059178,5.683959,5.124999,-369.582100,362.333200,-4562.030000,-4225.171000,-4515.723000,-4185.302000
