TIME,DISTANCE,MARKERS,SPEED,SPEEDANGLE,SPEEDLAT,VELOCITY,YAWRATE,ACCELERATIONLAT,ACCELERATIONLONG,ACCELERATIONVERT,SUSPENSIONLOADFL,SUSPENSIONLOADFR,SUSPENSIONLOADRL,SUSPENSIONLOADRR,SUSPENSIONTRAVELFL,SUSPENSIONTRAVELFR,SUSPENSIONTRAVELRL,SUSPENSIONTRAVELRR,SUSPENSIONCONTACTDEPTHFL,SUSPENSIONCONTACTDEPTHFR,SUSPENSIONCONTACTDEPTHRL,SUSPENSIONCONTACTDEPTHRR,SUSPENSIONCONTACTSPEEDFL,SUSPENSIONCONTACTSPEEDFR,SUSPENSIONCONTACTSPEEDRL,SUSPENSIONCONTACTSPEEDRR,SUSPENSIONSPRINGFORCEFL,SUSPENSIONSPRINGFORCEFR,SUSPENSIONSPRINGFORCERL,SUSPENSIONSPRINGFORCERR,SUSPENSIONDAMPERFORCEFL,SUSPENSIONDAMPERFORCEFR,SUSPENSIONDAMPERFORCERL,SUSPENSIONDAMPERFORCERR,WHEELSPINFL,WHEELSPINFR,WHEELSPINRL,WHEELSPINRR,WHEELSHAFTTORQUEFL,WHEELSHAFTTORQUEFR,WHEELSHAFTTORQUERL,WHEELSHAFTTORQUERR,WHEELBRAKETORQUEFL,WHEELBRAKETORQUEFR,WHEELBRAKETORQUERL,WHEELBRAKETORQUERR,TIRESLIPLONGFL,TIRESLIPLONGFR,TIRESLIPLONGRL,TIRESLIPLONGRR,TIRESLIPLATFL,TIRESLIPLATFR,TIRESLIPLATRL,TIRESLIPLATRR,TIREFORCELONGFL,TIREFORCELONGFR,TIREFORCELONGRL,TIREFORCELONGRR,TIREFORCELATFL,TIREFORCELATFR,TIREFORCELATRL,TIREFORCELATRR,RIDEHEIGHTFRONT,RIDEHEIGHTREAR,ROLLANGLEFRONT,ROLLANGLEREAR,GROUNDSLOPE,GROUNDGRADE,GEAR,STEERINGANGLE,THROTTLE,BRAKEPRESSURE,TORQUEDIFFFRONT,TORQUEDIFFREAR,SPEEDDIFFFRONT,SPEEDDIFFREAR,PITCHRATE,ROLLRATE,SLIPRATIOFL,SLIPRATIOFR,SLIPRATIORL,SLIPRATIORR,SLIPANGLEFL,SLIPANGLEFR,SLIPANGLERL,SLIPANGLERR,LAPDISTANCE,TOTALDISTANCE,FORCEFEEDBACKFORCERATIO,FORCEFEEDBACKDAMPERRATIO,POSITIONX,POSITIONY,POSITIONZ,MOTORRPMFRONT,MOTORRPMREAR,POWERELECTRICALFRONT,POWERELECTRICALREAR,POWERELECTRICALTOTAL,POWERBALANCE,WHEELTORQUEBALANCE,EFFICIENCYFRONT,EFFICIENCYREAR,TORQUEMECHANICALFRONT,TORQUEMECHANICALREAR,TORQUEROTORFRONT,TORQUEROTORREAR,919SPEED,IDRSPEED,919TRAVELEDDISTANCE,IDRTRAVELEDDISTANCE,919TIMEDIFF,IDRTIMEDIFF
0.000000,0.000,0,0.000000,0.000000,0.000000,0.000000,0.000000,0.000000,0.000000,0.000000,0.000000,0.000000,0.000000,0.000000,0.060000,0.060000,0.070000,0.070000,0.000000,0.000000,0.000000,0.000000,0.000000,0.000000,0.000000,0.000000,0.000000,0.000000,0.000000,0.000000,0.000000,0.000000,0.000000,0.000000,0.000000,0.000000,0.000000,0.000000,0.000000,0.000000,0.000000,0.000000,0.000000,0.000000,0.000000,0.000000,0.000000,0.000000,0.000000,0.000000,0.000000,0.000000,0.000000,0.000000,0.000000,0.000000,0.000000,0.000000,0.000000,0.000000,0.000000,0.000000,0.030000,0.040000,0.000000,0.000000,0.224686,0.003922,1.000000,0.000000,0.000000,0.000000,0.000000,0.000000,0.000000,0.000000,0.000000,0.000000,NaN,NaN,NaN,NaN,NaN,NaN,NaN,NaN,0.000000,0.000000,NaN,NaN,10.100000,0.470000,195.560000,0.000000,0.000000,0.000000,0.000000,0.000000,0.500000,0.500000,0.000000,0.882000,0.000000,0.000000,0.000000,0.000000,0.000000,0.000000,0.000000,0.000000,0.000000,0.000000
0.010000,0.000,0,0.000000,0.000000,0.000000,0.000000,0.000000,0.000000,-0.000088,-9.810049,0.000000,0.000000,0.000000,0.000000,0.060000,0.060000,0.070000,0.070000,0.000000,0.000000,0.000000,0.000000,0.000000,0.000000,0.000000,0.000000,0.000000,0.000000,0.000000,0.000000,0.000000,0.000000,0.000000,0.000000,0.000000,0.000000,0.000000,0.000000,0.000000,0.000000,0.000000,0.000000,0.000000,0.000000,0.000000,0.000000,0.000000,0.000000,0.000000,0.000000,0.000000,0.000000,0.000000,0.000000,0.000000,0.000000,0.000000,0.000000,0.000000,0.000000,0.000000,0.000000,0.030000,0.040000,0.000000,0.000000,0.224686,0.003922,1.000000,0.000000,0.000000,0.000000,0.000000,0.000000,0.000000,0.000000,0.000000,0.000000,NaN,NaN,NaN,NaN,NaN,NaN,NaN,NaN,0.000000,0.000000,NaN,NaN,10.100000,0.470000,195.560000,0.000000,0.000000,0.000000,0.000000,0.000000,0.500000,0.500000,0.000000,0.882000,0.000000,0.000000,0.000000,0.000000,0.000000,0.000000,0.000000,0.000000,0.000000,0.000000
0.020000,0.000,0,0.000000,0.000000,0.000000,0.000000,0.000000,0.000000,-0.000446,-9.810239,0.000000,0.000000,0.000000,0.000000,0.060000,0.060000,0.070000,0.070000,0.000000,0.000000,0.000000,0.000000,0.000000,0.000000,0.000000,0.000000,0.000000,0.000000,0.000000,0.000000,0.000000,0.000000,0.000000,0.000000,0.000000,0.000000,0.000000,0.000000,0.000000,0.000000,0.000000,0.000000,0.000000,0.000000,0.000000,0.000000,0.000000,0.000000,0.000000,0.000000,0.000000,0.000000,0.000000,0.000000,0.000000,0.000000,0.000000,0.000000,0.000000,0.000000,0.000000,0.000000,0.030000,0.040000,0.000000,0.000000,0.224686,0.003922,1.000000,0.000000,0.000000,0.000000,0.000000,0.000000,0.000000,0.000000,-0.000001,0.000000,NaN,NaN,NaN,NaN,NaN,NaN,NaN,NaN,0.000000,0.000000,NaN,NaN,10.100000,0.467842,195.560000,0.000000,0.000000,0.000000,0.000000,0.000000,0.500000,0.500000,0.000000,0.882000,0.000000,0.000000,0.000000,0.000000,0.000000,0.000000,0.000000,0.000000,0.018000,0.018000
0.030000,0.000,0,0.000000,0.000000,0.000000,0.000000,0.000000,0.000000,-0.001079,-9.810581,0.000000,0.000000,0.000000,0.000000,0.060000,0.060000,0.070000,0.070000,0.000000,0.000000,0.000000,0.000000,0.000000,0.000000,0.000000,0.000000,0.000000,0.000000,0.000000,0.000000,0.000000,0.000000,0.000000,0.000000,0.000000,0.000000,0.000000,0.000000,0.000000,0.000000,0.000000,0.000000,0.000000,0.000000,0.000000,0.000000,0.000000,0.000000,0.000000,0.000000,0.000000,0.000000,0.000000,0.000000,0.000000,0.000000,0.000000,0.000000,0.000000,0.000000,0.000000,0.000000,0.030000,0.040000,0.000000,0.000000,0.224686,0.003922,1.000000,0.000000,0.000000,0.000000,0.000000,0.000000,0.000000,0.000000,-0.000001,0.000000,NaN,NaN,NaN,NaN,NaN,NaN,NaN,NaN,0.000000,0.000000,NaN,NaN,10.100000,0.467842,195.560000,0.000000,0.000000,0.000000,0.000000,0.000000,0.500000,0.500000,0.000000,0.882000,0.000000,0.000000,0.000000,0.000000,0.000000,0.000000,0.000000,0.000000,0.018000,0.018000
0.040000,0.000,0,0.000000,0.000000,0.000000,0.000000,0.000000,0.000000,-0.001986,-9.811073,0.000000,0.000000,0.000000,0.000000,0.060000,0.060000,0.070000,0.070000,0.000000,0.000000,0.000000,0.000000,0.000000,0.000000,0.000000,0.000000,0.000000,0.000000,0.000000,0.000000,0.000000,0.000000,0.000000,0.000000,0.000000,0.000000,0.000000,0.000000,0.000000,0.000000,0.000000,0.000000,0.000000,0.000000,0.000000,0.000000,0.000000,0.000000,0.000000,0.000000,0.000000,0.000000,0.000000,0.000000,0.000000,0.000000,0.000000,0.000000,0.000000,0.000000,0.000000,0.000000,0.030000,0.040000,0.000000,0.000000,0.224686,0.003922,1.000000,0.000000,0.000000,0.000000,0.000000,0.000000,0.000000,0.000000,-0.000011,0.000000,NaN,NaN,NaN,NaN,NaN,NaN,NaN,NaN,0.000000,0.000000,NaN,NaN,10.100000,0.461759,195.560000,0.000000,0.000000,0.000000,0.000000,0.000000,0.500000,0.500000,0.000000,0.882000,0.000000,0.000000,0.000000,0.000000,0.000000,0.000000,0.000000,0.000000,0.038000,0.038000
0.050000,0.000,0,0.000000,0.000000,0.000000,0.000000,0.000000,0.000000,-0.003168,-9.811699,0.000000,0.000000,0.000000,0.000000,0.060000,0.060000,0.070000,0.070000,0.000000,0.000000,0.000000,0.000000,0.000000,0.000000,0.000000,0.000000,0.000000,0.000000,0.000000,0.000000,0.000000,0.000000,0.000000,0.000000,0.000000,0.000000,0.000000,0.000000,0.000000,0.000000,0.000000,0.000000,0.000000,0.000000,0.000000,0.000000,0.000000,0.000000,0.000000,0.000000,0.000000,0.000000,0.000000,0.000000,0.000000,0.000000,0.000000,0.000000,0.000000,0.000000,0.000000,0.000000,0.030000,0.040000,0.000000,0.000000,0.224670,0.003921,1.000000,0.000000,0.000000,0.000000,0.000000,0.000000,0.000000,0.000000,-0.000011,0.000000,NaN,NaN,NaN,NaN,NaN,NaN,NaN,NaN,0.000000,0.000000,NaN,NaN,10.100000,0.461759,195.560000,0.000000,0.000000,0.000000,0.000000,0.000000,0.500000,0.500000,0.000000,0.882000,0.000000,0.000000,0.000000,0.000000,0.000000,0.000000,0.000000,0.000000,0.038000,0.038000
0.060000,0.000,0,0.000000,0.000000,0.000000,0.000000,0.000000,0.000000,-0.004624,-9.812474,0.000000,0.000000,0.000000,0.000000,0.060000,0.060000,0.070000,0.070000,0.000000,0.000000,0.000000,0.000000,0.000000,0.000000,0.000000,0.000000,0.000000,0.000000,0.000000,0.000000,0.000000,0.000000,0.000000,0.000000,0.000000,0.000000,0.000000,0.000000,0.000000,0.000000,0.000000,0.000000,0.000000,0.000000,0.000000,0.000000,0.000000,0.000000,0.000000,0.000000,0.000000,0.000000,0.000000,0.000000,0.000000,0.000000,0.000000,0.000000,0.000000,0.000000,0.000000,0.000000,0.030000,0.040000,0.000000,0.000000,0.224655,0.003921,1.000000,0.000000,0.000000,0.000000,0.000000,0.000000,0.000000,0.000000,-0.000039,0.000000,NaN,NaN,NaN,NaN,NaN,NaN,NaN,NaN,0.000000,0.000000,NaN,NaN,10.100000,0.451752,195.560000,0.000000,0.000000,0.000000,0.000000,0.000000,0.500000,0.500000,0.000000,0.882000,0.000000,0.000000,0.000000,0.000000,0.000000,0.000000,0.000000,0.000000,0.058000,0.058000
0.070000,0.000,0,0.000000,0.000000,0.000000,0.000000,0.000000,0.000000,-0.006353,-9.813428,0.000000,0.000000,0.000000,0.000000,0.060000,0.060000,0.070000,0.070000,0.000000,0.000000,0.000000,0.000000,0.000000,0.000000,0.000000,0.000000,0.000000,0.000000,0.000000,0.000000,0.000000,0.000000,0.000000,0.000000,0.000000,0.000000,0.000000,0.000000,0.000000,0.000000,0.000000,0.000000,0.000000,0.000000,0.000000,0.000000,0.000000,0.000000,0.000000,0.000000,0.000000,0.000000,0.000000,0.000000,0.000000,0.000000,0.000000,0.000000,0.000000,0.000000,0.000000,0.000000,0.030000,0.040000,0.000000,0.000000,0.224625,0.003920,1.000000,0.000000,0.000000,0.000000,0.000000,0.000000,0.000000,0.000000,-0.000039,0.000000,NaN,NaN,NaN,NaN,NaN,NaN,NaN,NaN,0.000000,0.000000,NaN,NaN,10.100000,0.451752,195.560000,0.000000,0.000000,0.000000,0.000000,0.000000,0.500000,0.500000,0.000000,0.882000,0.000000,0.000000,0.000000,0.000000,0.000000,0.000000,0.000000,0.000000,0.058000,0.058000
0.080000,0.000,0,0.000000,0.000000,0.000000,0.000000,0.000000,0.000000,-0.008356,-9.814501,0.000000,0.000000,0.000000,0.000000,0.060000,0.060000,0.070000,0.070000,0.000000,0.000000,0.000000,0.000000,0.000000,0.000000,0.000000,0.000000,0.000000,0.000000,0.000000,0.000000,0.000000,0.000000,0.000000,0.000000,0.000000,0.000000,0.000000,0.000000,0.000000,0.000000,0.000000,0.000000,0.000000,0.000000,0.000000,0.000000,0.000000,0.000000,0.000000,0.000000,0.000000,0.000000,0.000000,0.000000,0.000000,0.000000,0.000000,0.000000,0.000000,0.000000,0.000000,0.000000,0.030000,0.040000,0.000000,0.000000,0.224579,0.003920,1.000000,0.000000,0.000000,0.000000,0.000000,0.000000,0.000000,0.000000,-0.000094,0.000000,NaN,NaN,NaN,NaN,NaN,NaN,NaN,NaN,0.000000,0.000000,NaN,NaN,10.100000,0.437818,195.560000,0.000000,0.000000,0.000000,0.000000,0.000000,0.500000,0.500000,0.000000,0.882000,0.000000,0.000000,0.000000,0.000000,0.000000,0.000000,0.000000,0.000000,0.078000,0.078000
0.090000,0.000,0,0.000000,0.000000,0.000000,0.000000,0.000000,0.000000,-0.010630,-9.815722,0.000000,0.000000,0.000000,0.000000,0.060000,0.060000,0.070000,0.070000,0.000000,0.000000,0.000000,0.000000,0.000000,0.000000,0.000000,0.000000,0.000000,0.000000,0.000000,0.000000,0.000000,0.000000,0.000000,0.000000,0.000000,0.000000,0.000000,0.000000,0.000000,0.000000,0.000000,0.000000,0.000000,0.000000,0.000000,0.000000,0.000000,0.000000,0.000000,0.000000,0.000000,0.000000,0.000000,0.000000,0.000000,0.000000,0.000000,0.000000,0.000000,0.000000,0.000000,0.000000,0.030000,0.040000,0.000000,0.000000,0.224510,0.003918,1.000000,0.000000,0.000000,0.000000,0.000000,0.000000,0.000000,0.000000,-0.000094,0.000000,NaN,NaN,NaN,NaN,NaN,NaN,NaN,NaN,0.000000,0.000000,NaN,NaN,10.100000,0.437818,195.560000,0.000000,0.000000,0.000000,0.000000,0.000000,0.500000,0.500000,0.000000,0.882000,0.000000,0.000000,0.000000,0.000000,0.000000,0.000000,0.000000,0.000000,0.078000,0.078000
0.100000,0.000,0,-0.000440,180.000000,0.000000,0.981239,0.000000,0.000000,-0.013176,-9.817123,0.000000,0.000000,0.000000,0.000000,0.060000,0.060000,0.070000,0.070000,0.000000,0.000000,0.000000,0.000000,0.000000,0.000000,0.000000,0.000000,0.000000,0.000000,0.000000,0.000000,0.000000,0.000000,0.000000,0.000000,0.000000,0.000000,0.000000,0.000000,0.000000,0.000000,0.000000,0.000000,0.000000,0.000000,0.000000,0.000000,0.000000,0.000000,0.000000,0.000000,0.000000,0.000000,0.000000,0.000000,0.000000,0.000000,0.000000,0.000000,0.000000,0.000000,0.000000,0.000000,0.030000,0.040000,0.000000,0.000000,0.224419,0.003917,1.000000,0.000000,0.000000,0.000000,0.000000,0.000000,0.000000,0.000000,-0.000185,0.000000,NaN,NaN,NaN,NaN,NaN,NaN,NaN,NaN,0.000000,0.000000,NaN,NaN,10.100000,0.419957,195.560000,0.000000,0.000000,0.000000,0.000000,0.000000,0.500000,0.500000,0.000000,0.882000,0.000000,0.000000,0.000000,0.000000,0.000000,0.000000,0.000000,0.000000,0.098000,0.098000
0.110000,0.000,0,-0.000440,180.000000,0.000000,0.981239,0.000000,0.000000,-0.015992,-9.818673,0.000000,0.000000,0.000000,0.000000,0.060000,0.060000,0.070000,0.070000,0.000000,0.000000,0.000000,0.000000,0.000000,0.000000,0.000000,0.000000,0.000000,0.000000,0.000000,0.000000,0.000000,0.000000,0.000000,0.000000,0.000000,0.000000,0.000000,0.000000,0.000000,0.000000,0.000000,0.000000,0.000000,0.000000,0.000000,0.000000,0.000000,0.000000,0.000000,0.000000,0.000000,0.000000,0.000000,0.000000,0.000000,0.000000,0.000000,0.000000,0.000000,0.000000,0.000000,0.000000,0.030000,0.040000,0.000000,0.000000,0.224289,0.003915,1.000000,0.000000,0.000000,0.000000,0.000000,0.000000,0.000000,0.000000,-0.000185,0.000000,NaN,NaN,NaN,NaN,NaN,NaN,NaN,NaN,0.000000,0.000000,NaN,NaN,10.100000,0.419957,195.560000,0.000000,0.000000,0.000000,0.000000,0.000000,0.500000,0.500000,0.000000,0.882000,0.000000,0.000000,0.000000,0.000000,0.000000,0.000000,0.000000,0.000000,0.098000,0.098000
0.120000,0.000,0,-0.000440,180.000000,0.000000,0.981239,0.000000,0.000000,-0.019077,-9.820342,0.000000,0.000000,0.000000,0.000000,0.060000,0.060000,0.070000,0.070000,0.000000,0.000000,0.000000,0.000000,0.000000,0.000000,0.000000,0.000000,0.000000,0.000000,0.000000,0.000000,0.000000,0.000000,0.000000,0.000000,0.000000,0.000000,0.000000,0.000000,0.000000,0.000000,0.000000,0.000000,0.000000,0.000000,0.000000,0.000000,0.000000,0.000000,0.000000,0.000000,0.000000,0.000000,0.000000,0.000000,0.000000,0.000000,0.000000,0.000000,0.000000,0.000000,0.000000,0.000000,0.030000,0.040000,0.000000,0.000000,0.224121,0.003912,1.000000,0.000000,0.000000,0.000000,0.000000,0.000000,0.000000,0.000000,-0.000322,0.000000,NaN,NaN,NaN,NaN,NaN,NaN,NaN,NaN,0.000000,0.000000,NaN,NaN,10.100000,0.398166,195.560000,0.000000,0.000000,0.000000,0.000000,0.000000,0.500000,0.500000,0.000000,0.882000,0.000000,0.000000,0.000000,0.000000,0.000000,0.000000,0.000000,0.000000,0.118000,0.118000
0.130000,0.000,0,-0.000440,180.000000,0.000000,0.981239,0.000000,0.000000,-0.022431,-9.822130,0.000000,0.000000,0.000000,0.000000,0.060000,0.060000,0.070000,0.070000,0.000000,0.000000,0.000000,0.000000,0.000000,0.000000,0.000000,0.000000,0.000000,0.000000,0.000000,0.000000,0.000000,0.000000,0.000000,0.000000,0.000000,0.000000,0.000000,0.000000,0.000000,0.000000,0.000000,0.000000,0.000000,0.000000,0.000000,0.000000,0.000000,0.000000,0.000000,0.000000,0.000000,0.000000,0.000000,0.000000,0.000000,0.000000,0.000000,0.000000,0.000000,0.000000,0.000000,0.000000,0.030000,0.040000,0.000000,0.000000,0.223908,0.003908,1.000000,0.000000,0.000000,0.000000,0.000000,0.000000,0.000000,0.000000,-0.000322,0.000000,NaN,NaN,NaN,NaN,NaN,NaN,NaN,NaN,0.000000,0.000000,NaN,NaN,10.100000,0.398166,195.560000,0.000000,0.000000,0.000000,0.000000,0.000000,0.500000,0.500000,0.000000,0.882000,0.000000,0.000000,0.000000,0.000000,0.000000,0.000000,0.000000,0.000000,0.118000,0.118000
0.140000,0.000,0,-0.000440,180.000000,0.000000,0.981239,0.000000,0.000000,-0.026052,-9.824158,0.000000,0.000000,0.000000,0.000000,0.060000,0.060000,0.070000,0.070000,0.000000,0.000000,0.000000,0.000000,0.000000,0.000000,0.000000,0.000000,0.000000,0.000000,0.000000,0.000000,0.000000,0.000000,0.000000,0.000000,0.000000,0.000000,0.000000,0.000000,0.000000,0.000000,0.000000,0.000000,0.000000,0.000000,0.000000,0.000000,0.000000,0.000000,0.000000,0.000000,0.000000,0.000000,0.000000,0.000000,0.000000,0.000000,0.000000,0.000000,0.000000,0.000000,0.000000,0.000000,0.030000,0.040000,0.000000,0.000000,0.223640,0.003903,1.000000,0.000000,0.000000,0.000000,0.000000,0.000000,0.000000,0.000000,-0.000514,0.000000,NaN,NaN,NaN,NaN,NaN,NaN,NaN,NaN,0.000015,0.000015,NaN,NaN,10.100000,0.372442,195.560000,0.000000,0.000000,0.000000,0.000000,0.000000,0.500000,0.500000,0.000000,0.882000,0.000000,0.000000,0.000000,0.000000,0.000015,0.000015,0.000015,0.000015,0.138000,0.138000
0.150000,0.000,0,-0.000440,180.000000,0.000000,0.981239,0.000000,0.000000,-0.029938,-9.826184,0.000000,0.000000,0.000000,0.000000,0.060000,0.060000,0.070000,0.070000,0.000000,0.000000,0.000000,0.000000,0.000000,0.000000,0.000000,0.000000,0.000000,0.000000,0.000000,0.000000,0.000000,0.000000,0.000000,0.000000,0.000000,0.000000,0.000000,0.000000,0.000000,0.000000,0.000000,0.000000,0.000000,0.000000,0.000000,0.000000,0.000000,0.000000,0.000000,0.000000,0.000000,0.000000,0.000000,0.000000,0.000000,0.000000,0.000000,0.000000,0.000000,0.000000,0.000000,0.000000,0.030000,0.040000,0.000000,0.000000,0.223305,0.003897,1.000000,0.000000,0.000000,0.000000,0.000000,0.000000,0.000000,0.000000,-0.000514,0.000000,NaN,NaN,NaN,NaN,NaN,NaN,NaN,NaN,0.000015,0.000015,NaN,NaN,10.100000,0.372442,195.560000,0.000000,0.000000,0.000000,0.000000,0.000000,0.500000,0.500000,0.000000,0.882000,0.000000,0.000000,0.000000,0.000000,0.000015,0.000015,0.000015,0.000015,0.138000,0.138000
0.160000,0.000,0,-0.000440,180.000000,0.000000,0.981239,0.000000,0.000000,-0.034089,-9.828568,0.000000,0.000000,0.000000,0.000000,0.060000,0.060000,0.070000,0.070000,0.000000,0.000000,0.000000,0.000000,0.000000,0.000000,0.000000,0.000000,0.000000,0.000000,0.000000,0.000000,0.000000,0.000000,0.000000,0.000000,0.000000,0.000000,0.000000,0.000000,0.000000,0.000000,0.000000,0.000000,0.000000,0.000000,0.000000,0.000000,0.000000,0.000000,0.000000,0.000000,0.000000,0.000000,0.000000,0.000000,0.000000,0.000000,0.000000,0.000000,0.000000,0.000000,0.000000,0.000000,0.030000,0.040000,0.000000,0.000000,0.222893,0.003890,1.000000,0.000000,0.000000,0.000000,0.000000,0.000000,0.000000,0.000000,-0.000769,0.000000,NaN,NaN,NaN,NaN,NaN,NaN,NaN,NaN,0.000015,0.000015,NaN,NaN,10.100000,0.342783,195.560000,0.000000,0.000000,0.000000,0.000000,0.000000,0.500000,0.500000,0.000000,0.882000,0.000000,0.000000,0.000000,0.000000,0.000015,0.000015,0.000015,0.000015,0.158000,0.158000
0.170000,0.000,0,-0.000440,180.000000,0.000000,0.981239,0.000000,0.000000,-0.038503,-9.830954,0.000000,0.000000,0.000000,0.000000,0.060000,0.060000,0.070000,0.070000,0.000000,0.000000,0.000000,0.000000,0.000000,0.000000,0.000000,0.000000,0.000000,0.000000,0.000000,0.000000,0.000000,0.000000,0.000000,0.000000,0.000000,0.000000,0.000000,0.000000,0.000000,0.000000,0.000000,0.000000,0.000000,0.000000,0.000000,0.000000,0.000000,0.000000,0.000000,0.000000,0.000000,0.000000,0.000000,0.000000,0.000000,0.000000,0.000000,0.000000,0.000000,0.000000,0.000000,0.000000,0.030000,0.040000,0.000000,0.000000,0.222405,0.003882,1.000000,0.000000,0.000000,0.000000,0.000000,0.000000,0.000000,0.000000,-0.000769,0.000000,NaN,NaN,NaN,NaN,NaN,NaN,NaN,NaN,0.000015,0.000015,NaN,NaN,10.100000,0.342783,195.560000,0.000000,0.000000,0.000000,0.000000,0.000000,0.500000,0.500000,0.000000,0.882000,0.000000,0.000000,0.000000,0.000000,0.000015,0.000015,0.000015,0.000015,0.158000,0.158000
0.180000,0.000,0,-0.000440,180.000000,0.000000,0.981239,0.000000,0.000000,-0.043178,-9.833457,0.000000,0.000000,0.000000,0.000000,0.060000,0.060000,0.070000,0.070000,0.000000,0.000000,0.000000,0.000000,0.000000,0.000000,0.000000,0.000000,0.000000,0.000000,0.000000,0.000000,0.000000,0.000000,0.000000,0.000000,0.000000,0.000000,0.000000,0.000000,0.000000,0.000000,0.000000,0.000000,0.000000,0.000000,0.000000,0.000000,0.000000,0.000000,0.000000,0.000000,0.000000,0.000000,0.000000,0.000000,0.000000,0.000000,0.000000,0.000000,0.000000,0.000000,0.000000,0.000000,0.030000,0.040000,0.000000,0.000000,0.221809,0.003871,1.000000,0.000000,0.000000,0.000000,0.000000,0.000000,0.000000,0.000000,-0.001098,0.000000,NaN,NaN,NaN,NaN,NaN,NaN,NaN,NaN,0.000031,0.000031,NaN,NaN,10.100000,0.309185,195.560000,0.000000,0.000000,0.000000,0.000000,0.000000,0.500000,0.500000,0.000000,0.882000,0.000000,0.000000,0.000000,0.000000,0.000031,0.000031,0.000031,0.000031,0.177999,0.177999
0.190000,0.000,0,-0.000440,180.000000,0.000000,0.981239,0.000000,0.000000,-0.048112,-9.836200,0.000000,0.000000,0.000000,0.000000,0.060000,0.060000,0.070000,0.070000,0.000000,0.000000,0.000000,0.000000,0.000000,0.000000,0.000000,0.000000,0.000000,0.000000,0.000000,0.000000,0.000000,0.000000,0.000000,0.000000,0.000000,0.000000,0.000000,0.000000,0.000000,0.000000,0.000000,0.000000,0.000000,0.000000,0.000000,0.000000,0.000000,0.000000,0.000000,0.000000,0.000000,0.000000,0.000000,0.000000,0.000000,0.000000,0.000000,0.000000,0.000000,0.000000,0.000000,0.000000,0.030000,0.040000,0.000000,0.000000,0.221115,0.003859,1.000000,0.000000,0.000000,0.000000,0.000000,0.000000,0.000000,0.000000,-0.001098,0.000000,NaN,NaN,NaN,NaN,NaN,NaN,NaN,NaN,0.000031,0.000031,NaN,NaN,10.100000,0.309185,195.560000,0.000000,0.000000,0.000000,0.000000,0.000000,0.500000,0.500000,0.000000,0.882000,0.000000,0.000000,0.000000,0.000000,0.000031,0.000031,0.000031,0.000031,0.177999,0.177999
0.200000,0.000,0,-0.003469,180.000000,0.000000,1.963949,0.000000,0.000000,-0.053305,-9.839062,0.000000,0.000000,0.000000,0.000000,0.060000,0.060000,0.070000,0.070000,0.000000,0.000000,0.000000,0.000000,0.000000,0.000000,0.000000,0.000000,0.000000,0.000000,0.000000,0.000000,0.000000,0.000000,0.000000,0.000000,0.000000,0.000000,0.000000,0.000000,0.000000,0.000000,0.000000,0.000000,0.000000,0.000000,0.000000,0.000000,0.000000,0.000000,0.000000,0.000000,0.000000,0.000000,0.000000,0.000000,0.000000,0.000000,0.000000,0.000000,0.000000,0.000000,0.000000,0.000000,0.030000,0.040000,0.000000,0.000000,0.220306,0.003845,1.000000,0.000000,0.000000,0.000000,0.000000,0.000000,0.000000,0.000000,-0.001508,0.000000,NaN,NaN,NaN,NaN,NaN,NaN,NaN,NaN,0.000046,0.000046,NaN,NaN,10.100000,0.271644,195.560000,0.000000,0.000000,0.000000,0.000000,0.000000,0.500000,0.500000,0.000000,0.882000,0.000000,0.000000,0.000000,0.000000,0.000046,0.000046,0.000046,0.000046,0.197999,0.197999
0.210000,0.000,0,-0.003469,180.000000,0.000000,1.963949,0.000000,0.000000,-0.058753,-9.842044,0.000000,0.000000,0.000000,0.000000,0.060000,0.060000,0.070000,0.070000,0.000000,0.000000,0.000000,0.000000,0.000000,0.000000,0.000000,0.000000,0.000000,0.000000,0.000000,0.000000,0.000000,0.000000,0.000000,0.000000,0.000000,0.000000,0.000000,0.000000,0.000000,0.000000,0.000000,0.000000,0.000000,0.000000,0.000000,0.000000,0.000000,0.000000,0.000000,0.000000,0.000000,0.000000,0.000000,0.000000,0.000000,0.000000,0.000000,0.000000,0.000000,0.000000,0.000000,0.000000,0.030000,0.040000,0.000000,0.000000,0.219353,0.003828,1.000000,0.000000,0.000000,0.000000,0.000000,0.000000,0.000000,0.000000,-0.001508,0.000000,NaN,NaN,NaN,NaN,NaN,NaN,NaN,NaN,0.000046,0.000046,NaN,NaN,10.100000,0.271644,195.560000,0.000000,0.000000,0.000000,0.000000,0.000000,0.500000,0.500000,0.000000,0.882000,0.000000,0.000000,0.000000,0.000000,0.000046,0.000046,0.000046,0.000046,0.197999,0.197999
0.220000,0.000,0,-0.003469,180.000000,0.000000,1.963949,0.000000,0.000000,-0.064455,-9.845145,0.000000,0.000000,0.000000,0.000000,0.060000,0.060000,0.070000,0.070000,0.000000,0.000000,0.000000,0.000000,0.000000,0.000000,0.000000,0.000000,0.000000,0.000000,0.000000,0.000000,0.000000,0.000000,0.000000,0.000000,0.000000,0.000000,0.000000,0.000000,0.000000,0.000000,0.000000,0.000000,0.000000,0.000000,0.000000,0.000000,0.000000,0.000000,0.000000,0.000000,0.000000,0.000000,0.000000,0.000000,0.000000,0.000000,0.000000,0.000000,0.000000,0.000000,0.000000,0.000000,0.030000,0.040000,0.000000,0.000000,0.218269,0.003810,1.000000,0.000000,0.000000,0.000000,0.000000,0.000000,0.000000,0.000000,-0.002010,0.000000,NaN,NaN,NaN,NaN,NaN,NaN,NaN,NaN,0.000183,0.000183,NaN,NaN,10.100000,0.230155,195.560200,0.000000,0.000000,0.000000,0.000000,0.000000,0.500000,0.500000,0.000000,0.882000,0.000000,0.000000,0.000000,0.000000,0.000168,0.000168,0.000168,0.000168,0.217996,0.217996
0.230000,0.000,0,-0.003469,180.000000,0.000000,1.963949,0.000000,0.000000,-0.070409,-9.848485,0.000000,0.000000,0.000000,0.000000,0.060000,0.060000,0.070000,0.070000,0.000000,0.000000,0.000000,0.000000,0.000000,0.000000,0.000000,0.000000,0.000000,0.000000,0.000000,0.000000,0.000000,0.000000,0.000000,0.000000,0.000000,0.000000,0.000000,0.000000,0.000000,0.000000,0.000000,0.000000,0.000000,0.000000,0.000000,0.000000,0.000000,0.000000,0.000000,0.000000,0.000000,0.000000,0.000000,0.000000,0.000000,0.000000,0.000000,0.000000,0.000000,0.000000,0.000000,0.000000,0.030000,0.040000,0.000000,0.000000,0.217018,0.003788,1.000000,0.000000,0.000000,0.000000,0.000000,0.000000,0.000000,0.000000,-0.002010,0.000000,NaN,NaN,NaN,NaN,NaN,NaN,NaN,NaN,0.000183,0.000183,NaN,NaN,10.100000,0.230155,195.560200,0.000000,0.000000,0.000000,0.000000,0.000000,0.500000,0.500000,0.000000,0.882000,0.000000,0.000000,0.000000,0.000000,0.000168,0.000168,0.000168,0.000168,0.217996,0.217996
0.240000,0.000,0,-0.003469,180.000000,0.000000,1.963949,0.000000,0.000000,-0.076613,-9.851945,0.000000,0.000000,0.000000,0.000000,0.060000,0.060000,0.070000,0.070000,0.000000,0.000000,0.000000,0.000000,0.000000,0.000000,0.000000,0.000000,0.000000,0.000000,0.000000,0.000000,0.000000,0.000000,0.000000,0.000000,0.000000,0.000000,0.000000,0.000000,0.000000,0.000000,0.000000,0.000000,0.000000,0.000000,0.000000,0.000000,0.000000,0.000000,0.000000,0.000000,0.000000,0.000000,0.000000,0.000000,0.000000,0.000000,0.000000,0.000000,0.000000,0.000000,0.000000,0.000000,0.030000,0.040000,0.000000,0.000000,0.215591,0.003763,1.000000,0.000000,0.000000,0.000000,0.000000,0.000000,0.000000,0.000000,-0.002613,0.000000,NaN,NaN,NaN,NaN,NaN,NaN,NaN,NaN,0.000366,0.000366,NaN,NaN,10.100000,0.184715,195.560400,0.000000,0.000000,0.000000,0.000000,0.000000,0.500000,0.500000,0.000000,0.882000,0.000000,0.000000,0.000000,0.000000,0.000336,0.000336,0.000336,0.000336,0.237992,0.237991
0.250000,0.000,0,-0.003469,180.000000,0.000000,1.963949,0.000000,0.000000,-0.083065,-9.855524,0.000000,0.000000,0.000000,0.000000,0.060000,0.060000,0.070000,0.070000,0.000000,0.000000,0.000000,0.000000,0.000000,0.000000,0.000000,0.000000,0.000000,0.000000,0.000000,0.000000,0.000000,0.000000,0.000000,0.000000,0.000000,0.000000,0.000000,0.000000,0.000000,0.000000,0.000000,0.000000,0.000000,0.000000,0.000000,0.000000,0.000000,0.000000,0.000000,0.000000,0.000000,0.000000,0.000000,0.000000,0.000000,0.000000,0.000000,0.000000,0.000000,0.000000,0.000000,0.000000,0.030000,0.040000,0.000000,0.000000,0.213982,0.003735,1.000000,0.000000,0.000000,0.000000,0.000000,0.000000,0.000000,0.000000,-0.002613,0.000000,NaN,NaN,NaN,NaN,NaN,NaN,NaN,NaN,0.000366,0.000366,NaN,NaN,10.100000,0.184715,195.560400,0.000000,0.000000,0.000000,0.000000,0.000000,0.500000,0.500000,0.000000,0.882000,0.000000,0.000000,0.000000,0.000000,0.000336,0.000336,0.000336,0.000336,0.237992,0.237991
0.260000,0.001,0,-0.003469,180.000000,0.000000,1.963949,0.000000,0.000000,-0.089761,-9.859344,0.000000,0.000000,0.000000,0.000000,0.060000,0.060000,0.070000,0.070000,0.000000,0.000000,0.000000,0.000000,0.000000,0.000000,0.000000,0.000000,0.000000,0.000000,0.000000,0.000000,0.000000,0.000000,0.000000,0.000000,0.000000,0.000000,0.000000,0.000000,0.000000,0.000000,0.000000,0.000000,0.000000,0.000000,0.000000,0.000000,0.000000,0.000000,0.000000,0.000000,0.000000,0.000000,0.000000,0.000000,0.000000,0.000000,0.000000,0.000000,0.000000,0.000000,0.000000,0.000000,0.030000,0.040000,0.000000,0.000000,0.212166,0.003703,1.000000,0.000000,0.000000,0.000000,0.000000,0.000000,0.000000,0.000000,-0.003326,0.000000,NaN,NaN,NaN,NaN,NaN,NaN,NaN,NaN,0.000549,0.000549,NaN,NaN,10.100000,0.135316,195.560600,0.000000,0.000000,0.000000,0.000000,0.000000,0.500000,0.500000,0.000000,0.882000,0.000000,0.000000,0.000000,0.000000,0.000534,0.000534,0.000534,0.000534,0.257987,0.257986
0.270000,0.001,0,-0.003469,180.000000,0.000000,1.963949,0.000000,0.000000,-0.096700,-9.863401,0.000000,0.000000,0.000000,0.000000,0.060000,0.060000,0.070000,0.070000,0.000000,0.000000,0.000000,0.000000,0.000000,0.000000,0.000000,0.000000,0.000000,0.000000,0.000000,0.000000,0.000000,0.000000,0.000000,0.000000,0.000000,0.000000,0.000000,0.000000,0.000000,0.000000,0.000000,0.000000,0.000000,0.000000,0.000000,0.000000,0.000000,0.000000,0.000000,0.000000,0.000000,0.000000,0.000000,0.000000,0.000000,0.000000,0.000000,0.000000,0.000000,0.000000,0.000000,0.000000,0.030000,0.040000,0.000000,0.000000,0.210121,0.003667,1.000000,0.000000,0.000000,0.000000,0.000000,0.000000,0.000000,0.000000,-0.003326,0.000000,NaN,NaN,NaN,NaN,NaN,NaN,NaN,NaN,0.000549,0.000549,NaN,NaN,10.100000,0.135316,195.560600,0.000000,0.000000,0.000000,0.000000,0.000000,0.500000,0.500000,0.000000,0.882000,0.000000,0.000000,0.000000,0.000000,0.000534,0.000534,0.000534,0.000534,0.257987,0.257986
0.280000,0.001,0,-0.003469,180.000000,0.000000,1.963949,0.000000,0.000000,-0.103879,-9.867460,0.000000,0.000000,0.000000,0.000000,0.060000,0.060000,0.070000,0.070000,0.000000,0.000000,0.000000,0.000000,0.000000,0.000000,0.000000,0.000000,0.000000,0.000000,0.000000,0.000000,0.000000,0.000000,0.000000,0.000000,0.000000,0.000000,0.000000,0.000000,0.000000,0.000000,0.000000,0.000000,0.000000,0.000000,0.000000,0.000000,0.000000,0.000000,0.000000,0.000000,0.000000,0.000000,0.000000,0.000000,0.000000,0.000000,0.000000,0.000000,0.000000,0.000000,0.000000,0.000000,0.030000,0.040000,0.000000,0.000000,0.207840,0.003628,1.000000,0.000000,0.000000,0.000000,0.000000,0.000000,0.000000,0.000000,-0.004159,0.000000,NaN,NaN,NaN,NaN,NaN,NaN,NaN,NaN,0.000732,0.000732,NaN,NaN,10.100000,0.081954,195.560800,0.000000,0.000000,0.000000,0.000000,0.000000,0.500000,0.500000,0.000000,0.882000,0.000000,0.000000,0.000000,0.000000,0.000717,0.000717,0.000717,0.000717,0.277983,0.277982
0.290000,0.001,0,-0.003469,180.000000,0.000000,1.963949,0.000000,0.000000,-0.111296,-9.871640,0.000000,0.000000,0.000000,0.000000,0.060000,0.060000,0.070000,0.070000,0.000000,0.000000,0.000000,0.000000,0.000000,0.000000,0.000000,0.000000,0.000000,0.000000,0.000000,0.000000,0.000000,0.000000,0.000000,0.000000,0.000000,0.000000,0.000000,0.000000,0.000000,0.000000,0.000000,0.000000,0.000000,0.000000,0.000000,0.000000,0.000000,0.000000,0.000000,0.000000,0.000000,0.000000,0.000000,0.000000,0.000000,0.000000,0.000000,0.000000,0.000000,0.000000,0.000000,0.000000,0.030000,0.040000,0.000000,0.000000,0.205292,0.003583,1.000000,0.000000,0.000000,0.000000,0.000000,0.000000,0.000000,0.000000,-0.004159,0.000000,NaN,NaN,NaN,NaN,NaN,NaN,NaN,NaN,0.000732,0.000732,NaN,NaN,10.100000,0.081954,195.560800,0.000000,0.000000,0.000000,0.000000,0.000000,0.500000,0.500000,0.000000,0.882000,0.000000,0.000000,0.000000,0.000000,0.000717,0.000717,0.000717,0.000717,0.277983,0.277982
0.300000,0.001,0,-0.010495,180.000000,0.000000,2.934018,0.000000,0.000000,0.129712,-2.674045,0.000000,0.000000,10111.420000,10111.420000,0.060000,0.060000,0.061584,0.061584,0.000000,0.000000,0.008416,0.008416,0.000000,0.000000,2.889067,2.889067,0.000000,0.000000,1430.756000,1430.756000,0.000000,0.000000,8667.199000,8667.199000,0.000000,0.000000,-0.029815,-0.029815,0.000000,0.000000,6.989420,6.989420,0.000000,0.000000,0.000000,0.000000,0.000000,0.000000,0.000000,0.000000,0.000000,0.000000,0.000000,0.000000,0.000000,0.000000,105.889000,105.889000,0.000000,0.000000,0.000000,0.000000,0.030000,0.031584,0.000000,0.000000,0.010239,0.000179,1.000000,0.000000,0.000000,0.000000,0.000000,0.000000,0.000000,0.000000,-0.030494,0.000000,NaN,NaN,0.001012,0.001012,NaN,NaN,0.000000,0.000000,0.000992,0.000992,NaN,NaN,10.100000,0.024588,195.561100,0.000000,-7.717000,0.000000,0.000000,0.000000,0.500000,0.000000,0.000000,0.882000,0.000000,0.000000,0.000000,4.198000,0.000946,0.000946,0.000946,0.000946,0.297977,0.297976
0.310000,0.002,0,-0.010495,180.000000,0.000000,2.934018,0.000000,0.000000,0.259071,27.609950,13661.420000,13661.420000,14143.930000,14143.930000,0.030658,0.030658,0.033991,0.033991,0.029342,0.029342,0.036009,0.036009,2.904713,2.904713,2.660021,2.660021,4988.059000,4988.059000,6121.442000,6121.442000,8714.132000,8714.132000,7980.057000,7980.057000,-0.062075,-0.062075,-0.062076,-0.062076,0.000000,0.000000,0.528047,0.528047,0.000000,0.000000,0.000000,0.000000,0.000000,0.000000,0.000000,0.000000,0.000357,-0.000357,0.000000,0.000000,7.773476,7.773476,9.533755,9.533755,-124.451700,124.451700,0.000000,0.000000,0.000658,0.003992,0.000000,0.000000,0.000000,0.000000,1.000000,0.000000,0.000000,0.000000,0.000000,0.000000,0.000000,0.000000,-0.030494,0.000000,NaN,NaN,0.001012,0.001012,NaN,NaN,0.000000,0.000000,0.000992,0.000992,NaN,NaN,10.100000,0.024588,195.561100,0.000000,-7.717000,0.000000,0.000000,0.000000,0.500000,0.000000,0.000000,0.882000,0.000000,0.000000,0.000000,4.198000,0.000946,0.000946,0.000946,0.000946,0.297977,0.297976
0.320000,0.002,0,-0.010495,180.000000,0.000000,2.934018,0.000000,0.000000,0.233621,42.311460,21216.140000,21216.140000,17445.730000,17445.730000,0.003520,0.003520,0.009198,0.009198,0.056480,0.056480,0.060802,0.060802,2.549037,2.549037,2.358839,2.358839,9601.579000,9601.579000,10336.250000,10336.250000,7647.092000,7647.092000,7076.499000,7076.499000,-0.044796,-0.044796,-0.044797,-0.044797,0.000000,0.000000,-4.986832,-4.986832,0.000000,0.000000,0.000000,0.000000,0.000000,0.000000,0.000000,0.000000,0.000258,-0.000258,0.000000,0.000000,-52.907120,-52.907120,-69.530750,-69.530750,-139.474900,139.474900,0.000000,0.000000,-0.026480,-0.020802,0.000000,0.000000,0.000000,0.000000,1.000000,0.000000,0.000000,0.000000,0.000000,0.000000,0.000000,0.000000,-0.074584,0.000000,0.000000,0.000000,-0.000576,-0.000576,0.195675,-0.195675,0.000000,0.000000,0.002121,0.002121,NaN,NaN,10.100000,-0.031222,195.562200,0.000000,-7.449000,0.000000,0.000000,0.000000,0.500000,0.000000,0.000000,0.882000,0.000000,0.000000,0.000000,-3.332000,0.002014,0.002014,0.002014,0.002014,0.317951,0.317948
0.330000,0.005,0,-0.010495,180.000000,0.000000,2.934018,0.000000,0.003514,-0.646108,26.728080,15291.920000,15291.740000,11783.570000,11783.390000,0.000842,0.000842,-0.000073,-0.000073,0.059158,0.059158,0.070073,0.070073,-0.215843,-0.215903,-0.032350,-0.032410,10056.880000,10056.850000,11900.000000,11900.000000,-647.529800,-647.708700,-97.051250,-97.230070,0.029236,0.029233,0.029236,0.029234,0.000000,0.000000,7.119949,7.126974,0.000000,0.000000,0.000000,0.000000,0.000000,0.000000,0.000000,0.000000,-0.000140,0.000196,0.000024,0.000024,-32.862040,-32.843620,-9.128263,-9.088738,54.667830,-76.542550,-7.152838,-7.152729,-0.029158,-0.030073,0.000000,0.000000,0.000000,0.000000,1.000000,0.000000,0.000000,0.000000,0.000000,0.000000,0.000000,0.000000,-0.074584,0.000000,0.000000,0.000000,-0.000576,-0.000576,0.195675,-0.195675,0.000000,0.000000,0.002121,0.002121,NaN,NaN,10.100000,-0.031222,195.562200,0.000000,-7.449000,0.000000,0.000000,0.000000,0.500000,0.000000,0.000000,0.882000,0.000000,0.000000,0.000000,-3.332000,0.002014,0.002014,0.002014,0.002014,0.317951,0.317948
0.340000,0.005,0,-0.010495,180.000000,0.000000,2.934018,0.000000,-29.387520,-0.243181,22.023270,12121.950000,13242.090000,10335.540000,11517.450000,0.005203,0.004582,0.001728,0.001107,0.054797,0.055418,0.068272,0.068893,-0.721157,-0.316560,-0.429645,-0.025034,9298.384000,9438.260000,11606.220000,11711.860000,-2163.468000,-949.679700,-1288.934000,-75.101770,0.044722,0.051341,0.045897,0.050167,0.000000,0.000000,-9.786329,1.843427,0.000000,0.000000,0.000000,0.000000,0.000000,0.000000,0.000000,0.000000,-0.204373,-0.203820,-0.196335,-0.196335,20.554850,-50.846540,-21.479420,-35.289100,10852.410000,11801.250000,9354.251000,10343.310000,-0.025107,-0.028583,-0.034264,-0.034264,0.000000,0.000000,1.000000,0.000000,0.000000,0.000000,0.000000,-11.629760,-0.006620,-0.004270,0.114318,0.288988,0.000000,0.000000,0.000070,-0.000870,-20.773170,-21.445250,-19.701320,-20.410470,0.005019,0.005019,NaN,NaN,10.100320,-0.024267,195.560400,0.000000,9.508000,0.000000,0.000000,0.000000,0.500000,0.000000,0.000000,0.883000,0.000000,0.000000,0.000000,-1.742000,0.004869,0.004869,0.004869,0.004869,0.337881,0.337875
0.350000,0.007,0,-0.010495,180.000000,0.000000,2.934018,0.000000,24.556420,-0.021572,16.057460,9356.210000,9495.425000,9877.625000,9627.861000,0.011898,0.010833,0.005399,0.004333,0.048102,0.049167,0.064601,0.065667,-0.636771,-0.798747,-0.341982,-0.503972,8151.701000,8384.628000,10982.190000,11163.310000,-1910.307000,-2396.232000,-1025.941000,-1511.911000,0.047682,0.048057,0.047289,0.048451,0.000000,0.000000,2.617398,-6.505859,0.000000,0.000000,0.000000,0.000000,0.000000,0.000000,0.000000,0.000000,0.068019,0.068570,0.070409,0.070409,4.555123,16.539150,21.411970,-13.278880,-8541.041000,-8656.308000,-8973.319000,-8766.062000,-0.018635,-0.025134,-0.039565,-0.039565,0.000000,0.000000,1.000000,0.000000,0.000000,0.000000,0.000000,-11.629760,-0.006620,-0.004270,0.114318,0.288988,0.000000,0.000000,0.000070,-0.000870,-20.773170,-21.445250,-19.701320,-20.410470,0.005019,0.005019,NaN,NaN,10.100320,-0.024267,195.560400,0.000000,9.508000,0.000000,0.000000,0.000000,0.500000,0.000000,0.000000,0.883000,0.000000,0.000000,0.000000,-1.742000,0.004869,0.004869,0.004869,0.004869,0.337881,0.337875
0.360000,0.008,0,-0.010495,180.000000,0.000000,2.934018,0.000000,-19.415410,0.037050,9.748857,5770.516000,6732.697000,7960.091000,8648.833000,0.019928,0.018367,0.011001,0.009440,0.040072,0.041633,0.058999,0.060560,-0.884056,-0.724897,-0.687584,-0.528425,6780.964000,7110.137000,10029.800000,10295.190000,-2652.150000,-2174.676000,-2062.739000,-1585.264000,0.029103,0.025389,0.029642,0.024850,0.000000,0.000000,6.070919,-6.336948,0.000000,0.000000,0.000000,0.000000,0.000000,0.000000,0.000000,0.000000,-0.093653,-0.093339,-0.102212,-0.102211,12.503700,56.253130,20.236400,41.064080,5590.711000,6382.856000,7390.252000,7956.902000,-0.010853,-0.019780,-0.062557,-0.062557,0.000000,0.000000,1.000000,0.000000,0.000000,0.000000,0.000000,12.407870,0.003714,0.004792,0.077049,0.113721,0.000000,0.000000,-0.000344,0.000854,-16.962310,-17.539620,-18.276060,-18.689300,0.007543,0.007543,NaN,NaN,10.101020,-0.009397,195.559600,0.000000,4.468000,0.000000,0.000000,0.000000,0.500000,0.000000,0.000000,0.882000,0.000000,0.000000,0.000000,0.988000,0.007386,0.007386,0.007386,0.007386,0.357820,0.357811
0.370000,0.008,0,-0.010495,180.000000,0.000000,2.934018,0.000000,14.529770,0.157308,4.015351,3706.577000,3578.462000,6822.035000,6497.938000,0.027663,0.026771,0.017721,0.016830,0.032337,0.033229,0.052279,0.053170,-0.708595,-0.887439,-0.676423,-0.855237,5482.918000,5663.651000,8887.285000,9038.800000,-2125.768000,-2662.295000,-2029.254000,-2565.691000,-0.009932,-0.003735,-0.010287,-0.003380,0.000000,0.000000,2.608803,4.595961,0.000000,0.000000,0.000000,0.000000,0.000000,0.000000,0.000000,0.000000,0.061559,0.061480,0.074080,0.074080,86.023800,7.239788,99.196020,15.319870,-3845.379000,-3732.840000,-6456.196000,-6190.030000,-0.002783,-0.012724,-0.034264,-0.039565,0.000000,0.000000,1.000000,0.000000,0.000000,0.000000,0.000000,12.407870,0.003714,0.004792,0.077049,0.113721,0.000000,0.000000,-0.000344,0.000854,-16.962310,-17.539620,-18.276060,-18.689300,0.007543,0.007543,NaN,NaN,10.101020,-0.009397,195.559600,0.000000,4.468000,0.000000,0.000000,0.000000,0.500000,0.000000,0.000000,0.882000,0.000000,0.000000,0.000000,0.988000,0.007386,0.007386,0.007386,0.007386,0.357820,0.357811
0.380000,0.009,0,-0.010495,180.000000,0.000000,2.934018,0.000000,-10.368350,0.205893,-0.483026,1946.418000,2181.628000,4822.638000,5045.054000,0.035120,0.034522,0.025947,0.025349,0.024880,0.025478,0.044053,0.044651,-0.753373,-0.707954,-0.899822,-0.854433,4222.051000,4338.828000,7488.965000,7590.678000,-2260.104000,-2123.848000,-2699.447000,-2563.281000,-0.040461,-0.047622,-0.040240,-0.047846,0.000000,0.000000,5.713271,0.748932,0.000000,0.000000,0.000000,0.000000,0.000000,0.000000,0.000000,0.000000,-0.038344,-0.038852,-0.052431,-0.052431,-1.409586,88.529760,14.567370,94.100340,1902.575000,2160.713000,4801.151000,4987.714000,0.004821,-0.004352,-0.034264,-0.019782,0.000000,0.000000,1.000000,0.000000,0.000000,0.000000,0.000000,4.964339,0.007162,0.007606,-0.057437,0.032484,0.000000,0.000000,-0.001568,0.003274,-12.615490,-13.092000,-16.393580,-16.527030,0.008889,0.008889,NaN,NaN,10.100960,0.006424,195.559800,0.000000,-9.361000,0.000000,0.000000,0.000000,0.500000,0.000000,0.000000,0.882000,0.000000,0.000000,0.000000,2.323000,0.008770,0.008770,0.008770,0.008770,0.377786,0.377775
0.390000,0.010,0,-0.010495,180.000000,0.000000,2.934018,0.000000,5.981704,0.160993,-3.999709,1263.533000,1035.039000,3366.989000,3134.419000,0.041636,0.041588,0.034801,0.034752,0.018364,0.018412,0.035199,0.035248,-0.597715,-0.688300,-0.883654,-0.974208,3121.356000,3130.558000,5983.767000,5992.071000,-1793.140000,-2064.891000,-2650.952000,-2922.614000,-0.077423,-0.069884,-0.077529,-0.069781,0.000000,0.000000,1.252872,3.493296,0.000000,0.000000,0.000000,0.000000,0.000000,0.000000,0.000000,0.000000,0.018595,0.017746,0.032261,0.032261,81.714900,-16.677820,87.425300,-6.569955,-598.933900,-468.231800,-2769.024000,-2577.771000,0.011612,0.004777,0.000000,0.000000,0.000000,0.000000,1.000000,0.000000,0.000000,0.000000,0.000000,4.964339,0.007162,0.007606,-0.057437,0.032484,0.000000,0.000000,-0.001568,0.003274,-12.615490,-13.092000,-16.393580,-16.527030,0.008889,0.008889,NaN,NaN,10.100960,0.006424,195.559800,0.000000,-9.361000,0.000000,0.000000,0.000000,0.500000,0.000000,0.000000,0.882000,0.000000,0.000000,0.000000,2.323000,0.008770,0.008770,0.008770,0.008770,0.377786,0.377775
0.400000,0.010,0,-0.007696,-118.736600,-0.015634,0.716736,-0.000495,0.071828,0.087820,-7.070260,500.508500,365.281700,1769.844000,1637.114000,0.047328,0.047595,0.043942,0.044209,0.012672,0.012405,0.026058,0.025791,-0.528783,-0.561625,-0.906616,-0.939444,2155.911000,2107.146000,4429.850000,4384.440000,-1586.346000,-1684.873000,-2719.847000,-2818.328000,-0.094322,-0.093595,-0.094306,-0.093614,0.000000,0.000000,13.881830,-10.988860,0.000000,0.000000,0.000000,0.000000,0.000000,0.000000,0.000000,0.000000,-0.002346,-0.003429,-0.001627,-0.001627,20.321130,20.835210,47.239300,-15.760450,29.934940,31.929610,73.403130,67.897970,0.017462,0.014076,0.019782,0.019782,0.000000,0.000000,1.000000,0.000000,0.000000,0.000000,0.000000,24.870680,-0.000726,-0.000693,-0.148163,-0.023449,0.000000,0.000000,0.004396,-0.002847,-0.653516,-0.938624,-0.525460,-0.518033,0.010308,0.010308,NaN,NaN,10.100960,0.018894,195.561200,0.000000,-18.398000,0.000000,0.000000,0.000000,0.500000,0.000000,0.000000,0.882000,0.000000,0.000000,0.000000,1.057000,0.010140,0.010140,0.010140,0.010140,0.397753,0.397740
0.410000,0.011,0,-0.007696,-118.736600,-0.015634,0.716736,-0.000495,0.083883,0.029950,-9.533728,0.000000,0.000000,445.203100,296.452400,0.052035,0.052567,0.052729,0.053261,0.007965,0.007433,0.017271,0.016739,-0.431716,-0.453651,-0.853404,-0.875339,1356.202000,1261.703000,2936.058000,2845.653000,-1281.902000,-1195.400000,-2560.213000,-2626.016000,-0.105166,-0.103793,-0.105130,-0.103833,0.000000,0.000000,27.898100,-27.025110,0.000000,0.000000,0.000000,0.000000,0.000000,0.000000,0.000000,0.000000,-0.006032,-0.007236,-0.004274,-0.004275,8.036201,7.494109,92.993680,-82.565160,0.000000,0.000000,48.511720,32.303100,0.022301,0.022995,0.019782,0.019782,0.000000,0.000000,1.000000,0.000000,0.000000,0.000000,0.000000,24.870680,-0.000726,-0.000693,-0.148163,-0.023449,0.000000,0.000000,0.004396,-0.002847,-0.653516,-0.938624,-0.525460,-0.518033,0.010308,0.010308,NaN,NaN,10.100960,0.018894,195.561200,0.000000,-18.398000,0.000000,0.000000,0.000000,0.500000,0.000000,0.000000,0.882000,0.000000,0.000000,0.000000,1.057000,0.010140,0.010140,0.010140,0.010140,0.397753,0.397740
0.420000,0.012,0,-0.007696,-118.736600,-0.015634,0.716736,-0.000495,-0.003633,0.007481,-10.313780,0.000000,0.000000,0.000000,0.000000,0.055772,0.056491,0.060686,0.061406,0.004228,0.003509,0.009314,0.008594,-0.334486,-0.352532,-0.753537,-0.771612,720.277400,595.248800,1583.312000,1461.055000,-647.130100,-528.647000,-1652.828000,-1536.727000,-0.105448,-0.104289,-0.105405,-0.105288,0.000000,0.000000,3.133007,-3.168376,0.000000,0.000000,0.000000,0.000000,0.000000,0.000000,0.000000,0.000953,-0.007194,-0.008403,-0.005853,-0.005853,-1.122464,-0.960637,9.108770,-10.791540,0.000000,0.000000,0.000000,0.000000,0.026132,0.031046,0.034264,0.034264,0.000000,0.000000,1.000000,0.000000,0.000000,0.000000,0.000000,6.301383,-0.001160,-0.000117,-0.164338,-0.012901,-0.000001,0.000000,0.113013,-0.126056,0.000000,0.000000,0.000000,0.000000,0.012280,0.012280,NaN,NaN,10.101090,0.027188,195.563200,0.000000,-20.108000,0.000000,0.000000,0.000000,0.500000,0.000000,0.000000,0.882000,0.000000,0.000000,0.000000,-0.032000,0.012081,0.012081,0.012081,0.012081,0.417705,0.417690
0.430000,0.013,0,-0.007696,-118.736600,-0.015634,0.716736,-0.000495,-0.005862,0.026083,-10.219810,0.000000,0.000000,0.000000,0.000000,0.058527,0.059422,0.067584,0.068479,0.001473,0.000578,0.002416,0.001521,-0.236273,-0.253573,-0.647336,-0.664636,251.139600,98.073540,410.766700,258.608600,-179.468100,-32.656020,-479.075800,-332.819900,-0.104451,-0.103417,-0.104407,-0.104287,0.000000,0.000000,2.641582,-2.843345,0.000000,0.000000,0.000000,0.000000,0.000000,0.000000,0.000000,0.000823,-0.007349,-0.008546,-0.006233,-0.006233,-1.344137,-1.189257,7.459759,-10.791360,0.000000,0.000000,0.000000,0.000000,0.028974,0.038031,0.039565,0.039565,0.000000,0.000000,1.000000,0.000000,0.000000,0.000000,0.000000,6.301383,-0.001160,-0.000117,-0.164338,-0.012901,-0.000001,0.000000,0.113013,-0.126056,0.000000,0.000000,0.000000,0.000000,0.012280,0.012280,NaN,NaN,10.101090,0.027188,195.563200,0.000000,-20.108000,0.000000,0.000000,0.000000,0.500000,0.000000,0.000000,0.882000,0.000000,0.000000,0.000000,-0.032000,0.012081,0.012081,0.012081,0.012081,0.417705,0.417690
0.440000,0.014,0,-0.007696,-118.736600,-0.015634,0.716736,-0.000495,-0.007713,0.048829,-9.810785,0.000000,0.000000,0.000000,0.000000,0.060000,0.060000,0.070000,0.070000,0.000000,0.000000,0.000000,0.000000,0.000000,0.000000,0.000000,0.000000,0.000000,0.000000,0.000000,0.000000,0.000000,0.000000,0.000000,0.000000,-0.103971,-0.103417,-0.104100,-0.104100,0.000000,0.000000,-0.000002,-0.000002,0.000000,0.000000,0.000000,0.000000,0.103971,0.103417,0.104100,0.104100,0.000000,0.000000,0.000000,0.000000,0.000000,0.000000,0.000000,0.000000,0.000000,0.000000,0.000000,0.000000,0.030000,0.040000,0.000000,0.000000,-0.070511,-0.001231,1.000000,0.000000,0.000000,0.000000,0.000000,0.000000,-0.000554,0.000000,-0.159905,-0.015469,NaN,NaN,NaN,NaN,NaN,NaN,NaN,NaN,0.014255,0.014255,NaN,NaN,10.101240,0.031485,195.565200,0.000000,-19.881000,0.000000,0.000000,0.000000,0.500000,0.500000,0.000000,0.882000,0.000000,0.000000,0.000000,0.000000,0.014056,0.014056,0.014056,0.014056,0.437657,0.437640
0.450000,0.015,0,-0.007696,-118.736600,-0.015634,0.716736,-0.000495,-0.009230,0.065348,-9.810247,0.000000,0.000000,0.000000,0.000000,0.060000,0.060000,0.070000,0.070000,0.000000,0.000000,0.000000,0.000000,0.000000,0.000000,0.000000,0.000000,0.000000,0.000000,0.000000,0.000000,0.000000,0.000000,0.000000,0.000000,-0.103971,-0.103417,-0.104100,-0.104100,0.000000,0.000000,-0.000002,-0.000002,0.000000,0.000000,0.000000,0.000000,0.103971,0.103417,0.104100,0.104100,0.000000,0.000000,0.000000,0.000000,0.000000,0.000000,0.000000,0.000000,0.000000,0.000000,0.000000,0.000000,0.030000,0.040000,0.000000,0.000000,-0.162132,-0.002830,1.000000,0.000000,0.000000,0.000000,0.000000,0.000000,-0.000554,0.000000,-0.159905,-0.015469,NaN,NaN,NaN,NaN,NaN,NaN,NaN,NaN,0.014255,0.014255,NaN,NaN,10.101240,0.031485,195.565200,0.000000,-19.881000,0.000000,0.000000,0.000000,0.500000,0.500000,0.000000,0.882000,0.000000,0.000000,0.000000,0.000000,0.014056,0.014056,0.014056,0.014056,0.437657,0.437640
0.460000,0.016,0,-0.007696,-118.736600,-0.015634,0.716736,-0.000495,-0.010747,0.081593,-9.809826,0.000000,0.000000,0.000000,0.000000,0.060000,0.060000,0.070000,0.070000,0.000000,0.000000,0.000000,0.000000,0.000000,0.000000,0.000000,0.000000,0.000000,0.000000,0.000000,0.000000,0.000000,0.000000,0.000000,0.000000,-0.103971,-0.103417,-0.104100,-0.104100,0.000000,0.000000,-0.000002,-0.000002,0.000000,0.000000,0.000000,0.000000,0.103971,0.103417,0.104100,0.104100,0.000000,0.000000,0.000000,0.000000,0.000000,0.000000,0.000000,0.000000,0.000000,0.000000,0.000000,0.000000,0.030000,0.040000,0.000000,0.000000,-0.253754,-0.004429,1.000000,0.000000,0.000000,0.000000,0.000000,0.000000,-0.000554,0.000000,-0.159912,-0.015469,NaN,NaN,NaN,NaN,NaN,NaN,NaN,NaN,0.016227,0.016227,NaN,NaN,10.101370,0.031864,195.567100,0.000000,-19.881000,0.000000,0.000000,0.000000,0.500000,0.500000,0.000000,0.882000,0.000000,0.000000,0.000000,0.000000,0.016028,0.016028,0.016028,0.016028,0.457609,0.457589
0.470000,0.017,0,-0.007696,-118.736600,-0.015634,0.716736,-0.000495,-0.012263,0.097561,-9.809529,0.000000,0.000000,0.000000,0.000000,0.060000,0.060000,0.070000,0.070000,0.000000,0.000000,0.000000,0.000000,0.000000,0.000000,0.000000,0.000000,0.000000,0.000000,0.000000,0.000000,0.000000,0.000000,0.000000,0.000000,-0.103971,-0.103417,-0.104100,-0.104100,0.000000,0.000000,-0.000002,-0.000002,0.000000,0.000000,0.000000,0.000000,0.103971,0.103417,0.104100,0.104100,0.000000,0.000000,0.000000,0.000000,0.000000,0.000000,0.000000,0.000000,0.000000,0.000000,0.000000,0.000000,0.030000,0.040000,0.000000,0.000000,-0.345383,-0.006028,1.000000,0.000000,0.000000,0.000000,0.000000,0.000000,-0.000554,0.000000,-0.159912,-0.015469,NaN,NaN,NaN,NaN,NaN,NaN,NaN,NaN,0.016227,0.016227,NaN,NaN,10.101370,0.031864,195.567100,0.000000,-19.881000,0.000000,0.000000,0.000000,0.500000,0.500000,0.000000,0.882000,0.000000,0.000000,0.000000,0.000000,0.016028,0.016028,0.016028,0.016028,0.457609,0.457589
0.480000,0.018,0,-0.007696,-118.736600,-0.015634,0.716736,-0.000495,0.250000,0.107843,-9.141213,1001.337000,950.632600,0.000000,0.000000,0.057662,0.059390,0.070000,0.070000,0.002338,0.000610,0.000000,0.000000,0.220954,0.305099,0.000000,0.000000,399.528000,103.199600,0.000000,0.000000,662.818800,915.236900,0.000000,0.000000,-0.098731,-0.100880,-0.104100,-0.104100,0.000000,0.000000,-0.000002,-0.000002,0.000000,0.000000,0.000000,0.000000,0.000000,0.000000,0.104100,0.104100,-0.019585,-0.020734,0.000000,0.000000,-11.625170,-15.853600,0.000000,0.000000,499.919700,502.452000,0.000000,0.000000,0.028526,0.040000,0.071326,0.000000,-0.401489,-0.007007,1.000000,0.000000,0.000000,0.000000,0.000000,0.000000,0.002149,0.000000,-0.151816,0.015297,0.000000,0.000000,NaN,NaN,-5.802075,-6.105503,NaN,NaN,0.018205,0.018205,NaN,NaN,10.101570,0.028403,195.569100,0.000000,-19.881000,0.000000,0.000000,0.000000,0.500000,0.500000,0.000000,0.882000,0.000000,0.000000,0.000000,0.000000,0.018019,0.018019,0.018019,0.018019,0.477561,0.477538
0.490000,0.019,0,-0.007696,-118.736600,-0.015634,0.716736,-0.000495,0.180082,0.104287,-7.846062,1635.614000,1358.674000,0.000000,0.000000,0.055044,0.056714,0.070000,0.070000,0.004956,0.003286,0.000000,0.000000,0.280604,0.285596,0.000000,0.000000,846.617900,555.900800,0.000000,0.000000,841.740900,856.715300,0.000000,0.000000,-0.079272,-0.088597,-0.104100,-0.104100,0.000000,0.000000,-0.000002,-0.000002,0.000000,0.000000,0.000000,0.000000,0.000000,0.000000,0.104100,0.104100,-0.002823,-0.003788,0.000000,0.000000,-26.000930,-21.124790,0.000000,0.000000,117.687800,131.201800,0.000000,0.000000,0.025879,0.040000,0.065611,0.000000,-0.420555,-0.007340,1.000000,0.000000,0.000000,0.000000,0.000000,0.000000,0.002149,0.000000,-0.151816,0.015297,0.000000,0.000000,NaN,NaN,-5.802075,-6.105503,NaN,NaN,0.018205,0.018205,NaN,NaN,10.101570,0.028403,195.569100,0.000000,-19.881000,0.000000,0.000000,0.000000,0.500000,0.500000,0.000000,0.882000,0.000000,0.000000,0.000000,0.000000,0.018019,0.018019,0.018019,0.018019,0.477561,0.477538
0.500000,0.020,0,-0.005217,-135.628600,-0.008292,0.216503,0.008832,0.122752,0.098537,-7.015641,2232.444000,1980.634000,0.000000,0.000000,0.052073,0.053659,0.070000,0.070000,0.007928,0.006341,0.000000,0.000000,0.304610,0.315517,0.000000,0.000000,1353.831000,1072.873000,0.000000,0.000000,913.739600,946.459300,0.000000,0.000000,-0.054195,-0.066540,-0.104100,-0.104100,0.000000,0.000000,-0.000002,-0.000002,0.000000,0.000000,0.000000,0.000000,0.000000,0.000000,0.104100,0.104100,-0.001440,-0.002135,0.000000,0.000000,-35.001800,-31.588550,0.000000,0.000000,81.963760,107.772700,0.000000,0.000000,0.022866,0.040000,0.065611,0.000000,-0.412125,-0.007193,1.000000,0.000000,0.000000,0.000000,0.000000,0.000000,0.012345,0.000000,-0.086867,0.007793,0.000000,0.000000,NaN,NaN,-0.487786,-0.704753,NaN,NaN,0.019829,0.019829,NaN,NaN,10.101660,0.022432,195.570600,0.000000,-19.881000,0.000000,0.000000,0.000000,0.500000,0.500000,0.000000,0.882000,0.000000,0.000000,0.000000,0.000000,0.019707,0.019707,0.019707,0.019707,0.497519,0.497495
0.510000,0.020,0,-0.005217,-135.628600,-0.008292,0.216503,0.008832,0.100675,0.087806,-6.245416,2777.710000,2563.750000,0.000000,0.000000,0.049009,0.050448,0.070000,0.070000,0.010991,0.009552,0.000000,0.000000,0.304550,0.321731,0.000000,0.000000,1876.125000,1616.752000,0.000000,0.000000,913.553500,965.091100,0.000000,0.000000,-0.022040,-0.036820,-0.104100,-0.104100,0.000000,0.000000,-0.000002,-0.000002,0.000000,0.000000,0.000000,0.000000,0.000000,0.000000,0.104100,0.104100,-0.000958,-0.001297,0.000000,0.000000,-43.474100,-40.673730,0.000000,0.000000,67.825590,84.771390,0.000000,0.000000,0.019729,0.040000,0.059347,0.000000,-0.374283,-0.006533,1.000000,0.000000,0.000000,0.000000,0.000000,0.000000,0.012345,0.000000,-0.086867,0.007793,0.000000,0.000000,NaN,NaN,-0.487786,-0.704753,NaN,NaN,0.019829,0.019829,NaN,NaN,10.101660,0.022432,195.570600,0.000000,-19.881000,0.000000,0.000000,0.000000,0.500000,0.500000,0.000000,0.882000,0.000000,0.000000,0.000000,0.000000,0.019707,0.019707,0.019707,0.019707,0.497519,0.497495
0.520000,0.020,0,-0.005217,-135.628600,-0.008292,0.216503,0.008832,0.067264,0.031917,-5.577926,3244.271000,3076.282000,0.000000,0.000000,0.046072,0.047307,0.070000,0.070000,0.013928,0.012693,0.000000,0.000000,0.284180,0.306457,0.000000,0.000000,2376.149000,2149.695000,0.000000,0.000000,852.450600,919.275200,0.000000,0.000000,0.015940,-0.000620,-0.104100,-0.104100,0.000000,0.000000,-0.000002,-0.000002,0.000000,0.000000,0.000000,0.000000,0.000000,0.000000,0.104100,0.104100,-0.000859,-0.000770,0.000000,0.000000,-49.284290,-47.992570,0.000000,0.000000,71.015710,60.401420,0.000000,0.000000,0.016689,0.040000,0.048457,0.000000,-0.305267,-0.005328,1.000000,0.000000,0.000000,0.000000,0.000000,0.000000,0.016560,0.000000,0.027060,0.015974,0.000000,0.000000,NaN,NaN,-0.319287,-0.282252,NaN,NaN,0.020441,0.020441,NaN,NaN,10.101670,0.016007,195.571100,0.000000,-19.881000,0.000000,0.000000,0.000000,0.500000,0.500000,0.000000,0.882000,0.000000,0.000000,0.000000,0.000000,0.020440,0.020440,0.020440,0.020440,0.517502,0.517476
0.530000,0.021,0,-0.005217,-135.628600,-0.008292,0.216503,0.008832,0.056394,-0.034077,-5.042201,3611.775000,3494.979000,0.000000,0.000000,0.043440,0.044430,0.070000,0.070000,0.016560,0.015570,0.000000,0.000000,0.247344,0.273138,0.000000,0.000000,2823.049000,2638.879000,0.000000,0.000000,741.962500,819.336900,0.000000,0.000000,0.057745,0.039832,-0.104100,-0.104100,0.000000,0.000000,-0.000002,-0.000002,0.000000,0.000000,0.000000,0.000000,0.000000,0.000000,0.104100,0.104100,-0.000681,-0.000119,0.000000,0.000000,-54.042930,-52.510330,0.000000,0.000000,62.706710,10.617360,0.000000,0.000000,0.013936,0.040000,0.039565,0.000000,-0.203728,-0.003556,1.000000,0.000000,0.000000,0.000000,0.000000,0.000000,0.016560,0.000000,0.027060,0.015974,0.000000,0.000000,NaN,NaN,-0.319287,-0.282252,NaN,NaN,0.020441,0.020441,NaN,NaN,10.101670,0.016007,195.571100,0.000000,-19.881000,0.000000,0.000000,0.000000,0.500000,0.500000,0.000000,0.882000,0.000000,0.000000,0.000000,0.000000,0.020440,0.020440,0.020440,0.020440,0.517502,0.517476
0.540000,0.021,0,-0.005217,-135.628600,-0.008292,0.216503,0.008832,0.026009,-0.059750,-4.657360,3865.344000,3804.867000,0.000000,0.000000,0.041259,0.041973,0.070000,0.070000,0.018741,0.018027,0.000000,0.000000,0.197470,0.225842,0.000000,0.000000,3192.424000,3057.933000,0.000000,0.000000,592.365400,677.474400,0.000000,0.000000,0.102537,0.083812,-0.104100,-0.104100,0.000000,0.000000,-0.000002,-0.000002,0.000000,0.000000,0.000000,0.000000,0.000000,0.000000,0.104100,0.104100,-0.000725,0.000348,0.000000,0.000000,-57.039060,-56.321980,0.000000,0.000000,71.475340,-33.732700,0.000000,0.000000,0.011616,0.040000,0.019782,0.000000,-0.068619,-0.001198,1.000000,0.000000,0.000000,0.000000,0.000000,0.000000,0.018725,0.000000,0.176563,0.020180,0.000000,0.000000,NaN,NaN,-0.283814,0.135428,NaN,NaN,0.021357,0.021357,NaN,NaN,10.101670,0.010732,195.570000,0.000000,-19.881000,0.000000,0.000000,0.000000,0.500000,0.500000,0.000000,0.882000,0.000000,0.000000,0.000000,0.000000,0.021189,0.021189,0.021189,0.021189,0.537483,0.537457
0.550000,0.022,0,-0.005217,-135.628600,-0.008292,0.216503,0.008832,-0.783720,-0.068218,-0.442943,4116.482000,4049.577000,2988.625000,2933.556000,0.039490,0.040013,0.065378,0.065900,0.020510,0.019987,0.004622,0.004100,0.174403,0.186920,0.767902,0.780568,3491.817000,3392.464000,785.768700,696.989700,523.182500,560.731500,2303.585000,2341.582000,0.119396,0.120027,0.119438,0.119988,0.000000,0.000000,-138.783000,175.016600,0.000000,0.000000,0.000000,0.000000,0.000000,0.000000,0.000000,0.000000,-0.007687,-0.006309,-0.005997,-0.005997,13.566970,-39.099670,-449.620400,544.864100,806.664600,651.275400,456.914900,448.495100,0.009751,0.035639,0.000000,0.019782,0.000000,0.000000,1.000000,0.000000,0.000000,0.000000,0.000000,0.000000,0.018725,0.000000,0.176563,0.020180,0.000000,0.000000,NaN,NaN,-0.283814,0.135428,NaN,NaN,0.021357,0.021357,NaN,NaN,10.101670,0.010732,195.570000,0.000000,-19.881000,0.000000,0.000000,0.000000,0.500000,0.500000,0.000000,0.882000,0.000000,0.000000,0.000000,0.000000,0.021189,0.021189,0.021189,0.021189,0.537483,0.537457
0.560000,0.024,0,-0.005217,-135.628600,-0.008292,0.216503,0.008832,10.560990,-0.098767,1.721336,4574.516000,4113.991000,4518.292000,4067.372000,0.037682,0.038362,0.057497,0.058177,0.022318,0.021638,0.012503,0.011823,0.231966,0.105888,0.839904,0.713810,3801.530000,3671.046000,2125.457000,2009.906000,695.878000,317.653300,2519.635000,2141.366000,0.120153,0.121937,0.119785,0.122310,0.000000,0.000000,-131.157200,126.318900,0.000000,0.000000,0.000000,0.000000,0.000000,0.000000,0.000000,0.000000,0.063710,0.065104,0.069001,0.069001,5.646128,5.061184,-427.849800,421.062900,-4591.775000,-4198.864000,-4544.125000,-4158.724000,0.008022,0.027837,0.019782,0.019782,0.000000,0.000000,1.000000,0.000000,0.000000,0.000000,0.000000,-257.476100,-0.001784,-0.002525,0.238306,-0.090247,0.000000,0.000000,-0.017186,0.017933,16.244710,15.968390,16.210980,15.940420,0.023679,0.023679,NaN,NaN,10.101590,0.007095,195.567700,0.000000,23.010000,0.000000,0.000000,0.000000,0.500000,0.000000,0.000000,0.885000,0.000000,0.000000,0.000000,-0.625000,0.023423,0.023423,0.023423,0.023423,0.557429,0.557400
