TIME,DISTANCE,MARKERS,SPEED,SPEEDANGLE,SPEEDLAT,VELOCITY,YAWRATE,ACCELERATIONLAT,ACCELERATIONLONG,ACCELERATIONVERT,SUSPENSIONLOADFL,SUSPENSIONLOADFR,SUSPENSIONLOADRL,SUSPENSIONLOADRR,SUSPENSIONTRAVELFL,SUSPENSIONTRAVELFR,SUSPENSIONTRAVELRL,SUSPENSIONTRAVELRR,SUSPENSIONCONTACTDEPTHFL,SUSPENSIONCONTACTDEPTHFR,SUSPENSIONCONTACTDEPTHRL,SUSPENSIONCONTACTDEPTHRR,SUSPENSIONCONTACTSPEEDFL,SUSPENSIONCONTACTSPEEDFR,SUSPENSIONCONTACTSPEEDRL,SUSPENSIONCONTACTSPEEDRR,SUSPENSIONSPRINGFORCEFL,SUSPENSIONSPRINGFORCEFR,SUSPENSIONSPRINGFORCERL,SUSPENSIONSPRINGFORCERR,SUSPENSIONDAMPERFORCEFL,SUSPENSIONDAMPERFORCEFR,SUSPENSIONDAMPERFORCERL,SUSPENSIONDAMPERFORCERR,WHEELSPINFL,WHEELSPINFR,WHEELSPINRL,WHEELSPINRR,WHEELSHAFTTORQUEFL,WHEELSHAFTTORQUEFR,WHEELSHAFTTORQUERL,WHEELSHAFTTORQUERR,WHEELBRAKETORQUEFL,WHEELBRAKETORQUEFR,WHEELBRAKETORQUERL,WHEELBRAKETORQUERR,TIRESLIPLONGFL,TIRESLIPLONGFR,TIRESLIPLONGRL,TIRESLIPLONGRR,TIRESLIPLATFL,TIRESLIPLATFR,TIRESLIPLATRL,TIRESLIPLATRR,TIREFORCELONGFL,TIREFORCELONGFR,TIREFORCELONGRL,TIREFORCELONGRR,TIREFORCELATFL,TIREFORCELATFR,TIREFORCELATRL,TIREFORCELATRR,RIDEHEIGHTFRONT,RIDEHEIGHTREAR,ROLLANGLEFRONT,ROLLANGLEREAR,GROUNDSLOPE,GROUNDGRADE,GEAR,STEERINGANGLE,THROTTLE,BRAKEPRESSURE,TORQUEDIFFFRONT,TORQUEDIFFREAR,SPEEDDIFFFRONT,SPEEDDIFFREAR,PITCHRATE,ROLLRATE,SLIPRATIOFL,SLIPRATIOFR,SLIPRATIORL,SLIPRATIORR,SLIPANGLEFL,SLIPANGLEFR,SLIPANGLERL,SLIPANGLERR,LAPDISTANCE,TOTALDISTANCE,FORCEFEEDBACKFORCERATIO,FORCEFEEDBACKDAMPERRATIO,POSITIONX,POSITIONY,POSITIONZ,MOTORRPMFRONT,MOTORRPMREAR,POWERELECTRICALFRONT,POWERELECTRICALREAR,POWERELECTRICALTOTAL,POWERBALANCE,WHEELTORQUEBALANCE,EFFICIENCYFRONT,EFFICIENCYREAR,TORQUEMECHANICALFRONT,TORQUEMECHANICALREAR,TORQUEROTORFRONT,TORQUEROTORREAR,919SPEED,IDRSPEED,919TRAVELEDDISTANCE,IDRTRAVELEDDISTANCE,919TIMEDIFF,IDRTIMEDIFF
0.000000,0.000,0,0.000000,0.000000,0.000000,0.000000,0.000000,0.000000,0.000000,0.000000,0.000000,0.000000,0.000000,0.000000,0.060000,0.060000,0.070000,0.070000,0.000000,0.000000,0.000000,0.000000,0.000000,0.000000,0.000000,0.000000,0.000000,0.000000,0.000000,0.000000,0.000000,0.000000,0.000000,0.000000,0.000000,0.000000,0.000000,0.000000,0.000000,0.000000,0.000000,0.000000,0.000000,0.000000,0.000000,0.000000,0.000000,0.000000,0.000000,0.000000,0.000000,0.000000,0.000000,0.000000,0.000000,0.000000,0.000000,0.000000,0.000000,0.000000,0.000000,0.000000,0.030000,0.040000,0.000000,0.000000,0.224686,0.003922,1.000000,0.000000,0.000000,0.000000,0.000000,0.000000,0.000000,0.000000,0.000000,0.000000,NaN,NaN,NaN,NaN,NaN,NaN,NaN,NaN,0.000000,0.000000,NaN,NaN,10.100000,0.470000,195.560000,0.000000,0.000000,0.000000,0.000000,0.000000,0.500000,0.500000,0.000000,0.882000,0.000000,0.000000,0.000000,0.000000,0.000000,0.000000,0.000000,0.000000,0.000000,0.000000
0.010000,0.000,0,0.000000,0.000000,0.000000,0.000000,0.000000,0.000000,-0.000088,-9.810049,0.000000,0.000000,0.000000,0.000000,0.060000,0.060000,0.070000,0.070000,0.000000,0.000000,0.000000,0.000000,0.000000,0.000000,0.000000,0.000000,0.000000,0.000000,0.000000,0.000000,0.000000,0.000000,0.000000,0.000000,0.000000,0.000000,1.311423,1.311423,0.000000,0.000000,499.294300,499.294300,0.000000,0.000000,0.000000,0.000000,0.000000,0.000000,-1.311423,-1.311423,0.000000,0.000000,0.000000,0.000000,0.000000,0.000000,0.000000,0.000000,0.000000,0.000000,0.000000,0.000000,0.030000,0.040000,0.000000,0.000000,0.224686,0.003922,1.000000,0.000000,0.000000,0.000000,0.000000,0.000000,0.000000,0.000000,0.000000,0.000000,NaN,NaN,NaN,NaN,NaN,NaN,NaN,NaN,0.000000,0.000000,NaN,NaN,10.100000,0.470000,195.560000,0.000000,0.000000,0.000000,0.000000,0.000000,0.500000,0.500000,0.000000,0.882000,0.000000,0.000000,0.000000,0.000000,0.000000,0.000000,0.000000,0.000000,0.000000,0.000000
0.020000,0.000,0,0.000000,0.000000,0.000000,0.000000,0.000000,0.000000,-0.000446,-9.810239,0.000000,0.000000,0.000000,0.000000,0.060000,0.060000,0.070000,0.070000,0.000000,0.000000,0.000000,0.000000,0.000000,0.000000,0.000000,0.000000,0.000000,0.000000,0.000000,0.000000,0.000000,0.000000,0.000000,0.000000,0.000000,0.000000,2.667240,2.667240,0.000000,0.000000,513.726000,513.726000,0.000000,0.000000,0.000000,0.000000,0.000000,0.000000,-2.667240,-2.667240,0.000000,0.000000,0.000000,0.000000,0.000000,0.000000,0.000000,0.000000,0.000000,0.000000,0.000000,0.000000,0.030000,0.040000,0.000000,0.000000,0.224686,0.003922,1.000000,0.000000,1.000000,0.000000,0.000000,0.000000,0.000000,0.000000,-0.000001,0.000000,NaN,NaN,NaN,NaN,NaN,NaN,NaN,NaN,0.000000,0.000000,NaN,NaN,10.100000,0.467842,195.560000,0.000000,509.405000,0.000000,11.638000,11.638000,0.000000,0.000000,0.000000,0.940000,0.000000,216.320000,0.000000,171.433000,0.000000,0.000000,0.000000,0.000000,0.018000,0.018000
0.030000,0.000,0,0.000000,0.000000,0.000000,0.000000,0.000000,0.000000,-0.001079,-9.810581,0.000000,0.000000,0.000000,0.000000,0.060000,0.060000,0.070000,0.070000,0.000000,0.000000,0.000000,0.000000,0.000000,0.000000,0.000000,0.000000,0.000000,0.000000,0.000000,0.000000,0.000000,0.000000,0.000000,0.000000,0.000000,0.000000,4.052483,4.052483,0.000000,0.000000,522.622300,522.622300,0.000000,0.000000,0.000000,0.000000,0.000000,0.000000,-4.052483,-4.052483,0.000000,0.000000,0.000000,0.000000,0.000000,0.000000,0.000000,0.000000,0.000000,0.000000,0.000000,0.000000,0.030000,0.040000,0.000000,0.000000,0.224686,0.003922,1.000000,0.000000,1.000000,0.000000,0.000000,0.000000,0.000000,0.000000,-0.000001,0.000000,NaN,NaN,NaN,NaN,NaN,NaN,NaN,NaN,0.000000,0.000000,NaN,NaN,10.100000,0.467842,195.560000,0.000000,509.405000,0.000000,11.638000,11.638000,0.000000,0.000000,0.000000,0.940000,0.000000,216.320000,0.000000,171.433000,0.000000,0.000000,0.000000,0.000000,0.018000,0.018000
0.040000,0.000,0,0.000000,0.000000,0.000000,0.000000,0.000000,0.000000,-0.001986,-9.811073,0.000000,0.000000,0.000000,0.000000,0.060000,0.060000,0.070000,0.070000,0.000000,0.000000,0.000000,0.000000,0.000000,0.000000,0.000000,0.000000,0.000000,0.000000,0.000000,0.000000,0.000000,0.000000,0.000000,0.000000,0.000000,0.000000,5.454141,5.454141,0.000000,0.000000,527.126700,527.126700,0.000000,0.000000,0.000000,0.000000,0.000000,0.000000,-5.454141,-5.454141,0.000000,0.000000,0.000000,0.000000,0.000000,0.000000,0.000000,0.000000,0.000000,0.000000,0.000000,0.000000,0.030000,0.040000,0.000000,0.000000,0.224686,0.003922,1.000000,0.000000,1.000000,0.000000,0.000000,0.000000,0.000000,0.000000,-0.000011,0.000000,NaN,NaN,NaN,NaN,NaN,NaN,NaN,NaN,0.000000,0.000000,NaN,NaN,10.100000,0.461759,195.560000,0.000000,1041.663000,0.000000,24.442000,24.442000,0.000000,0.000000,0.000000,0.964000,0.000000,221.748000,0.000000,175.755000,0.000000,0.000000,0.000000,0.000000,0.038000,0.038000
0.050000,0.000,0,0.000000,0.000000,0.000000,0.000000,0.000000,0.000000,-0.003168,-9.811699,0.000000,0.000000,0.000000,0.000000,0.060000,0.060000,0.070000,0.070000,0.000000,0.000000,0.000000,0.000000,0.000000,0.000000,0.000000,0.000000,0.000000,0.000000,0.000000,0.000000,0.000000,0.000000,0.000000,0.000000,0.000000,0.000000,6.862756,6.862756,0.000000,0.000000,528.675800,528.675800,0.000000,0.000000,0.000000,0.000000,0.000000,0.000000,-6.862756,-6.862756,0.000000,0.000000,0.000000,0.000000,0.000000,0.000000,0.000000,0.000000,0.000000,0.000000,0.000000,0.000000,0.030000,0.040000,0.000000,0.000000,0.224670,0.003921,1.000000,0.000000,1.000000,0.000000,0.000000,0.000000,0.000000,0.000000,-0.000011,0.000000,NaN,NaN,NaN,NaN,NaN,NaN,NaN,NaN,0.000000,0.000000,NaN,NaN,10.100000,0.461759,195.560000,0.000000,1041.663000,0.000000,24.442000,24.442000,0.000000,0.000000,0.000000,0.964000,0.000000,221.748000,0.000000,175.755000,0.000000,0.000000,0.000000,0.000000,0.038000,0.038000
0.060000,0.000,0,0.000000,0.000000,0.000000,0.000000,0.000000,0.000000,-0.004624,-9.812474,0.000000,0.000000,0.000000,0.000000,0.060000,0.060000,0.070000,0.070000,0.000000,0.000000,0.000000,0.000000,0.000000,0.000000,0.000000,0.000000,0.000000,0.000000,0.000000,0.000000,0.000000,0.000000,0.000000,0.000000,0.000000,0.000000,8.251216,8.251216,0.000000,0.000000,499.638200,499.638200,0.000000,0.000000,0.000000,0.000000,0.000000,0.000000,-8.251216,-8.251216,0.000000,0.000000,0.000000,0.000000,0.000000,0.000000,0.000000,0.000000,0.000000,0.000000,0.000000,0.000000,0.030000,0.040000,0.000000,0.000000,0.224655,0.003921,1.000000,0.000000,1.000000,0.000000,0.000000,0.000000,0.000000,0.000000,-0.000039,0.000000,NaN,NaN,NaN,NaN,NaN,NaN,NaN,NaN,0.000000,0.000000,NaN,NaN,10.100000,0.451752,195.560000,0.000000,1575.865000,0.000000,35.000000,35.000000,0.000000,0.000000,0.000000,0.967000,0.000000,208.428000,0.000000,165.150000,0.000000,0.000000,0.000000,0.000000,0.058000,0.058000
0.070000,0.000,0,0.000000,0.000000,0.000000,0.000000,0.000000,0.000000,-0.006353,-9.813428,0.000000,0.000000,0.000000,0.000000,0.060000,0.060000,0.070000,0.070000,0.000000,0.000000,0.000000,0.000000,0.000000,0.000000,0.000000,0.000000,0.000000,0.000000,0.000000,0.000000,0.000000,0.000000,0.000000,0.000000,0.000000,0.000000,9.469759,9.469759,0.000000,0.000000,432.383900,432.383900,0.000000,0.000000,0.000000,0.000000,0.000000,0.000000,-9.469759,-9.469759,0.000000,0.000000,0.000000,0.000000,0.000000,0.000000,0.000000,0.000000,0.000000,0.000000,0.000000,0.000000,0.030000,0.040000,0.000000,0.000000,0.224625,0.003920,1.000000,0.000000,1.000000,0.000000,0.000000,0.000000,0.000000,0.000000,-0.000039,0.000000,NaN,NaN,NaN,NaN,NaN,NaN,NaN,NaN,0.000000,0.000000,NaN,NaN,10.100000,0.451752,195.560000,0.000000,1575.865000,0.000000,35.000000,35.000000,0.000000,0.000000,0.000000,0.967000,0.000000,208.428000,0.000000,165.150000,0.000000,0.000000,0.000000,0.000000,0.058000,0.058000
0.080000,0.000,0,0.000000,0.000000,0.000000,0.000000,0.000000,0.000000,-0.008356,-9.814501,0.000000,0.000000,0.000000,0.000000,0.060000,0.060000,0.070000,0.070000,0.000000,0.000000,0.000000,0.000000,0.000000,0.000000,0.000000,0.000000,0.000000,0.000000,0.000000,0.000000,0.000000,0.000000,0.000000,0.000000,0.000000,0.000000,10.512810,10.512810,0.000000,0.000000,323.932800,323.932800,0.000000,0.000000,0.000000,0.000000,0.000000,0.000000,-10.512810,-10.512810,0.000000,0.000000,0.000000,0.000000,0.000000,0.000000,0.000000,0.000000,0.000000,0.000000,0.000000,0.000000,0.030000,0.040000,0.000000,0.000000,0.224579,0.003920,1.000000,0.000000,1.000000,0.000000,0.000000,0.000000,0.000000,0.000000,-0.000094,0.000000,NaN,NaN,NaN,NaN,NaN,NaN,NaN,NaN,0.000000,0.000000,NaN,NaN,10.100000,0.437818,195.560000,0.000000,2007.798000,0.000000,23.669000,23.669000,0.000000,0.000000,0.000000,0.967000,0.000000,109.579000,0.000000,86.449000,0.000000,0.000000,0.000000,0.000000,0.078000,0.078000
0.090000,0.000,0,0.000000,0.000000,0.000000,0.000000,0.000000,0.000000,-0.010630,-9.815722,0.000000,0.000000,0.000000,0.000000,0.060000,0.060000,0.070000,0.070000,0.000000,0.000000,0.000000,0.000000,0.000000,0.000000,0.000000,0.000000,0.000000,0.000000,0.000000,0.000000,0.000000,0.000000,0.000000,0.000000,0.000000,0.000000,10.506440,10.506440,0.000000,0.000000,-2.388861,-2.388861,0.000000,0.000000,0.000000,0.000000,0.000000,0.000000,-10.506440,-10.506440,0.000000,0.000000,0.000000,0.000000,0.000000,0.000000,0.000000,0.000000,0.000000,0.000000,0.000000,0.000000,0.030000,0.040000,0.000000,0.000000,0.224510,0.003918,1.000000,0.000000,1.000000,0.000000,0.000000,0.000000,0.000000,0.000000,-0.000094,0.000000,NaN,NaN,NaN,NaN,NaN,NaN,NaN,NaN,0.000000,0.000000,NaN,NaN,10.100000,0.437818,195.560000,0.000000,2007.798000,0.000000,23.669000,23.669000,0.000000,0.000000,0.000000,0.967000,0.000000,109.579000,0.000000,86.449000,0.000000,0.000000,0.000000,0.000000,0.078000,0.078000
0.100000,0.000,0,-0.000440,180.000000,0.000000,0.981239,0.000000,0.000000,-0.013176,-9.817123,0.000000,0.000000,0.000000,0.000000,0.060000,0.060000,0.070000,0.070000,0.000000,0.000000,0.000000,0.000000,0.000000,0.000000,0.000000,0.000000,0.000000,0.000000,0.000000,0.000000,0.000000,0.000000,0.000000,0.000000,0.000000,0.000000,10.500070,10.500070,0.000000,0.000000,-2.388390,-2.388390,0.000000,0.000000,0.000000,0.000000,0.000000,0.000000,-10.500070,-10.500070,0.000000,0.000000,0.000000,0.000000,0.000000,0.000000,0.000000,0.000000,0.000000,0.000000,0.000000,0.000000,0.030000,0.040000,0.000000,0.000000,0.224419,0.003917,1.000000,0.000000,1.000000,0.000000,0.000000,0.000000,0.000000,0.000000,-0.000185,0.000000,NaN,NaN,NaN,NaN,NaN,NaN,NaN,NaN,0.000000,0.000000,NaN,NaN,10.100000,0.419957,195.560000,0.000000,2005.365000,0.000000,0.000000,0.000000,0.500000,0.000000,0.000000,0.967000,0.000000,0.000000,0.000000,-0.796000,0.000000,0.000000,0.000000,0.000000,0.098000,0.098000
0.110000,0.000,0,-0.000440,180.000000,0.000000,0.981239,0.000000,0.000000,-0.015992,-9.818673,0.000000,0.000000,0.000000,0.000000,0.060000,0.060000,0.070000,0.070000,0.000000,0.000000,0.000000,0.000000,0.000000,0.000000,0.000000,0.000000,0.000000,0.000000,0.000000,0.000000,0.000000,0.000000,0.000000,0.000000,0.000000,0.000000,10.493700,10.493700,0.000000,0.000000,-2.388495,-2.388495,0.000000,0.000000,0.000000,0.000000,0.000000,0.000000,-10.493700,-10.493700,0.000000,0.000000,0.000000,0.000000,0.000000,0.000000,0.000000,0.000000,0.000000,0.000000,0.000000,0.000000,0.030000,0.040000,0.000000,0.000000,0.224289,0.003915,1.000000,0.000000,1.000000,0.000000,0.000000,0.000000,0.000000,0.000000,-0.000185,0.000000,NaN,NaN,NaN,NaN,NaN,NaN,NaN,NaN,0.000000,0.000000,NaN,NaN,10.100000,0.419957,195.560000,0.000000,2005.365000,0.000000,0.000000,0.000000,0.500000,0.000000,0.000000,0.967000,0.000000,0.000000,0.000000,-0.796000,0.000000,0.000000,0.000000,0.000000,0.098000,0.098000
0.120000,0.000,0,-0.000440,180.000000,0.000000,0.981239,0.000000,0.000000,-0.019077,-9.820342,0.000000,0.000000,0.000000,0.000000,0.060000,0.060000,0.070000,0.070000,0.000000,0.000000,0.000000,0.000000,0.000000,0.000000,0.000000,0.000000,0.000000,0.000000,0.000000,0.000000,0.000000,0.000000,0.000000,0.000000,0.000000,0.000000,10.487340,10.487340,0.000000,0.000000,-2.388885,-2.388885,0.000000,0.000000,0.000000,0.000000,0.000000,0.000000,-10.487340,-10.487340,0.000000,0.000000,0.000000,0.000000,0.000000,0.000000,0.000000,0.000000,0.000000,0.000000,0.000000,0.000000,0.030000,0.040000,0.000000,0.000000,0.224121,0.003912,1.000000,0.000000,1.000000,0.000000,0.000000,0.000000,0.000000,0.000000,-0.000322,0.000000,NaN,NaN,NaN,NaN,NaN,NaN,NaN,NaN,0.000000,0.000000,NaN,NaN,10.100000,0.398166,195.560000,0.000000,2002.933000,0.000000,0.000000,0.000000,0.500000,0.000000,0.000000,0.967000,0.000000,0.000000,0.000000,-0.796000,0.000000,0.000000,0.000000,0.000000,0.118000,0.118000
0.130000,0.000,0,-0.000440,180.000000,0.000000,0.981239,0.000000,0.000000,-0.022431,-9.822130,0.000000,0.000000,0.000000,0.000000,0.060000,0.060000,0.070000,0.070000,0.000000,0.000000,0.000000,0.000000,0.000000,0.000000,0.000000,0.000000,0.000000,0.000000,0.000000,0.000000,0.000000,0.000000,0.000000,0.000000,0.000000,0.000000,10.480970,10.480970,0.000000,0.000000,-2.388414,-2.388414,0.000000,0.000000,0.000000,0.000000,0.000000,0.000000,-10.480970,-10.480970,0.000000,0.000000,0.000000,0.000000,0.000000,0.000000,0.000000,0.000000,0.000000,0.000000,0.000000,0.000000,0.030000,0.040000,0.000000,0.000000,0.223908,0.003908,1.000000,0.000000,1.000000,0.000000,0.000000,0.000000,0.000000,0.000000,-0.000322,0.000000,NaN,NaN,NaN,NaN,NaN,NaN,NaN,NaN,0.000000,0.000000,NaN,NaN,10.100000,0.398166,195.560000,0.000000,2002.933000,0.000000,0.000000,0.000000,0.500000,0.000000,0.000000,0.967000,0.000000,0.000000,0.000000,-0.796000,0.000000,0.000000,0.000000,0.000000,0.118000,0.118000
0.140000,0.000,0,-0.000440,180.000000,0.000000,0.981239,0.000000,0.000000,-0.026052,-9.824158,0.000000,0.000000,0.000000,0.000000,0.060000,0.060000,0.070000,0.070000,0.000000,0.000000,0.000000,0.000000,0.000000,0.000000,0.000000,0.000000,0.000000,0.000000,0.000000,0.000000,0.000000,0.000000,0.000000,0.000000,0.000000,0.000000,10.474600,10.474600,0.000000,0.000000,-2.388519,-2.388519,0.000000,0.000000,0.000000,0.000000,0.000000,0.000000,-10.474600,-10.474600,0.000000,0.000000,0.000000,0.000000,0.000000,0.000000,0.000000,0.000000,0.000000,0.000000,0.000000,0.000000,0.030000,0.040000,0.000000,0.000000,0.223640,0.003903,1.000000,0.000000,1.000000,0.000000,0.000000,0.000000,0.000000,0.000000,-0.000514,0.000000,NaN,NaN,NaN,NaN,NaN,NaN,NaN,NaN,0.000015,0.000015,NaN,NaN,10.100000,0.372442,195.560000,0.000000,2000.500000,0.000000,0.000000,0.000000,0.500000,0.000000,0.000000,0.967000,0.000000,0.000000,0.000000,-0.796000,0.000015,0.000015,0.000015,0.000015,0.138000,0.138000
0.150000,0.000,0,-0.000440,180.000000,0.000000,0.981239,0.000000,0.000000,-0.029938,-9.826184,0.000000,0.000000,0.000000,0.000000,0.060000,0.060000,0.070000,0.070000,0.000000,0.000000,0.000000,0.000000,0.000000,0.000000,0.000000,0.000000,0.000000,0.000000,0.000000,0.000000,0.000000,0.000000,0.000000,0.000000,0.000000,0.000000,10.472230,10.472230,0.000000,0.000000,0.420835,0.420835,0.000000,0.000000,0.000000,0.000000,0.000000,0.000000,-10.472230,-10.472230,0.000000,0.000000,0.000000,0.000000,0.000000,0.000000,0.000000,0.000000,0.000000,0.000000,0.000000,0.000000,0.030000,0.040000,0.000000,0.000000,0.223305,0.003897,1.000000,0.000000,1.000000,0.000000,0.000000,0.000000,0.000000,0.000000,-0.000514,0.000000,NaN,NaN,NaN,NaN,NaN,NaN,NaN,NaN,0.000015,0.000015,NaN,NaN,10.100000,0.372442,195.560000,0.000000,2000.500000,0.000000,0.000000,0.000000,0.500000,0.000000,0.000000,0.967000,0.000000,0.000000,0.000000,-0.796000,0.000015,0.000015,0.000015,0.000015,0.138000,0.138000
0.160000,0.000,0,-0.000440,180.000000,0.000000,0.981239,0.000000,0.000000,-0.034089,-9.828568,0.000000,0.000000,0.000000,0.000000,0.060000,0.060000,0.070000,0.070000,0.000000,0.000000,0.000000,0.000000,0.000000,0.000000,0.000000,0.000000,0.000000,0.000000,0.000000,0.000000,0.000000,0.000000,0.000000,0.000000,0.000000,0.000000,10.472070,10.472070,0.000000,0.000000,-0.088666,-0.088666,0.000000,0.000000,0.000000,0.000000,0.000000,0.000000,-10.472070,-10.472070,0.000000,0.000000,0.000000,0.000000,0.000000,0.000000,0.000000,0.000000,0.000000,0.000000,0.000000,0.000000,0.030000,0.040000,0.000000,0.000000,0.222893,0.003890,1.000000,0.000000,1.000000,0.000000,0.000000,0.000000,0.000000,0.000000,-0.000769,0.000000,NaN,NaN,NaN,NaN,NaN,NaN,NaN,NaN,0.000015,0.000015,NaN,NaN,10.100000,0.342783,195.560000,0.000000,2000.017000,0.000000,0.417000,0.417000,0.000000,0.000000,0.000000,0.967000,0.000000,1.925000,0.000000,0.737000,0.000015,0.000015,0.000015,0.000015,0.158000,0.158000
0.170000,0.000,0,-0.000440,180.000000,0.000000,0.981239,0.000000,0.000000,-0.038503,-9.830954,0.000000,0.000000,0.000000,0.000000,0.060000,0.060000,0.070000,0.070000,0.000000,0.000000,0.000000,0.000000,0.000000,0.000000,0.000000,0.000000,0.000000,0.000000,0.000000,0.000000,0.000000,0.000000,0.000000,0.000000,0.000000,0.000000,10.472250,10.472250,0.000000,0.000000,0.529684,0.529684,0.000000,0.000000,0.000000,0.000000,0.000000,0.000000,-10.472250,-10.472250,0.000000,0.000000,0.000000,0.000000,0.000000,0.000000,0.000000,0.000000,0.000000,0.000000,0.000000,0.000000,0.030000,0.040000,0.000000,0.000000,0.222405,0.003882,1.000000,0.000000,1.000000,0.000000,0.000000,0.000000,0.000000,0.000000,-0.000769,0.000000,NaN,NaN,NaN,NaN,NaN,NaN,NaN,NaN,0.000015,0.000015,NaN,NaN,10.100000,0.342783,195.560000,0.000000,2000.017000,0.000000,0.417000,0.417000,0.000000,0.000000,0.000000,0.967000,0.000000,1.925000,0.000000,0.737000,0.000015,0.000015,0.000015,0.000015,0.158000,0.158000
0.180000,0.000,0,-0.000440,180.000000,0.000000,0.981239,0.000000,0.000000,-0.043178,-9.833457,0.000000,0.000000,0.000000,0.000000,0.060000,0.060000,0.070000,0.070000,0.000000,0.000000,0.000000,0.000000,0.000000,0.000000,0.000000,0.000000,0.000000,0.000000,0.000000,0.000000,0.000000,0.000000,0.000000,0.000000,0.000000,0.000000,10.472230,10.472230,0.000000,0.000000,0.506650,0.506650,0.000000,0.000000,0.000000,0.000000,0.000000,0.000000,-10.472230,-10.472230,0.000000,0.000000,0.000000,0.000000,0.000000,0.000000,0.000000,0.000000,0.000000,0.000000,0.000000,0.000000,0.030000,0.040000,0.000000,0.000000,0.221809,0.003871,1.000000,0.000000,1.000000,0.000000,0.000000,0.000000,0.000000,0.000000,-0.001098,0.000000,NaN,NaN,NaN,NaN,NaN,NaN,NaN,NaN,0.000031,0.000031,NaN,NaN,10.100000,0.309185,195.560000,0.000000,2000.047000,0.000000,0.508000,0.508000,0.000000,0.000000,0.000000,0.967000,0.000000,2.350000,0.000000,1.074000,0.000031,0.000031,0.000031,0.000031,0.177999,0.177999
0.190000,0.000,0,-0.000440,180.000000,0.000000,0.981239,0.000000,0.000000,-0.048112,-9.836200,0.000000,0.000000,0.000000,0.000000,0.060000,0.060000,0.070000,0.070000,0.000000,0.000000,0.000000,0.000000,0.000000,0.000000,0.000000,0.000000,0.000000,0.000000,0.000000,0.000000,0.000000,0.000000,0.000000,0.000000,0.000000,0.000000,10.472040,10.472040,0.000000,0.000000,-0.182702,-0.182702,0.000000,0.000000,0.000000,0.000000,0.000000,0.000000,-10.472040,-10.472040,0.000000,0.000000,0.000000,0.000000,0.000000,0.000000,0.000000,0.000000,0.000000,0.000000,0.000000,0.000000,0.030000,0.040000,0.000000,0.000000,0.221115,0.003859,1.000000,0.000000,1.000000,0.000000,0.000000,0.000000,0.000000,0.000000,-0.001098,0.000000,NaN,NaN,NaN,NaN,NaN,NaN,NaN,NaN,0.000031,0.000031,NaN,NaN,10.100000,0.309185,195.560000,0.000000,2000.047000,0.000000,0.508000,0.508000,0.000000,0.000000,0.000000,0.967000,0.000000,2.350000,0.000000,1.074000,0.000031,0.000031,0.000031,0.000031,0.177999,0.177999
0.200000,0.000,0,-0.003469,180.000000,0.000000,1.963949,0.000000,0.000000,-0.053305,-9.839062,0.000000,0.000000,0.000000,0.000000,0.060000,0.060000,0.070000,0.070000,0.000000,0.000000,0.000000,0.000000,0.000000,0.000000,0.000000,0.000000,0.000000,0.000000,0.000000,0.000000,0.000000,0.000000,0.000000,0.000000,0.000000,0.000000,10.472030,10.472030,0.000000,0.000000,0.308601,0.308601,0.000000,0.000000,0.000000,0.000000,0.000000,0.000000,-10.472030,-10.472030,0.000000,0.000000,0.000000,0.000000,0.000000,0.000000,0.000000,0.000000,0.000000,0.000000,0.000000,0.000000,0.030000,0.040000,0.000000,0.000000,0.220306,0.003845,1.000000,0.000000,1.000000,0.000000,0.000000,0.000000,0.000000,0.000000,-0.001508,0.000000,NaN,NaN,NaN,NaN,NaN,NaN,NaN,NaN,0.000046,0.000046,NaN,NaN,10.100000,0.271644,195.560000,0.000000,2000.010000,0.000000,0.395000,0.395000,0.000000,0.000000,0.000000,0.967000,0.000000,1.824000,0.000000,0.656000,0.000046,0.000046,0.000046,0.000046,0.197999,0.197999
0.210000,0.000,0,-0.003469,180.000000,0.000000,1.963949,0.000000,0.000000,-0.058753,-9.842044,0.000000,0.000000,0.000000,0.000000,0.060000,0.060000,0.070000,0.070000,0.000000,0.000000,0.000000,0.000000,0.000000,0.000000,0.000000,0.000000,0.000000,0.000000,0.000000,0.000000,0.000000,0.000000,0.000000,0.000000,0.000000,0.000000,10.472110,10.472110,0.000000,0.000000,0.394777,0.394777,0.000000,0.000000,0.000000,0.000000,0.000000,0.000000,-10.472110,-10.472110,0.000000,0.000000,0.000000,0.000000,0.000000,0.000000,0.000000,0.000000,0.000000,0.000000,0.000000,0.000000,0.030000,0.040000,0.000000,0.000000,0.219353,0.003828,1.000000,0.000000,1.000000,0.000000,0.000000,0.000000,0.000000,0.000000,-0.001508,0.000000,NaN,NaN,NaN,NaN,NaN,NaN,NaN,NaN,0.000046,0.000046,NaN,NaN,10.100000,0.271644,195.560000,0.000000,2000.010000,0.000000,0.395000,0.395000,0.000000,0.000000,0.000000,0.967000,0.000000,1.824000,0.000000,0.656000,0.000046,0.000046,0.000046,0.000046,0.197999,0.197999
0.220000,0.000,0,-0.003469,180.000000,0.000000,1.963949,0.000000,0.000000,-0.064455,-9.845145,0.000000,0.000000,0.000000,0.000000,0.060000,0.060000,0.070000,0.070000,0.000000,0.000000,0.000000,0.000000,0.000000,0.000000,0.000000,0.000000,0.000000,0.000000,0.000000,0.000000,0.000000,0.000000,0.000000,0.000000,0.000000,0.000000,10.471970,10.471970,0.000000,0.000000,-0.391462,-0.391462,0.000000,0.000000,0.000000,0.000000,0.000000,0.000000,-10.471970,-10.471970,0.000000,0.000000,0.000000,0.000000,0.000000,0.000000,0.000000,0.000000,0.000000,0.000000,0.000000,0.000000,0.030000,0.040000,0.000000,0.000000,0.218269,0.003810,1.000000,0.000000,1.000000,0.000000,0.000000,0.000000,0.000000,0.000000,-0.002010,0.000000,NaN,NaN,NaN,NaN,NaN,NaN,NaN,NaN,0.000183,0.000183,NaN,NaN,10.100000,0.230155,195.560200,0.000000,1999.998000,0.000000,0.362000,0.362000,0.000000,0.000000,0.000000,0.967000,0.000000,1.671000,0.000000,0.535000,0.000168,0.000168,0.000168,0.000168,0.217996,0.217996
0.230000,0.000,0,-0.003469,180.000000,0.000000,1.963949,0.000000,0.000000,-0.070409,-9.848485,0.000000,0.000000,0.000000,0.000000,0.060000,0.060000,0.070000,0.070000,0.000000,0.000000,0.000000,0.000000,0.000000,0.000000,0.000000,0.000000,0.000000,0.000000,0.000000,0.000000,0.000000,0.000000,0.000000,0.000000,0.000000,0.000000,10.471960,10.471960,0.000000,0.000000,-0.436391,-0.436391,0.000000,0.000000,0.000000,0.000000,0.000000,0.000000,-10.471960,-10.471960,0.000000,0.000000,0.000000,0.000000,0.000000,0.000000,0.000000,0.000000,0.000000,0.000000,0.000000,0.000000,0.030000,0.040000,0.000000,0.000000,0.217018,0.003788,1.000000,0.000000,1.000000,0.000000,0.000000,0.000000,0.000000,0.000000,-0.002010,0.000000,NaN,NaN,NaN,NaN,NaN,NaN,NaN,NaN,0.000183,0.000183,NaN,NaN,10.100000,0.230155,195.560200,0.000000,1999.998000,0.000000,0.362000,0.362000,0.000000,0.000000,0.000000,0.967000,0.000000,1.671000,0.000000,0.535000,0.000168,0.000168,0.000168,0.000168,0.217996,0.217996
0.240000,0.000,0,-0.003469,180.000000,0.000000,1.963949,0.000000,0.000000,-0.076613,-9.851945,0.000000,0.000000,0.000000,0.000000,0.060000,0.060000,0.070000,0.070000,0.000000,0.000000,0.000000,0.000000,0.000000,0.000000,0.000000,0.000000,0.000000,0.000000,0.000000,0.000000,0.000000,0.000000,0.000000,0.000000,0.000000,0.000000,10.472130,10.472130,0.000000,0.000000,0.126312,0.126312,0.000000,0.000000,0.000000,0.000000,0.000000,0.000000,-10.472130,-10.472130,0.000000,0.000000,0.000000,0.000000,0.000000,0.000000,0.000000,0.000000,0.000000,0.000000,0.000000,0.000000,0.030000,0.040000,0.000000,0.000000,0.215591,0.003763,1.000000,0.000000,1.000000,0.000000,0.000000,0.000000,0.000000,0.000000,-0.002613,0.000000,NaN,NaN,NaN,NaN,NaN,NaN,NaN,NaN,0.000366,0.000366,NaN,NaN,10.100000,0.184715,195.560400,0.000000,2000.030000,0.000000,0.456000,0.456000,0.000000,0.000000,0.000000,0.967000,0.000000,2.105000,0.000000,0.880000,0.000336,0.000336,0.000336,0.000336,0.237992,0.237991
0.250000,0.000,0,-0.003469,180.000000,0.000000,1.963949,0.000000,0.000000,-0.083065,-9.855524,0.000000,0.000000,0.000000,0.000000,0.060000,0.060000,0.070000,0.070000,0.000000,0.000000,0.000000,0.000000,0.000000,0.000000,0.000000,0.000000,0.000000,0.000000,0.000000,0.000000,0.000000,0.000000,0.000000,0.000000,0.000000,0.000000,10.471860,10.471860,0.000000,0.000000,-0.730618,-0.730618,0.000000,0.000000,0.000000,0.000000,0.000000,0.000000,-10.471860,-10.471860,0.000000,0.000000,0.000000,0.000000,0.000000,0.000000,0.000000,0.000000,0.000000,0.000000,0.000000,0.000000,0.030000,0.040000,0.000000,0.000000,0.213982,0.003735,1.000000,0.000000,1.000000,0.000000,0.000000,0.000000,0.000000,0.000000,-0.002613,0.000000,NaN,NaN,NaN,NaN,NaN,NaN,NaN,NaN,0.000366,0.000366,NaN,NaN,10.100000,0.184715,195.560400,0.000000,2000.030000,0.000000,0.456000,0.456000,0.000000,0.000000,0.000000,0.967000,0.000000,2.105000,0.000000,0.880000,0.000336,0.000336,0.000336,0.000336,0.237992,0.237991
0.260000,0.001,0,-0.003469,180.000000,0.000000,1.963949,0.000000,0.000000,-0.089761,-9.859344,0.000000,0.000000,0.000000,0.000000,0.060000,0.060000,0.070000,0.070000,0.000000,0.000000,0.000000,0.000000,0.000000,0.000000,0.000000,0.000000,0.000000,0.000000,0.000000,0.000000,0.000000,0.000000,0.000000,0.000000,0.000000,0.000000,10.471900,10.471900,0.000000,0.000000,-0.603775,-0.603775,0.000000,0.000000,0.000000,0.000000,0.000000,0.000000,-10.471900,-10.471900,0.000000,0.000000,0.000000,0.000000,0.000000,0.000000,0.000000,0.000000,0.000000,0.000000,0.000000,0.000000,0.030000,0.040000,0.000000,0.000000,0.212166,0.003703,1.000000,0.000000,1.000000,0.000000,0.000000,0.000000,0.000000,0.000000,-0.003326,0.000000,NaN,NaN,NaN,NaN,NaN,NaN,NaN,NaN,0.000549,0.000549,NaN,NaN,10.100000,0.135316,195.560600,0.000000,1999.986000,0.000000,0.323000,0.323000,0.000000,0.000000,0.000000,0.967000,0.000000,1.494000,0.000000,0.393000,0.000534,0.000534,0.000534,0.000534,0.257987,0.257986
0.270000,0.001,0,-0.003469,180.000000,0.000000,1.963949,0.000000,0.000000,-0.096700,-9.863401,0.000000,0.000000,0.000000,0.000000,0.060000,0.060000,0.070000,0.070000,0.000000,0.000000,0.000000,0.000000,0.000000,0.000000,0.000000,0.000000,0.000000,0.000000,0.000000,0.000000,0.000000,0.000000,0.000000,0.000000,0.000000,0.000000,10.472180,10.472180,0.000000,0.000000,0.267940,0.267940,0.000000,0.000000,0.000000,0.000000,0.000000,0.000000,-10.472180,-10.472180,0.000000,0.000000,0.000000,0.000000,0.000000,0.000000,0.000000,0.000000,0.000000,0.000000,0.000000,0.000000,0.030000,0.040000,0.000000,0.000000,0.210121,0.003667,1.000000,0.000000,1.000000,0.000000,0.000000,0.000000,0.000000,0.000000,-0.003326,0.000000,NaN,NaN,NaN,NaN,NaN,NaN,NaN,NaN,0.000549,0.000549,NaN,NaN,10.100000,0.135316,195.560600,0.000000,1999.986000,0.000000,0.323000,0.323000,0.000000,0.000000,0.000000,0.967000,0.000000,1.494000,0.000000,0.393000,0.000534,0.000534,0.000534,0.000534,0.257987,0.257986
0.280000,0.001,0,-0.003469,180.000000,0.000000,1.963949,0.000000,0.000000,-0.103879,-9.867460,0.000000,0.000000,0.000000,0.000000,0.060000,0.060000,0.070000,0.070000,0.000000,0.000000,0.000000,0.000000,0.000000,0.000000,0.000000,0.000000,0.000000,0.000000,0.000000,0.000000,0.000000,0.000000,0.000000,0.000000,0.000000,0.000000,10.472190,10.472190,0.000000,0.000000,0.300480,0.300480,0.000000,0.000000,0.000000,0.000000,0.000000,0.000000,-10.472190,-10.472190,0.000000,0.000000,0.000000,0.000000,0.000000,0.000000,0.000000,0.000000,0.000000,0.000000,0.000000,0.000000,0.030000,0.040000,0.000000,0.000000,0.207840,0.003628,1.000000,0.000000,1.000000,0.000000,0.000000,0.000000,0.000000,0.000000,-0.004159,0.000000,NaN,NaN,NaN,NaN,NaN,NaN,NaN,NaN,0.000732,0.000732,NaN,NaN,10.100000,0.081954,195.560800,0.000000,2000.040000,0.000000,0.487000,0.487000,0.000000,0.000000,0.000000,0.967000,0.000000,2.251000,0.000000,0.996000,0.000717,0.000717,0.000717,0.000717,0.277983,0.277982
0.290000,0.001,0,-0.003469,180.000000,0.000000,1.963949,0.000000,0.000000,-0.111296,-9.871640,0.000000,0.000000,0.000000,0.000000,0.060000,0.060000,0.070000,0.070000,0.000000,0.000000,0.000000,0.000000,0.000000,0.000000,0.000000,0.000000,0.000000,0.000000,0.000000,0.000000,0.000000,0.000000,0.000000,0.000000,0.000000,0.000000,10.472070,10.472070,0.000000,0.000000,-0.088951,-0.088951,0.000000,0.000000,0.000000,0.000000,0.000000,0.000000,-10.472070,-10.472070,0.000000,0.000000,0.000000,0.000000,0.000000,0.000000,0.000000,0.000000,0.000000,0.000000,0.000000,0.000000,0.030000,0.040000,0.000000,0.000000,0.205292,0.003583,1.000000,0.000000,1.000000,0.000000,0.000000,0.000000,0.000000,0.000000,-0.004159,0.000000,NaN,NaN,NaN,NaN,NaN,NaN,NaN,NaN,0.000732,0.000732,NaN,NaN,10.100000,0.081954,195.560800,0.000000,2000.040000,0.000000,0.487000,0.487000,0.000000,0.000000,0.000000,0.967000,0.000000,2.251000,0.000000,0.996000,0.000717,0.000717,0.000717,0.000717,0.277983,0.277982
0.300000,0.001,0,-0.001206,180.000000,0.000000,2.933996,0.000000,0.000000,4.794896,-2.672049,0.000000,0.000000,10139.000000,10139.000000,0.060000,0.060000,0.061565,0.061565,0.000000,0.000000,0.008435,0.008435,0.000000,0.000000,2.898261,2.898261,0.000000,0.000000,1433.882000,1433.882000,0.000000,0.000000,8694.781000,8694.781000,0.000000,0.000000,9.265635,9.265635,0.000000,0.000000,863.834200,863.834200,0.000000,0.000000,0.000000,0.000000,0.000000,0.000000,-9.281943,-9.281943,0.000000,0.000000,0.000000,0.000000,0.000000,0.000000,7519.582000,7519.582000,0.000000,0.000000,0.000000,0.000000,0.030000,0.031565,0.000000,0.000000,0.010635,0.000186,1.000000,0.000000,1.000000,0.000000,0.000000,0.000000,0.000000,0.000000,-0.023427,0.000000,NaN,NaN,13.423190,13.423190,NaN,NaN,0.000000,0.000000,0.000992,0.000992,NaN,NaN,10.100000,0.024605,195.561000,0.000000,1769.605000,0.000000,35.000000,35.000000,0.000000,0.000000,0.000000,0.967000,0.000000,171.225000,0.000000,367.834000,0.000946,0.000946,0.000946,0.000946,0.297977,0.297976
0.310000,0.001,0,-0.001206,180.000000,0.000000,2.933996,0.000000,0.000000,12.596680,27.636300,13283.580000,13283.580000,14536.570000,14536.570000,0.031311,0.031311,0.033313,0.033313,0.028689,0.028689,0.036687,0.036687,2.804354,2.804354,2.764299,2.764299,4877.188000,4877.188000,6236.731000,6236.731000,8413.059000,8413.059000,8292.896000,8292.896000,0.102141,0.102141,4.638985,4.638985,0.000000,0.000000,1173.137000,1173.137000,0.000000,0.000000,0.000000,0.000000,0.000000,0.000000,-4.536842,-4.536842,-0.000588,0.000588,0.000000,0.000000,-196.511100,-196.511100,10559.310000,10559.310000,199.114300,-199.114300,0.000000,0.000000,0.001311,0.003313,0.000000,0.000000,0.000000,0.000000,1.000000,0.000000,1.000000,0.000000,0.000000,0.000000,0.000000,0.000000,-0.023427,0.000000,NaN,NaN,13.423190,13.423190,NaN,NaN,0.000000,0.000000,0.000992,0.000992,NaN,NaN,10.100000,0.024605,195.561000,0.000000,1769.605000,0.000000,35.000000,35.000000,0.000000,0.000000,0.000000,0.967000,0.000000,171.225000,0.000000,367.834000,0.000946,0.000946,0.000946,0.000946,0.297977,0.297976
0.320000,0.003,0,-0.001206,180.000000,0.000000,2.933996,0.000000,0.000000,8.275045,41.752160,19931.700000,19931.700000,18313.930000,18313.930000,0.005678,0.005678,0.006944,0.006944,0.054322,0.054322,0.063056,0.063056,2.377093,2.377093,2.540916,2.540916,9234.734000,9234.734000,10719.570000,10719.570000,7131.278000,7131.278000,7622.747000,7622.747000,0.277239,0.277239,0.277244,0.277244,0.000000,0.000000,346.096400,346.096400,0.000000,0.000000,0.000000,0.000000,0.000000,0.000000,0.000000,0.000000,-0.001596,0.001596,0.000000,0.000000,-154.503800,-154.503800,999.148400,999.148400,810.934100,-810.934100,0.000000,0.000000,-0.024322,-0.023056,0.000000,0.000000,0.000000,0.000000,1.000000,0.000000,1.000000,0.000000,0.000000,0.000000,0.000000,0.000000,0.064239,0.000000,0.000000,0.000000,0.006959,0.006959,-1.174726,1.174726,0.000000,0.000000,0.003067,0.003067,NaN,NaN,10.100000,-0.029070,195.558500,0.000000,35.427000,0.000000,0.000000,0.000000,0.500000,0.000000,0.000000,0.882000,0.000000,202.860000,0.000000,42.574000,0.002548,0.002548,0.002548,0.002548,0.317938,0.317935
0.330000,0.006,0,-0.001206,180.000000,0.000000,2.933996,0.000000,-0.005308,2.063004,26.815940,15462.230000,15462.410000,11679.590000,11679.770000,0.000619,0.000619,0.000133,0.000133,0.059381,0.059381,0.069867,0.069867,-0.184670,-0.184611,-0.058636,-0.058576,10094.730000,10094.750000,11877.320000,11877.340000,-554.010300,-553.831400,-175.908200,-175.729400,0.288026,0.288030,0.288031,0.288035,0.000000,0.000000,606.267100,606.255500,0.000000,0.000000,0.000000,0.000000,0.000000,0.000000,0.000000,0.000000,-0.001701,0.001615,-0.000035,-0.000035,-83.245310,-83.276440,1937.642000,1937.576000,670.406900,-636.745200,10.569620,10.569780,-0.029381,-0.029867,0.000000,0.000000,0.000000,0.000000,1.000000,0.000000,1.000000,0.000000,0.000000,0.000000,0.000000,0.000000,0.064239,0.000000,0.000000,0.000000,0.006959,0.006959,-1.174726,1.174726,0.000000,0.000000,0.003067,0.003067,NaN,NaN,10.100000,-0.029070,195.558500,0.000000,35.427000,0.000000,0.000000,0.000000,0.500000,0.000000,0.000000,0.882000,0.000000,202.860000,0.000000,42.574000,0.002548,0.002548,0.002548,0.002548,0.317938,0.317935
0.340000,0.009,0,-0.001206,180.000000,0.000000,2.933996,0.000000,29.344210,2.233582,22.181410,13311.110000,12373.540000,11399.080000,10370.240000,0.004319,0.004761,0.001489,0.001930,0.055681,0.055239,0.068511,0.068070,-0.338420,-0.696957,-0.045359,-0.403911,9478.059000,9378.474000,11646.930000,11571.840000,-1015.260000,-2090.870000,-136.077300,-1211.732000,0.346974,0.342167,0.345948,0.343205,0.000000,0.000000,625.586200,591.501200,0.000000,0.000000,0.000000,0.000000,0.000000,0.000000,0.000000,0.000000,0.177282,0.181249,0.174280,0.174280,-99.489140,-21.783540,1995.300000,1940.381000,-11859.940000,-11064.920000,-10243.670000,-9383.144000,-0.025460,-0.028291,0.019782,0.019782,0.000000,0.000000,1.000000,0.000000,1.000000,0.000000,0.000000,34.084960,0.004807,0.002743,0.114932,-0.256120,0.000000,0.000000,0.047811,0.049742,21.486670,20.924120,20.339450,19.722140,0.009133,0.009133,NaN,NaN,10.099780,-0.024623,195.552300,0.000000,67.140000,0.000000,1.571000,1.571000,0.000000,0.000000,0.000000,0.892000,0.000000,205.302000,0.000000,201.141000,0.008439,0.008439,0.008439,0.008439,0.337794,0.337784
0.350000,0.013,0,-0.001206,180.000000,0.000000,2.933996,0.000000,-24.502730,2.411356,16.147350,9407.531000,9505.535000,9616.570000,9985.662000,0.010854,0.011460,0.004685,0.005292,0.049147,0.048540,0.065315,0.064708,-0.830322,-0.652760,-0.485808,-0.308275,8369.786000,8237.030000,11103.520000,11000.390000,-2490.960000,-1958.275000,-1457.418000,-924.822900,0.378737,0.379417,0.379209,0.378958,0.000000,0.000000,638.050900,585.085600,0.000000,0.000000,0.000000,0.000000,0.000000,0.000000,0.000000,0.000000,-0.083117,-0.078752,-0.081392,-0.081392,-25.973730,-36.504750,2092.835000,1921.807000,8583.522000,8664.683000,8756.668000,9063.064000,-0.018843,-0.025012,0.034264,0.034264,0.000000,0.000000,1.000000,0.000000,1.000000,0.000000,0.000000,34.084960,0.004807,0.002743,0.114932,-0.256120,0.000000,0.000000,0.047811,0.049742,21.486670,20.924120,20.339450,19.722140,0.009133,0.009133,NaN,NaN,10.099780,-0.024623,195.552300,0.000000,67.140000,0.000000,1.571000,1.571000,0.000000,0.000000,0.000000,0.892000,0.000000,205.302000,0.000000,201.141000,0.008439,0.008439,0.008439,0.008439,0.337794,0.337784
0.360000,0.017,0,-0.001206,180.000000,0.000000,2.933996,0.000000,19.286210,2.533558,9.755960,6499.180000,5710.077000,8770.259000,8147.236000,0.018748,0.019834,0.009436,0.010522,0.041252,0.040166,0.060564,0.059478,-0.763610,-0.928402,-0.482991,-0.647798,7035.219000,6806.340000,10295.870000,10111.220000,-2290.814000,-2785.186000,-1448.964000,-1943.381000,0.389040,0.392600,0.388529,0.393124,0.000000,0.000000,637.718400,589.922500,0.000000,0.000000,0.000000,0.000000,0.000000,0.000000,0.000000,0.000000,0.087553,0.092057,0.098164,0.098164,19.314330,-28.565700,2125.728000,1931.931000,-6191.050000,-5540.729000,-8056.980000,-7544.018000,-0.010709,-0.020021,0.048457,0.048457,0.000000,0.000000,1.000000,0.000000,1.000000,0.000000,0.000000,47.795840,-0.003560,-0.004595,0.110040,-0.117749,0.000000,0.000000,0.056217,0.052195,17.399510,16.926050,18.762160,18.388340,0.017019,0.017019,NaN,NaN,10.099330,-0.009253,195.544700,0.000000,74.754000,0.000000,1.798000,1.798000,0.000000,0.000000,0.000000,0.894000,0.000000,205.636000,0.000000,204.510000,0.016226,0.016226,0.016226,0.016226,0.357604,0.357584
0.370000,0.021,0,-0.001206,180.000000,0.000000,2.933996,0.000000,-14.356090,2.610512,3.943554,3240.830000,3434.724000,6759.316000,7087.922000,0.027557,0.028118,0.016264,0.016826,0.032443,0.031882,0.053736,0.053174,-0.928417,-0.768945,-0.793159,-0.633702,5524.454000,5410.850000,9135.097000,9039.551000,-2785.223000,-2306.811000,-2379.453000,-1901.086000,0.390375,0.381135,0.390709,0.380813,0.000000,0.000000,625.019200,604.745000,0.000000,0.000000,0.000000,0.000000,0.000000,0.000000,0.000000,0.000000,-0.059220,-0.054775,-0.074994,-0.074994,-34.512170,58.650630,2044.555000,2015.816000,3432.526000,3605.683000,6404.649000,6674.264000,-0.002162,-0.013455,0.019782,0.019782,0.000000,0.000000,1.000000,0.000000,1.000000,0.000000,0.000000,47.795840,-0.003560,-0.004595,0.110040,-0.117749,0.000000,0.000000,0.056217,0.052195,17.399510,16.926050,18.762160,18.388340,0.017019,0.017019,NaN,NaN,10.099330,-0.009253,195.544700,0.000000,74.754000,0.000000,1.798000,1.798000,0.000000,0.000000,0.000000,0.894000,0.000000,205.636000,0.000000,204.510000,0.016226,0.016226,0.016226,0.016226,0.357604,0.357584
0.380000,0.025,0,-0.001206,180.000000,0.000000,2.933996,0.000000,10.083130,2.634157,-0.455866,1843.677000,1605.241000,5418.985000,5188.526000,0.035751,0.036193,0.024143,0.024584,0.024249,0.023807,0.045857,0.045416,-0.755578,-0.814050,-0.790954,-0.849366,4127.713000,4041.971000,7795.678000,7720.569000,-2266.711000,-2442.126000,-2372.836000,-2548.072000,0.371042,0.378837,0.370836,0.379055,0.000000,0.000000,595.091200,633.669400,0.000000,0.000000,0.000000,0.000000,0.000000,0.000000,0.000000,0.000000,0.034679,0.039000,0.051789,0.051789,68.713170,-46.027410,1983.637000,2063.369000,-1629.897000,-1595.923000,-5299.233000,-5107.459000,0.005972,-0.005636,0.019782,0.019782,0.000000,0.000000,1.000000,0.000000,1.000000,0.000000,0.000000,-38.578250,-0.007795,-0.008219,-0.013878,-0.041827,0.000000,0.000000,0.072184,0.072689,11.288130,12.375110,16.751390,16.613120,0.024825,0.024825,NaN,NaN,10.099350,0.007574,195.537000,0.000000,71.358000,0.000000,1.726000,1.726000,0.000000,0.000000,0.000000,0.893000,0.000000,205.531000,0.000000,205.107000,0.024073,0.024073,0.024073,0.024073,0.377413,0.377383
0.390000,0.029,0,-0.001206,180.000000,0.000000,2.933996,0.000000,-6.187895,2.625788,-3.970708,610.394300,820.682000,3607.637000,3820.869000,0.043300,0.043321,0.032916,0.032936,0.016700,0.016679,0.037084,0.037064,-0.738263,-0.656739,-0.913650,-0.832155,2839.158000,2835.308000,6304.282000,6300.771000,-2214.771000,-1970.200000,-2740.927000,-2496.445000,0.375096,0.364960,0.375210,0.364858,0.000000,0.000000,590.008100,637.102300,0.000000,0.000000,0.000000,0.000000,0.000000,0.000000,0.000000,0.000000,-0.020897,-0.016633,-0.037590,-0.037589,-59.058560,63.740940,1906.146000,2123.674000,325.163100,347.969400,3456.968000,3661.272000,0.013310,0.002926,0.000000,0.000000,0.000000,0.000000,1.000000,0.000000,1.000000,0.000000,0.000000,-38.578250,-0.007795,-0.008219,-0.013878,-0.041827,0.000000,0.000000,0.072184,0.072689,11.288130,12.375110,16.751390,16.613120,0.024825,0.024825,NaN,NaN,10.099350,0.007574,195.537000,0.000000,71.358000,0.000000,1.726000,1.726000,0.000000,0.000000,0.000000,0.893000,0.000000,205.531000,0.000000,205.107000,0.024073,0.024073,0.024073,0.024073,0.377413,0.377383
0.400000,0.032,0,0.437973,1.353641,0.010213,0.839260,-0.000127,0.221194,2.657740,-7.038681,0.000000,0.000000,2204.742000,2287.689000,0.049766,0.049603,0.041770,0.041607,0.010234,0.010397,0.028230,0.028393,-0.606388,-0.585675,-0.881866,-0.861093,1738.947000,1768.331000,4799.095000,4826.797000,-1696.757000,-1718.629000,-2645.583000,-2583.267000,0.373453,0.373287,0.373450,0.373628,0.000000,0.000000,581.875600,643.533600,0.000000,0.000000,0.000000,0.000000,0.000000,0.000325,0.000000,0.000000,-0.000548,0.003757,0.001929,0.001929,-8.854272,-10.994740,1934.380000,2127.195000,0.000000,0.000000,-108.434800,-112.514300,0.019684,0.011688,0.000000,0.000000,0.000000,0.000000,1.000000,0.000000,1.000000,0.000000,0.000000,-61.657960,0.000166,-0.000178,-0.108008,0.014820,-0.076972,-0.126056,0.128817,0.137802,0.000000,0.000000,0.651633,0.657008,0.032300,0.032300,NaN,NaN,10.099370,0.021118,195.529600,0.000000,71.533000,0.000000,1.714000,1.714000,0.000000,0.000000,0.000000,0.893000,0.000000,205.513000,0.000000,203.951000,0.031552,0.031552,0.031552,0.031552,0.397231,0.397191
0.410000,0.036,0,0.437973,1.353641,0.010213,0.839260,-0.000127,-0.045766,1.585308,-8.793094,0.000000,0.000000,922.312300,1034.839000,0.055211,0.054843,0.050306,0.049938,0.004789,0.005157,0.019694,0.020062,-0.503197,-0.484392,-0.828400,-0.809610,813.296500,877.676000,3347.929000,3410.479000,-762.448400,-820.141800,-2485.196000,-2428.825000,0.382258,0.382091,0.761113,0.761113,0.000000,0.000000,538.241200,570.342800,0.000000,0.000000,0.000000,0.000000,0.001054,0.000742,-0.377807,-0.378261,-0.000027,0.004387,0.001356,0.001356,-11.011940,-11.010520,949.455100,1056.460000,0.000000,0.000000,-31.884570,-35.774610,0.025027,0.020122,-0.019782,-0.019782,0.000000,0.000000,1.000000,0.000000,1.000000,0.000000,0.000000,-61.657960,0.000166,-0.000178,-0.108008,0.014820,-0.076972,-0.126056,0.128817,0.137802,0.000000,0.000000,0.651633,0.657008,0.032300,0.032300,NaN,NaN,10.099370,0.021118,195.529600,0.000000,71.533000,0.000000,1.714000,1.714000,0.000000,0.000000,0.000000,0.893000,0.000000,205.513000,0.000000,203.951000,0.031552,0.031552,0.031552,0.031552,0.397231,0.397191
0.420000,0.040,0,0.437973,1.353641,0.010213,0.839260,-0.000127,0.001839,0.163774,-10.154380,0.000000,0.000000,0.000000,0.000000,0.059628,0.059116,0.058063,0.057550,0.000372,0.000884,0.011937,0.012450,-0.400782,-0.389963,-0.736058,-0.725240,63.132710,150.525400,2029.345000,2116.416000,-9.187294,-92.747270,-2089.319000,-2172.712000,0.387249,0.387276,1.864482,1.864482,0.000000,0.000000,506.626900,506.626900,0.000000,0.000000,0.000000,0.000000,0.000000,0.000000,-1.477255,-1.477172,0.002589,0.007052,0.004973,0.004973,-1.482548,-2.545820,10.789970,10.789970,0.000000,0.000000,0.000000,0.000000,0.029372,0.027807,-0.019782,-0.019782,0.000000,0.000000,1.000000,0.000000,1.000000,0.000000,0.000000,0.000000,-0.000027,0.000000,-0.131477,0.007729,0.000003,0.000006,1.751258,1.751099,0.000000,0.000000,0.735758,0.735600,0.039991,0.039991,NaN,NaN,10.099310,0.030451,195.521800,0.000000,356.089000,0.000000,7.958000,7.958000,0.000000,0.000000,0.000000,0.926000,0.000000,213.142000,0.000000,169.139000,0.039212,0.039212,0.039212,0.039212,0.417044,0.416995
0.430000,0.044,0,0.437973,1.353641,0.010213,0.839260,-0.000127,0.003853,0.014399,-10.096230,0.000000,0.000000,0.000000,0.000000,0.060000,0.060000,0.064782,0.064150,0.000000,0.000000,0.005218,0.005850,0.000000,0.000000,-0.628829,-0.616968,0.000000,0.000000,887.106400,994.473400,0.000000,0.000000,-945.075100,-1048.409000,0.387249,0.387276,3.227233,3.227233,0.000000,0.000000,518.618300,518.618300,0.000000,0.000000,0.000000,0.000000,-0.387249,-0.387276,-2.837698,-2.837635,0.000000,0.000000,0.004472,0.004472,0.000000,0.000000,10.790020,10.790020,0.000000,0.000000,0.000000,0.000000,0.030000,0.034466,0.000000,-0.019782,0.061844,0.001079,1.000000,0.000000,1.000000,0.000000,0.000000,0.000000,-0.000027,0.000000,-0.131477,0.007729,0.000003,0.000006,1.751258,1.751099,0.000000,0.000000,0.735758,0.735600,0.039991,0.039991,NaN,NaN,10.099310,0.030451,195.521800,0.000000,356.089000,0.000000,7.958000,7.958000,0.000000,0.000000,0.000000,0.926000,0.000000,213.142000,0.000000,169.139000,0.039212,0.039212,0.039212,0.039212,0.417044,0.416995
0.440000,0.048,0,0.437973,1.353641,0.010213,0.839260,-0.000127,0.005215,0.028160,-10.035780,0.000000,0.000000,0.000000,0.000000,0.060000,0.060000,0.070000,0.069683,0.000000,0.000000,0.000000,0.000317,0.000000,0.000000,0.000000,-0.510871,0.000000,0.000000,0.000000,53.932930,0.000000,0.000000,0.000000,-106.049600,0.387249,0.387276,4.614311,4.614311,0.000000,0.000000,523.597400,526.834200,0.000000,0.000000,0.000000,0.000000,-0.387249,-0.387276,-4.614311,-4.222610,0.000000,0.000000,0.000000,0.004432,0.000000,0.000000,0.000000,10.790030,0.000000,0.000000,0.000000,0.000000,0.030000,0.039841,0.000000,0.000000,0.111565,0.001947,1.000000,0.000000,1.000000,0.000000,0.000000,-3.236816,-0.000027,0.000000,-0.122395,0.008451,NaN,NaN,NaN,5.316347,NaN,NaN,NaN,0.648214,0.047880,0.047880,NaN,NaN,10.099210,0.035856,195.513900,0.000000,881.268000,0.000000,20.583000,20.583000,0.000000,0.000000,0.000000,0.960000,0.000000,220.852000,0.000000,175.160000,0.047086,0.047086,0.047086,0.047086,0.436852,0.436793
0.450000,0.052,0,0.437973,1.353641,0.010213,0.839260,-0.000127,0.006188,0.026696,-9.812139,0.000000,0.000000,0.000000,0.000000,0.060000,0.060000,0.070000,0.070000,0.000000,0.000000,0.000000,0.000000,0.000000,0.000000,0.000000,0.000000,0.000000,0.000000,0.000000,0.000000,0.000000,0.000000,0.000000,0.000000,0.387249,0.387276,6.019680,6.019680,0.000000,0.000000,528.017600,528.017600,0.000000,0.000000,0.000000,0.000000,-0.387249,-0.387276,-6.019680,-6.019680,0.000000,0.000000,0.000000,0.000000,0.000000,0.000000,0.000000,0.000000,0.000000,0.000000,0.000000,0.000000,0.030000,0.040000,0.000000,-0.019782,0.045136,0.000788,1.000000,0.000000,1.000000,0.000000,0.000000,-3.236816,-0.000027,0.000000,-0.122395,0.008451,NaN,NaN,NaN,5.316347,NaN,NaN,NaN,0.648214,0.047880,0.047880,NaN,NaN,10.099210,0.035856,195.513900,0.000000,881.268000,0.000000,20.583000,20.583000,0.000000,0.000000,0.000000,0.960000,0.000000,220.852000,0.000000,175.160000,0.047086,0.047086,0.047086,0.047086,0.436852,0.436793
0.460000,0.056,0,0.437973,1.353641,0.010213,0.839260,-0.000127,0.007128,0.039264,-9.811783,0.000000,0.000000,0.000000,0.000000,0.060000,0.060000,0.070000,0.070000,0.000000,0.000000,0.000000,0.000000,0.000000,0.000000,0.000000,0.000000,0.000000,0.000000,0.000000,0.000000,0.000000,0.000000,0.000000,0.000000,0.387249,0.387276,7.429338,7.429338,0.000000,0.000000,528.819500,528.819500,0.000000,0.000000,0.000000,0.000000,-0.387249,-0.387276,-7.429338,-7.429338,0.000000,0.000000,0.000000,0.000000,0.000000,0.000000,0.000000,0.000000,0.000000,0.000000,0.000000,0.000000,0.030000,0.040000,0.000000,0.000000,-0.024864,-0.000434,1.000000,0.000000,1.000000,0.000000,0.000000,0.000000,-0.000027,0.000000,-0.122184,0.009585,NaN,NaN,NaN,NaN,NaN,NaN,NaN,NaN,0.055800,0.055800,NaN,NaN,10.099130,0.037395,195.506000,0.000000,1418.899000,0.000000,33.526000,33.526000,0.000000,0.000000,0.000000,0.966000,0.000000,222.402000,0.000000,176.275000,0.055006,0.055006,0.055006,0.055006,0.456658,0.456590
0.470000,0.060,0,0.437973,1.353641,0.010213,0.839260,-0.000127,0.008068,0.051565,-9.811545,0.000000,0.000000,0.000000,0.000000,0.060000,0.060000,0.070000,0.070000,0.000000,0.000000,0.000000,0.000000,0.000000,0.000000,0.000000,0.000000,0.000000,0.000000,0.000000,0.000000,0.000000,0.000000,0.000000,0.000000,0.387249,0.387276,8.761622,8.761622,0.000000,0.000000,469.036100,469.036100,0.000000,0.000000,0.000000,0.000000,-0.387249,-0.387276,-8.761622,-8.761622,0.000000,0.000000,0.000000,0.000000,0.000000,0.000000,0.000000,0.000000,0.000000,0.000000,0.000000,0.000000,0.030000,0.040000,0.000000,0.000000,-0.094879,-0.001656,1.000000,0.000000,1.000000,0.000000,0.000000,0.000000,-0.000027,0.000000,-0.122184,0.009585,NaN,NaN,NaN,NaN,NaN,NaN,NaN,NaN,0.055800,0.055800,NaN,NaN,10.099130,0.037395,195.506000,0.000000,1418.899000,0.000000,33.526000,33.526000,0.000000,0.000000,0.000000,0.966000,0.000000,222.402000,0.000000,176.275000,0.055006,0.055006,0.055006,0.055006,0.456658,0.456590
0.480000,0.064,0,0.437973,1.353641,0.010213,0.839260,-0.000127,0.009008,0.063600,-9.811450,0.000000,0.000000,0.000000,0.000000,0.060000,0.060000,0.070000,0.070000,0.000000,0.000000,0.000000,0.000000,0.000000,0.000000,0.000000,0.000000,0.000000,0.000000,0.000000,0.000000,0.000000,0.000000,0.000000,0.000000,0.387249,0.387276,9.916579,9.916579,0.000000,0.000000,412.101500,412.101500,0.000000,0.000000,0.000000,0.000000,-0.387249,-0.387276,-9.916579,-9.916579,0.000000,0.000000,0.000000,0.000000,0.000000,0.000000,0.000000,0.000000,0.000000,0.000000,0.000000,0.000000,0.030000,0.040000,0.000000,0.000000,-0.164902,-0.002878,1.000000,0.000000,1.000000,0.000000,0.000000,0.000000,-0.000027,0.000000,-0.122211,0.009585,NaN,NaN,NaN,NaN,NaN,NaN,NaN,NaN,0.063735,0.063735,NaN,NaN,10.099050,0.035011,195.498100,0.000000,1893.927000,0.000000,35.000000,35.000000,0.000000,0.000000,0.000000,0.967000,0.000000,172.549000,0.000000,136.584000,0.062941,0.062941,0.062941,0.062941,0.476465,0.476386
0.490000,0.068,0,0.437973,1.353641,0.010213,0.839260,-0.000127,0.009948,0.075354,-9.811495,0.000000,0.000000,0.000000,0.000000,0.060000,0.060000,0.070000,0.070000,0.000000,0.000000,0.000000,0.000000,0.000000,0.000000,0.000000,0.000000,0.000000,0.000000,0.000000,0.000000,0.000000,0.000000,0.000000,0.000000,0.387249,0.387276,10.507520,10.507520,0.000000,0.000000,-2.388656,-2.388656,0.000000,0.000000,0.000000,0.000000,-0.387249,-0.387276,-10.507520,-10.507520,0.000000,0.000000,0.000000,0.000000,0.000000,0.000000,0.000000,0.000000,0.000000,0.000000,0.000000,0.000000,0.030000,0.040000,0.019782,0.019782,-0.234924,-0.004100,1.000000,0.000000,1.000000,0.000000,0.000000,0.000000,-0.000027,0.000000,-0.122211,0.009585,NaN,NaN,NaN,NaN,NaN,NaN,NaN,NaN,0.063735,0.063735,NaN,NaN,10.099050,0.035011,195.498100,0.000000,1893.927000,0.000000,35.000000,35.000000,0.000000,0.000000,0.000000,0.967000,0.000000,172.549000,0.000000,136.584000,0.062941,0.062941,0.062941,0.062941,0.476465,0.476386
0.500000,0.072,0,0.466863,1.129865,0.009428,0.527373,-0.000524,-0.125774,0.059561,-8.883721,0.000000,1343.250000,0.000000,0.000000,0.060000,0.058460,0.070000,0.070000,0.000000,0.001540,0.000000,0.000000,0.000000,0.376865,0.000000,0.000000,0.000000,263.025800,0.000000,0.000000,0.000000,1130.547000,0.000000,0.000000,0.387249,0.393287,10.501160,10.501160,0.000000,0.000000,-2.388761,-2.388761,0.000000,0.000000,0.000000,0.000000,-0.387249,0.000000,-10.501160,-10.501160,0.000000,0.013355,0.000000,0.000000,0.000000,-12.765930,0.000000,0.000000,0.000000,-457.288500,0.000000,0.000000,0.029230,0.040000,-0.062557,0.000000,-0.287285,-0.005014,1.000000,0.000000,1.000000,0.000000,0.000000,0.000000,-0.006038,0.000000,-0.119167,-0.004298,NaN,0.000000,NaN,NaN,NaN,4.116206,NaN,NaN,0.071639,0.071639,NaN,NaN,10.098950,0.028717,195.490200,0.000000,2005.573000,0.000000,0.000000,0.000000,0.500000,0.000000,0.000000,0.967000,0.000000,0.000000,0.000000,-0.796000,0.070861,0.070861,0.070861,0.070861,0.496272,0.496183
0.510000,0.076,0,0.466863,1.129865,0.009428,0.527373,-0.000524,-0.128302,0.020189,-7.098945,1932.816000,2163.564000,0.000000,0.000000,0.055844,0.054426,0.070000,0.070000,0.004156,0.005574,0.000000,0.000000,0.422299,0.415936,0.000000,0.000000,703.504600,951.401700,0.000000,0.000000,1266.829000,1247.742000,0.000000,0.000000,0.408913,0.416625,10.494790,10.494790,0.000000,0.000000,-2.388290,-2.388290,0.000000,0.000000,0.000000,0.000000,0.000000,0.000000,-10.494790,-10.494790,-0.000756,0.003987,0.000000,0.000000,-29.719120,-33.168210,0.000000,0.000000,37.265590,-219.913300,0.000000,0.000000,0.025135,0.040000,-0.059347,0.000000,-0.253502,-0.004424,1.000000,0.000000,1.000000,0.000000,0.000000,0.000000,-0.006038,0.000000,-0.119167,-0.004298,NaN,0.000000,NaN,NaN,NaN,4.116206,NaN,NaN,0.071639,0.071639,NaN,NaN,10.098950,0.028717,195.490200,0.000000,2005.573000,0.000000,0.000000,0.000000,0.500000,0.000000,0.000000,0.967000,0.000000,0.000000,0.000000,-0.796000,0.070861,0.070861,0.070861,0.070861,0.496272,0.496183
0.520000,0.080,0,0.466863,1.129865,0.009428,0.527373,-0.000524,-0.096399,-0.011920,-6.081205,2691.945000,2896.245000,0.000000,0.000000,0.051570,0.050251,0.070000,0.070000,0.008430,0.009749,0.000000,0.000000,0.427008,0.414953,0.000000,0.000000,1427.502000,1663.701000,0.000000,0.000000,1280.948000,1244.785000,0.000000,0.000000,0.438398,0.448371,10.488420,10.488420,0.000000,0.000000,-2.388965,-2.388965,0.000000,0.000000,0.000000,0.000000,0.000000,0.000000,-10.488420,-10.488420,-0.001595,0.003501,0.000000,0.000000,-41.276820,-43.891970,0.000000,0.000000,109.430400,-258.473000,0.000000,0.000000,0.020910,0.040000,-0.059347,0.000000,-0.190598,-0.003327,1.000000,0.000000,1.000000,0.000000,0.000000,0.000000,-0.009973,0.000000,-0.033801,-0.008675,0.000000,0.000000,NaN,NaN,-0.564439,1.262526,NaN,NaN,0.079956,0.079956,NaN,NaN,10.098890,0.020127,195.481800,0.000000,2003.140000,0.000000,0.000000,0.000000,0.500000,0.000000,0.000000,0.967000,0.000000,0.000000,0.000000,-0.796000,0.079071,0.079071,0.079071,0.079071,0.516071,0.515973
0.530000,0.085,0,0.466863,1.129865,0.009428,0.527373,-0.000524,-0.077730,-0.045254,-5.203178,3353.522000,3521.292000,0.000000,0.000000,0.047419,0.046253,0.070000,0.070000,0.012581,0.013747,0.000000,0.000000,0.403821,0.386417,0.000000,0.000000,2131.368000,2344.813000,0.000000,0.000000,1211.394000,1159.183000,0.000000,0.000000,0.476103,0.487920,10.482050,10.482050,0.000000,0.000000,-2.388785,-2.388785,0.000000,0.000000,0.000000,0.000000,0.000000,0.000000,-10.482050,-10.482050,-0.002160,0.003380,0.000000,0.000000,-50.726290,-52.825120,0.000000,0.000000,184.629700,-303.396000,0.000000,0.000000,0.016836,0.040000,-0.048457,0.000000,-0.096077,-0.001677,1.000000,0.000000,1.000000,0.000000,0.000000,0.000000,-0.009973,0.000000,-0.033801,-0.008675,0.000000,0.000000,NaN,NaN,-0.564439,1.262526,NaN,NaN,0.079956,0.079956,NaN,NaN,10.098890,0.020127,195.481800,0.000000,2003.140000,0.000000,0.000000,0.000000,0.500000,0.000000,0.000000,0.967000,0.000000,0.000000,0.000000,-0.796000,0.079071,0.079071,0.079071,0.079071,0.516071,0.515973
0.540000,0.090,0,0.466863,1.129865,0.009428,0.527373,-0.000524,-0.119379,0.616533,-3.580209,3919.955000,3991.875000,1530.754000,2104.072000,0.043623,0.042693,0.069050,0.068121,0.016377,0.017307,0.000950,0.001879,0.368148,0.329271,0.474829,0.608847,2776.415000,2950.094000,161.433900,319.482300,1104.389000,987.763400,1424.416000,1826.448000,0.519426,0.534599,10.295530,10.295530,0.000000,0.000000,224.464100,366.956100,0.000000,0.000000,0.000000,0.000000,0.000000,0.000000,-9.776134,-9.760894,0.002748,0.008804,0.033490,0.033490,-53.250160,-66.920620,1462.621000,1937.599000,-274.562200,-895.948200,-4.964617,-6.571549,0.013158,0.038585,-0.039565,-0.039565,0.000000,0.000000,1.000000,0.000000,1.000000,0.000000,0.000000,-142.492000,-0.015173,0.000000,0.109629,-0.027754,0.000000,0.000000,12.170990,12.125110,1.079642,3.478930,3.689250,3.584378,0.089584,0.089584,NaN,NaN,10.098870,0.012171,195.472000,0.000000,1966.302000,0.000000,0.000000,0.000000,0.500000,0.000000,0.000000,0.967000,0.000000,0.000000,0.000000,57.768000,0.088547,0.088547,0.088547,0.088547,0.535840,0.535730
0.550000,0.095,0,0.466863,1.129865,0.009428,0.527373,-0.000524,-0.195181,3.498712,0.636768,4367.251000,4385.485000,3436.979000,3442.103000,0.040230,0.039659,0.062077,0.061507,0.019770,0.020341,0.007923,0.008493,0.317127,0.282571,0.722125,0.687554,3355.139000,3463.608000,1346.797000,1443.815000,951.344500,847.681000,2166.296000,2062.587000,0.574625,0.593731,9.731934,9.731934,0.000000,0.000000,587.717300,588.833100,0.000000,0.000000,0.000000,0.000000,0.000000,0.000000,-9.157293,-9.138202,-0.004629,0.002092,0.033449,0.033449,-72.349180,-76.579530,2951.726000,2955.448000,515.298800,-233.852500,-10.645670,-10.681120,0.009945,0.031792,-0.019782,-0.019782,0.000000,0.000000,1.000000,0.000000,1.000000,0.000000,0.000000,-142.492000,-0.015173,0.000000,0.109629,-0.027754,0.000000,0.000000,12.170990,12.125110,1.079642,3.478930,3.689250,3.584378,0.089584,0.089584,NaN,NaN,10.098870,0.012171,195.472000,0.000000,1966.302000,0.000000,0.000000,0.000000,0.500000,0.000000,0.000000,0.967000,0.000000,0.000000,0.000000,57.768000,0.088547,0.088547,0.088547,0.088547,0.535840,0.535730
0.560000,0.101,0,0.466863,1.129865,0.009428,0.527373,-0.000524,0.247708,4.708684,2.809795,4689.521000,4640.706000,4778.346000,4722.506000,0.037407,0.037185,0.054638,0.054417,0.022593,0.022815,0.015362,0.015583,0.258580,0.223532,0.752866,0.717729,3838.261000,3880.902000,2611.430000,2649.032000,775.721900,670.581600,2258.547000,2153.139000,0.637498,0.654577,8.647840,8.647840,0.000000,0.000000,697.709700,686.160400,0.000000,0.000000,0.000000,0.000000,0.000000,0.000000,-8.010338,-7.993246,-0.002561,0.004884,0.032248,0.032249,-82.766990,-74.993640,3897.691000,3859.194000,306.133600,-577.821500,-15.335460,-15.214880,0.007296,0.024528,0.000000,0.000000,0.000000,0.000000,1.000000,0.000000,1.000000,0.000000,0.000000,11.549320,-0.017079,0.000000,0.193843,-0.024945,0.000000,0.000000,9.493967,9.390590,-1.065084,2.024517,2.895879,2.820431,0.101151,0.101151,NaN,NaN,10.098890,0.006341,195.460200,0.000000,1651.615000,0.000000,35.000000,35.000000,0.000000,0.000000,0.000000,0.967000,0.000000,192.650000,0.000000,235.240000,0.099884,0.099884,0.099884,0.099884,0.555564,0.555439
