TIME,DISTANCE,MARKERS,SPEED,SPEEDANGLE,SPEEDLAT,VELOCITY,YAWRATE,ACCELERATIONLAT,ACCELERATIONLONG,ACCELERATIONVERT,SUSPENSIONLOADFL,SUSPENSIONLOADFR,SUSPENSIONLOADRL,SUSPENSIONLOADRR,SUSPENSIONTRAVELFL,SUSPENSIONTRAVELFR,SUSPENSIONTRAVELRL,SUSPENSIONTRAVELRR,SUSPENSIONCONTACTDEPTHFL,SUSPENSIONCONTACTDEPTHFR,SUSPENSIONCONTACTDEPTHRL,SUSPENSIONCONTACTDEPTHRR,SUSPENSIONCONTACTSPEEDFL,SUSPENSIONCONTACTSPEEDFR,SUSPENSIONCONTACTSPEEDRL,SUSPENSIONCONTACTSPEEDRR,SUSPENSIONSPRINGFORCEFL,SUSPENSIONSPRINGFORCEFR,SUSPENSIONSPRINGFORCERL,SUSPENSIONSPRINGFORCERR,SUSPENSIONDAMPERFORCEFL,SUSPENSIONDAMPERFORCEFR,SUSPENSIONDAMPERFORCERL,SUSPENSIONDAMPERFORCERR,WHEELSPINFL,WHEELSPINFR,WHEELSPINRL,WHEELSPINRR,WHEELSHAFTTORQUEFL,WHEELSHAFTTORQUEFR,WHEELSHAFTTORQUERL,WHEELSHAFTTORQUERR,WHEELBRAKETORQUEFL,WHEELBRAKETORQUEFR,WHEELBRAKETORQUERL,WHEELBRAKETORQUERR,TIRESLIPLONGFL,TIRESLIPLONGFR,TIRESLIPLONGRL,TIRESLIPLONGRR,TIRESLIPLATFL,TIRESLIPLATFR,TIRESLIPLATRL,TIRESLIPLATRR,TIREFORCELONGFL,TIREFORCELONGFR,TIREFORCELONGRL,TIREFORCELONGRR,TIREFORCELATFL,TIREFORCELATFR,TIREFORCELATRL,TIREFORCELATRR,RIDEHEIGHTFRONT,RIDEHEIGHTREAR,ROLLANGLEFRONT,ROLLANGLEREAR,GROUNDSLOPE,GROUNDGRADE,GEAR,STEERINGANGLE,THROTTLE,BRAKEPRESSURE,TORQUEDIFFFRONT,TORQUEDIFFREAR,SPEEDDIFFFRONT,SPEEDDIFFREAR,PITCHRATE,ROLLRATE,SLIPRATIOFL,SLIPRATIOFR,SLIPRATIORL,SLIPRATIORR,SLIPANGLEFL,SLIPANGLEFR,SLIPANGLERL,SLIPANGLERR,LAPDISTANCE,TOTALDISTANCE,FORCEFEEDBACKFORCERATIO,FORCEFEEDBACKDAMPERRATIO,POSITIONX,POSITIONY,POSITIONZ,MOTORRPMFRONT,MOTORRPMREAR,POWERELECTRICALFRONT,POWERELECTRICALREAR,POWERELECTRICALTOTAL,POWERBALANCE,WHEELTORQUEBALANCE,EFFICIENCYFRONT,EFFICIENCYREAR,TORQUEMECHANICALFRONT,TORQUEMECHANICALREAR,TORQUEROTORFRONT,TORQUEROTORREAR,919SPEED,IDRSPEED,919TRAVELEDDISTANCE,IDRTRAVELEDDISTANCE,919TIMEDIFF,IDRTIMEDIFF
0.000000,0.000,0,0.000000,0.000000,0.000000,0.000000,0.000000,0.000000,0.000000,0.000000,0.000000,0.000000,0.000000,0.000000,0.060000,0.060000,0.070000,0.070000,0.000000,0.000000,0.000000,0.000000,0.000000,0.000000,0.000000,0.000000,0.000000,0.000000,0.000000,0.000000,0.000000,0.000000,0.000000,0.000000,0.000000,0.000000,0.000000,0.000000,0.000000,0.000000,0.000000,0.000000,0.000000,0.000000,0.000000,0.000000,0.000000,0.000000,0.000000,0.000000,0.000000,0.000000,0.000000,0.000000,0.000000,0.000000,0.000000,0.000000,0.000000,0.000000,0.000000,0.000000,0.030000,0.040000,0.000000,0.000000,0.224686,0.003922,0.000000,0.000000,0.000000,0.000000,0.000000,0.000000,0.000000,0.000000,0.000000,0.000000,NaN,NaN,NaN,NaN,NaN,NaN,NaN,NaN,0.000000,0.000000,NaN,NaN,10.100000,0.470000,195.560000,0.000000,0.000000,0.000000,0.000000,0.000000,0.500000,0.500000,0.000000,0.000000,0.000000,0.000000,0.000000,0.000000,0.000000,0.000000,0.000000,0.000000,0.000000,0.000000
0.010000,0.000,0,0.000000,0.000000,0.000000,0.000000,0.000000,0.000000,-0.000088,-9.810049,0.000000,0.000000,0.000000,0.000000,0.060000,0.060000,0.070000,0.070000,0.000000,0.000000,0.000000,0.000000,0.000000,0.000000,0.000000,0.000000,0.000000,0.000000,0.000000,0.000000,0.000000,0.000000,0.000000,0.000000,0.000000,0.000000,0.000000,0.000000,0.000000,0.000000,0.000000,0.000000,0.000000,0.000000,0.000000,0.000000,0.000000,0.000000,0.000000,0.000000,0.000000,0.000000,0.000000,0.000000,0.000000,0.000000,0.000000,0.000000,0.000000,0.000000,0.000000,0.000000,0.030000,0.040000,0.000000,0.000000,0.224686,0.003922,0.000000,0.000000,0.000000,0.000000,0.000000,0.000000,0.000000,0.000000,0.000000,0.000000,NaN,NaN,NaN,NaN,NaN,NaN,NaN,NaN,0.000000,0.000000,NaN,NaN,10.100000,0.470000,195.560000,0.000000,0.000000,0.000000,0.000000,0.000000,0.500000,0.500000,0.000000,0.000000,0.000000,0.000000,0.000000,0.000000,0.000000,0.000000,0.000000,0.000000,0.000000,0.000000
0.020000,0.000,0,0.000000,0.000000,0.000000,0.000000,0.000000,0.000000,-0.000446,-9.810239,0.000000,0.000000,0.000000,0.000000,0.060000,0.060000,0.070000,0.070000,0.000000,0.000000,0.000000,0.000000,0.000000,0.000000,0.000000,0.000000,0.000000,0.000000,0.000000,0.000000,0.000000,0.000000,0.000000,0.000000,0.000000,0.000000,0.000000,0.000000,0.000000,0.000000,0.000000,0.000000,0.000000,0.000000,0.000000,0.000000,0.000000,0.000000,0.000000,0.000000,0.000000,0.000000,0.000000,0.000000,0.000000,0.000000,0.000000,0.000000,0.000000,0.000000,0.000000,0.000000,0.030000,0.040000,0.000000,0.000000,0.224686,0.003922,0.000000,0.000000,0.000000,0.000000,0.000000,0.000000,0.000000,0.000000,-0.000001,0.000000,NaN,NaN,NaN,NaN,NaN,NaN,NaN,NaN,0.000000,0.000000,NaN,NaN,10.100000,0.467842,195.560000,0.000000,0.000000,0.000000,0.000000,0.000000,0.500000,0.500000,0.000000,0.000000,0.000000,0.000000,0.000000,0.000000,0.000000,0.000000,0.000000,0.000000,0.018000,0.018000
0.030000,0.000,0,0.000000,0.000000,0.000000,0.000000,0.000000,0.000000,-0.001079,-9.810581,0.000000,0.000000,0.000000,0.000000,0.060000,0.060000,0.070000,0.070000,0.000000,0.000000,0.000000,0.000000,0.000000,0.000000,0.000000,0.000000,0.000000,0.000000,0.000000,0.000000,0.000000,0.000000,0.000000,0.000000,0.000000,0.000000,0.000000,0.000000,0.000000,0.000000,0.000000,0.000000,0.000000,0.000000,0.000000,0.000000,0.000000,0.000000,0.000000,0.000000,0.000000,0.000000,0.000000,0.000000,0.000000,0.000000,0.000000,0.000000,0.000000,0.000000,0.000000,0.000000,0.030000,0.040000,0.000000,0.000000,0.224686,0.003922,0.000000,0.000000,0.000000,0.000000,0.000000,0.000000,0.000000,0.000000,-0.000001,0.000000,NaN,NaN,NaN,NaN,NaN,NaN,NaN,NaN,0.000000,0.000000,NaN,NaN,10.100000,0.467842,195.560000,0.000000,0.000000,0.000000,0.000000,0.000000,0.500000,0.500000,0.000000,0.000000,0.000000,0.000000,0.000000,0.000000,0.000000,0.000000,0.000000,0.000000,0.018000,0.018000
0.040000,0.000,0,0.000000,0.000000,0.000000,0.000000,0.000000,0.000000,-0.001986,-9.811073,0.000000,0.000000,0.000000,0.000000,0.060000,0.060000,0.070000,0.070000,0.000000,0.000000,0.000000,0.000000,0.000000,0.000000,0.000000,0.000000,0.000000,0.000000,0.000000,0.000000,0.000000,0.000000,0.000000,0.000000,0.000000,0.000000,0.000000,0.000000,0.000000,0.000000,0.000000,0.000000,0.000000,0.000000,0.000000,0.000000,0.000000,0.000000,0.000000,0.000000,0.000000,0.000000,0.000000,0.000000,0.000000,0.000000,0.000000,0.000000,0.000000,0.000000,0.000000,0.000000,0.030000,0.040000,0.000000,0.000000,0.224686,0.003922,0.000000,0.000000,0.000000,0.000000,0.000000,0.000000,0.000000,0.000000,-0.000011,0.000000,NaN,NaN,NaN,NaN,NaN,NaN,NaN,NaN,0.000000,0.000000,NaN,NaN,10.100000,0.461759,195.560000,0.000000,0.000000,0.000000,0.000000,0.000000,0.500000,0.500000,0.000000,0.000000,0.000000,0.000000,0.000000,0.000000,0.000000,0.000000,0.000000,0.000000,0.038000,0.038000
0.050000,0.000,0,0.000000,0.000000,0.000000,0.000000,0.000000,0.000000,-0.003168,-9.811699,0.000000,0.000000,0.000000,0.000000,0.060000,0.060000,0.070000,0.070000,0.000000,0.000000,0.000000,0.000000,0.000000,0.000000,0.000000,0.000000,0.000000,0.000000,0.000000,0.000000,0.000000,0.000000,0.000000,0.000000,0.000000,0.000000,0.000000,0.000000,0.000000,0.000000,0.000000,0.000000,0.000000,0.000000,0.000000,0.000000,0.000000,0.000000,0.000000,0.000000,0.000000,0.000000,0.000000,0.000000,0.000000,0.000000,0.000000,0.000000,0.000000,0.000000,0.000000,0.000000,0.030000,0.040000,0.000000,0.000000,0.224670,0.003921,0.000000,0.000000,0.000000,0.000000,0.000000,0.000000,0.000000,0.000000,-0.000011,0.000000,NaN,NaN,NaN,NaN,NaN,NaN,NaN,NaN,0.000000,0.000000,NaN,NaN,10.100000,0.461759,195.560000,0.000000,0.000000,0.000000,0.000000,0.000000,0.500000,0.500000,0.000000,0.000000,0.000000,0.000000,0.000000,0.000000,0.000000,0.000000,0.000000,0.000000,0.038000,0.038000
0.060000,0.000,0,0.000000,0.000000,0.000000,0.000000,0.000000,0.000000,-0.004624,-9.812474,0.000000,0.000000,0.000000,0.000000,0.060000,0.060000,0.070000,0.070000,0.000000,0.000000,0.000000,0.000000,0.000000,0.000000,0.000000,0.000000,0.000000,0.000000,0.000000,0.000000,0.000000,0.000000,0.000000,0.000000,0.000000,0.000000,0.000000,0.000000,0.000000,0.000000,0.000000,0.000000,0.000000,0.000000,0.000000,0.000000,0.000000,0.000000,0.000000,0.000000,0.000000,0.000000,0.000000,0.000000,0.000000,0.000000,0.000000,0.000000,0.000000,0.000000,0.000000,0.000000,0.030000,0.040000,0.000000,0.000000,0.224655,0.003921,0.000000,0.000000,0.000000,0.000000,0.000000,0.000000,0.000000,0.000000,-0.000039,0.000000,NaN,NaN,NaN,NaN,NaN,NaN,NaN,NaN,0.000000,0.000000,NaN,NaN,10.100000,0.451752,195.560000,0.000000,0.000000,0.000000,0.000000,0.000000,0.500000,0.500000,0.000000,0.000000,0.000000,0.000000,0.000000,0.000000,0.000000,0.000000,0.000000,0.000000,0.058000,0.058000
0.070000,0.000,0,0.000000,0.000000,0.000000,0.000000,0.000000,0.000000,-0.006353,-9.813428,0.000000,0.000000,0.000000,0.000000,0.060000,0.060000,0.070000,0.070000,0.000000,0.000000,0.000000,0.000000,0.000000,0.000000,0.000000,0.000000,0.000000,0.000000,0.000000,0.000000,0.000000,0.000000,0.000000,0.000000,0.000000,0.000000,0.000000,0.000000,0.000000,0.000000,0.000000,0.000000,0.000000,0.000000,0.000000,0.000000,0.000000,0.000000,0.000000,0.000000,0.000000,0.000000,0.000000,0.000000,0.000000,0.000000,0.000000,0.000000,0.000000,0.000000,0.000000,0.000000,0.030000,0.040000,0.000000,0.000000,0.224625,0.003920,0.000000,0.000000,0.000000,0.000000,0.000000,0.000000,0.000000,0.000000,-0.000039,0.000000,NaN,NaN,NaN,NaN,NaN,NaN,NaN,NaN,0.000000,0.000000,NaN,NaN,10.100000,0.451752,195.560000,0.000000,0.000000,0.000000,0.000000,0.000000,0.500000,0.500000,0.000000,0.000000,0.000000,0.000000,0.000000,0.000000,0.000000,0.000000,0.000000,0.000000,0.058000,0.058000
0.080000,0.000,0,0.000000,0.000000,0.000000,0.000000,0.000000,0.000000,-0.008356,-9.814501,0.000000,0.000000,0.000000,0.000000,0.060000,0.060000,0.070000,0.070000,0.000000,0.000000,0.000000,0.000000,0.000000,0.000000,0.000000,0.000000,0.000000,0.000000,0.000000,0.000000,0.000000,0.000000,0.000000,0.000000,0.000000,0.000000,0.000000,0.000000,0.000000,0.000000,0.000000,0.000000,0.000000,0.000000,0.000000,0.000000,0.000000,0.000000,0.000000,0.000000,0.000000,0.000000,0.000000,0.000000,0.000000,0.000000,0.000000,0.000000,0.000000,0.000000,0.000000,0.000000,0.030000,0.040000,0.000000,0.000000,0.224579,0.003920,0.000000,0.000000,0.000000,0.000000,0.000000,0.000000,0.000000,0.000000,-0.000094,0.000000,NaN,NaN,NaN,NaN,NaN,NaN,NaN,NaN,0.000000,0.000000,NaN,NaN,10.100000,0.437818,195.560000,0.000000,0.000000,0.000000,0.000000,0.000000,0.500000,0.500000,0.000000,0.000000,0.000000,0.000000,0.000000,0.000000,0.000000,0.000000,0.000000,0.000000,0.078000,0.078000
0.090000,0.000,0,0.000000,0.000000,0.000000,0.000000,0.000000,0.000000,-0.010630,-9.815722,0.000000,0.000000,0.000000,0.000000,0.060000,0.060000,0.070000,0.070000,0.000000,0.000000,0.000000,0.000000,0.000000,0.000000,0.000000,0.000000,0.000000,0.000000,0.000000,0.000000,0.000000,0.000000,0.000000,0.000000,0.000000,0.000000,0.000000,0.000000,0.000000,0.000000,0.000000,0.000000,0.000000,0.000000,0.000000,0.000000,0.000000,0.000000,0.000000,0.000000,0.000000,0.000000,0.000000,0.000000,0.000000,0.000000,0.000000,0.000000,0.000000,0.000000,0.000000,0.000000,0.030000,0.040000,0.000000,0.000000,0.224510,0.003918,0.000000,0.000000,0.000000,0.000000,0.000000,0.000000,0.000000,0.000000,-0.000094,0.000000,NaN,NaN,NaN,NaN,NaN,NaN,NaN,NaN,0.000000,0.000000,NaN,NaN,10.100000,0.437818,195.560000,0.000000,0.000000,0.000000,0.000000,0.000000,0.500000,0.500000,0.000000,0.000000,0.000000,0.000000,0.000000,0.000000,0.000000,0.000000,0.000000,0.000000,0.078000,0.078000
0.100000,0.000,0,-0.000440,180.000000,0.000000,0.981239,0.000000,0.000000,-0.013176,-9.817123,0.000000,0.000000,0.000000,0.000000,0.060000,0.060000,0.070000,0.070000,0.000000,0.000000,0.000000,0.000000,0.000000,0.000000,0.000000,0.000000,0.000000,0.000000,0.000000,0.000000,0.000000,0.000000,0.000000,0.000000,0.000000,0.000000,0.000000,0.000000,0.000000,0.000000,0.000000,0.000000,0.000000,0.000000,0.000000,0.000000,0.000000,0.000000,0.000000,0.000000,0.000000,0.000000,0.000000,0.000000,0.000000,0.000000,0.000000,0.000000,0.000000,0.000000,0.000000,0.000000,0.030000,0.040000,0.000000,0.000000,0.224419,0.003917,0.000000,0.000000,0.000000,0.000000,0.000000,0.000000,0.000000,0.000000,-0.000185,0.000000,NaN,NaN,NaN,NaN,NaN,NaN,NaN,NaN,0.000000,0.000000,NaN,NaN,10.100000,0.419957,195.560000,0.000000,0.000000,0.000000,0.000000,0.000000,0.500000,0.500000,0.000000,0.000000,0.000000,0.000000,0.000000,0.000000,0.000000,0.000000,0.000000,0.000000,0.098000,0.098000
0.110000,0.000,0,-0.000440,180.000000,0.000000,0.981239,0.000000,0.000000,-0.015992,-9.818673,0.000000,0.000000,0.000000,0.000000,0.060000,0.060000,0.070000,0.070000,0.000000,0.000000,0.000000,0.000000,0.000000,0.000000,0.000000,0.000000,0.000000,0.000000,0.000000,0.000000,0.000000,0.000000,0.000000,0.000000,0.000000,0.000000,0.000000,0.000000,0.000000,0.000000,0.000000,0.000000,0.000000,0.000000,0.000000,0.000000,0.000000,0.000000,0.000000,0.000000,0.000000,0.000000,0.000000,0.000000,0.000000,0.000000,0.000000,0.000000,0.000000,0.000000,0.000000,0.000000,0.030000,0.040000,0.000000,0.000000,0.224289,0.003915,0.000000,0.000000,0.000000,0.000000,0.000000,0.000000,0.000000,0.000000,-0.000185,0.000000,NaN,NaN,NaN,NaN,NaN,NaN,NaN,NaN,0.000000,0.000000,NaN,NaN,10.100000,0.419957,195.560000,0.000000,0.000000,0.000000,0.000000,0.000000,0.500000,0.500000,0.000000,0.000000,0.000000,0.000000,0.000000,0.000000,0.000000,0.000000,0.000000,0.000000,0.098000,0.098000
0.120000,0.000,0,-0.000440,180.000000,0.000000,0.981239,0.000000,0.000000,-0.019077,-9.820342,0.000000,0.000000,0.000000,0.000000,0.060000,0.060000,0.070000,0.070000,0.000000,0.000000,0.000000,0.000000,0.000000,0.000000,0.000000,0.000000,0.000000,0.000000,0.000000,0.000000,0.000000,0.000000,0.000000,0.000000,0.000000,0.000000,0.000000,0.000000,0.000000,0.000000,0.000000,0.000000,0.000000,0.000000,0.000000,0.000000,0.000000,0.000000,0.000000,0.000000,0.000000,0.000000,0.000000,0.000000,0.000000,0.000000,0.000000,0.000000,0.000000,0.000000,0.000000,0.000000,0.030000,0.040000,0.000000,0.000000,0.224121,0.003912,0.000000,0.000000,0.000000,0.000000,0.000000,0.000000,0.000000,0.000000,-0.000322,0.000000,NaN,NaN,NaN,NaN,NaN,NaN,NaN,NaN,0.000000,0.000000,NaN,NaN,10.100000,0.398166,195.560000,0.000000,0.000000,0.000000,0.000000,0.000000,0.500000,0.500000,0.000000,0.000000,0.000000,0.000000,0.000000,0.000000,0.000000,0.000000,0.000000,0.000000,0.118000,0.118000
0.130000,0.000,0,-0.000440,180.000000,0.000000,0.981239,0.000000,0.000000,-0.022431,-9.822130,0.000000,0.000000,0.000000,0.000000,0.060000,0.060000,0.070000,0.070000,0.000000,0.000000,0.000000,0.000000,0.000000,0.000000,0.000000,0.000000,0.000000,0.000000,0.000000,0.000000,0.000000,0.000000,0.000000,0.000000,0.000000,0.000000,0.000000,0.000000,0.000000,0.000000,0.000000,0.000000,0.000000,0.000000,0.000000,0.000000,0.000000,0.000000,0.000000,0.000000,0.000000,0.000000,0.000000,0.000000,0.000000,0.000000,0.000000,0.000000,0.000000,0.000000,0.000000,0.000000,0.030000,0.040000,0.000000,0.000000,0.223908,0.003908,0.000000,0.000000,0.000000,0.000000,0.000000,0.000000,0.000000,0.000000,-0.000322,0.000000,NaN,NaN,NaN,NaN,NaN,NaN,NaN,NaN,0.000000,0.000000,NaN,NaN,10.100000,0.398166,195.560000,0.000000,0.000000,0.000000,0.000000,0.000000,0.500000,0.500000,0.000000,0.000000,0.000000,0.000000,0.000000,0.000000,0.000000,0.000000,0.000000,0.000000,0.118000,0.118000
0.140000,0.000,0,-0.000440,180.000000,0.000000,0.981239,0.000000,0.000000,-0.026052,-9.824158,0.000000,0.000000,0.000000,0.000000,0.060000,0.060000,0.070000,0.070000,0.000000,0.000000,0.000000,0.000000,0.000000,0.000000,0.000000,0.000000,0.000000,0.000000,0.000000,0.000000,0.000000,0.000000,0.000000,0.000000,0.000000,0.000000,0.000000,0.000000,0.000000,0.000000,0.000000,0.000000,0.000000,0.000000,0.000000,0.000000,0.000000,0.000000,0.000000,0.000000,0.000000,0.000000,0.000000,0.000000,0.000000,0.000000,0.000000,0.000000,0.000000,0.000000,0.000000,0.000000,0.030000,0.040000,0.000000,0.000000,0.223640,0.003903,0.000000,0.000000,0.000000,0.000000,0.000000,0.000000,0.000000,0.000000,-0.000514,0.000000,NaN,NaN,NaN,NaN,NaN,NaN,NaN,NaN,0.000015,0.000015,NaN,NaN,10.100000,0.372442,195.560000,0.000000,0.000000,0.000000,0.000000,0.000000,0.500000,0.500000,0.000000,0.000000,0.000000,0.000000,0.000000,0.000000,0.000015,0.000015,0.000015,0.000015,0.138000,0.138000
0.150000,0.000,0,-0.000440,180.000000,0.000000,0.981239,0.000000,0.000000,-0.029938,-9.826184,0.000000,0.000000,0.000000,0.000000,0.060000,0.060000,0.070000,0.070000,0.000000,0.000000,0.000000,0.000000,0.000000,0.000000,0.000000,0.000000,0.000000,0.000000,0.000000,0.000000,0.000000,0.000000,0.000000,0.000000,0.000000,0.000000,0.000000,0.000000,0.000000,0.000000,0.000000,0.000000,0.000000,0.000000,0.000000,0.000000,0.000000,0.000000,0.000000,0.000000,0.000000,0.000000,0.000000,0.000000,0.000000,0.000000,0.000000,0.000000,0.000000,0.000000,0.000000,0.000000,0.030000,0.040000,0.000000,0.000000,0.223305,0.003897,0.000000,0.000000,0.000000,0.000000,0.000000,0.000000,0.000000,0.000000,-0.000514,0.000000,NaN,NaN,NaN,NaN,NaN,NaN,NaN,NaN,0.000015,0.000015,NaN,NaN,10.100000,0.372442,195.560000,0.000000,0.000000,0.000000,0.000000,0.000000,0.500000,0.500000,0.000000,0.000000,0.000000,0.000000,0.000000,0.000000,0.000015,0.000015,0.000015,0.000015,0.138000,0.138000
0.160000,0.000,0,-0.000440,180.000000,0.000000,0.981239,0.000000,0.000000,-0.034089,-9.828568,0.000000,0.000000,0.000000,0.000000,0.060000,0.060000,0.070000,0.070000,0.000000,0.000000,0.000000,0.000000,0.000000,0.000000,0.000000,0.000000,0.000000,0.000000,0.000000,0.000000,0.000000,0.000000,0.000000,0.000000,0.000000,0.000000,0.000000,0.000000,0.000000,0.000000,0.000000,0.000000,0.000000,0.000000,0.000000,0.000000,0.000000,0.000000,0.000000,0.000000,0.000000,0.000000,0.000000,0.000000,0.000000,0.000000,0.000000,0.000000,0.000000,0.000000,0.000000,0.000000,0.030000,0.040000,0.000000,0.000000,0.222893,0.003890,0.000000,0.000000,0.000000,0.000000,0.000000,0.000000,0.000000,0.000000,-0.000769,0.000000,NaN,NaN,NaN,NaN,NaN,NaN,NaN,NaN,0.000015,0.000015,NaN,NaN,10.100000,0.342783,195.560000,0.000000,0.000000,0.000000,0.000000,0.000000,0.500000,0.500000,0.000000,0.000000,0.000000,0.000000,0.000000,0.000000,0.000015,0.000015,0.000015,0.000015,0.158000,0.158000
0.170000,0.000,0,-0.000440,180.000000,0.000000,0.981239,0.000000,0.000000,-0.038503,-9.830954,0.000000,0.000000,0.000000,0.000000,0.060000,0.060000,0.070000,0.070000,0.000000,0.000000,0.000000,0.000000,0.000000,0.000000,0.000000,0.000000,0.000000,0.000000,0.000000,0.000000,0.000000,0.000000,0.000000,0.000000,0.000000,0.000000,0.000000,0.000000,0.000000,0.000000,0.000000,0.000000,0.000000,0.000000,0.000000,0.000000,0.000000,0.000000,0.000000,0.000000,0.000000,0.000000,0.000000,0.000000,0.000000,0.000000,0.000000,0.000000,0.000000,0.000000,0.000000,0.000000,0.030000,0.040000,0.000000,0.000000,0.222405,0.003882,0.000000,0.000000,0.000000,0.000000,0.000000,0.000000,0.000000,0.000000,-0.000769,0.000000,NaN,NaN,NaN,NaN,NaN,NaN,NaN,NaN,0.000015,0.000015,NaN,NaN,10.100000,0.342783,195.560000,0.000000,0.000000,0.000000,0.000000,0.000000,0.500000,0.500000,0.000000,0.000000,0.000000,0.000000,0.000000,0.000000,0.000015,0.000015,0.000015,0.000015,0.158000,0.158000
0.180000,0.000,0,-0.000440,180.000000,0.000000,0.981239,0.000000,0.000000,-0.043178,-9.833457,0.000000,0.000000,0.000000,0.000000,0.060000,0.060000,0.070000,0.070000,0.000000,0.000000,0.000000,0.000000,0.000000,0.000000,0.000000,0.000000,0.000000,0.000000,0.000000,0.000000,0.000000,0.000000,0.000000,0.000000,0.000000,0.000000,0.000000,0.000000,0.000000,0.000000,0.000000,0.000000,0.000000,0.000000,0.000000,0.000000,0.000000,0.000000,0.000000,0.000000,0.000000,0.000000,0.000000,0.000000,0.000000,0.000000,0.000000,0.000000,0.000000,0.000000,0.000000,0.000000,0.030000,0.040000,0.000000,0.000000,0.221809,0.003871,0.000000,0.000000,0.000000,0.000000,0.000000,0.000000,0.000000,0.000000,-0.001098,0.000000,NaN,NaN,NaN,NaN,NaN,NaN,NaN,NaN,0.000031,0.000031,NaN,NaN,10.100000,0.309185,195.560000,0.000000,0.000000,0.000000,0.000000,0.000000,0.500000,0.500000,0.000000,0.000000,0.000000,0.000000,0.000000,0.000000,0.000031,0.000031,0.000031,0.000031,0.177999,0.177999
0.190000,0.000,0,-0.000440,180.000000,0.000000,0.981239,0.000000,0.000000,-0.048112,-9.836200,0.000000,0.000000,0.000000,0.000000,0.060000,0.060000,0.070000,0.070000,0.000000,0.000000,0.000000,0.000000,0.000000,0.000000,0.000000,0.000000,0.000000,0.000000,0.000000,0.000000,0.000000,0.000000,0.000000,0.000000,0.000000,0.000000,0.000000,0.000000,0.000000,0.000000,0.000000,0.000000,0.000000,0.000000,0.000000,0.000000,0.000000,0.000000,0.000000,0.000000,0.000000,0.000000,0.000000,0.000000,0.000000,0.000000,0.000000,0.000000,0.000000,0.000000,0.000000,0.000000,0.030000,0.040000,0.000000,0.000000,0.221115,0.003859,0.000000,0.000000,0.000000,0.000000,0.000000,0.000000,0.000000,0.000000,-0.001098,0.000000,NaN,NaN,NaN,NaN,NaN,NaN,NaN,NaN,0.000031,0.000031,NaN,NaN,10.100000,0.309185,195.560000,0.000000,0.000000,0.000000,0.000000,0.000000,0.500000,0.500000,0.000000,0.000000,0.000000,0.000000,0.000000,0.000000,0.000031,0.000031,0.000031,0.000031,0.177999,0.177999
0.200000,0.000,0,-0.003469,180.000000,0.000000,1.963949,0.000000,0.000000,-0.053305,-9.839062,0.000000,0.000000,0.000000,0.000000,0.060000,0.060000,0.070000,0.070000,0.000000,0.000000,0.000000,0.000000,0.000000,0.000000,0.000000,0.000000,0.000000,0.000000,0.000000,0.000000,0.000000,0.000000,0.000000,0.000000,0.000000,0.000000,0.000000,0.000000,0.000000,0.000000,0.000000,0.000000,0.000000,0.000000,0.000000,0.000000,0.000000,0.000000,0.000000,0.000000,0.000000,0.000000,0.000000,0.000000,0.000000,0.000000,0.000000,0.000000,0.000000,0.000000,0.000000,0.000000,0.030000,0.040000,0.000000,0.000000,0.220306,0.003845,0.000000,0.000000,0.000000,0.000000,0.000000,0.000000,0.000000,0.000000,-0.001508,0.000000,NaN,NaN,NaN,NaN,NaN,NaN,NaN,NaN,0.000046,0.000046,NaN,NaN,10.100000,0.271644,195.560000,0.000000,0.000000,0.000000,0.000000,0.000000,0.500000,0.500000,0.000000,0.000000,0.000000,0.000000,0.000000,0.000000,0.000046,0.000046,0.000046,0.000046,0.197999,0.197999
0.210000,0.000,0,-0.003469,180.000000,0.000000,1.963949,0.000000,0.000000,-0.058753,-9.842044,0.000000,0.000000,0.000000,0.000000,0.060000,0.060000,0.070000,0.070000,0.000000,0.000000,0.000000,0.000000,0.000000,0.000000,0.000000,0.000000,0.000000,0.000000,0.000000,0.000000,0.000000,0.000000,0.000000,0.000000,0.000000,0.000000,0.000000,0.000000,0.000000,0.000000,0.000000,0.000000,0.000000,0.000000,0.000000,0.000000,0.000000,0.000000,0.000000,0.000000,0.000000,0.000000,0.000000,0.000000,0.000000,0.000000,0.000000,0.000000,0.000000,0.000000,0.000000,0.000000,0.030000,0.040000,0.000000,0.000000,0.219353,0.003828,0.000000,0.000000,0.000000,0.000000,0.000000,0.000000,0.000000,0.000000,-0.001508,0.000000,NaN,NaN,NaN,NaN,NaN,NaN,NaN,NaN,0.000046,0.000046,NaN,NaN,10.100000,0.271644,195.560000,0.000000,0.000000,0.000000,0.000000,0.000000,0.500000,0.500000,0.000000,0.000000,0.000000,0.000000,0.000000,0.000000,0.000046,0.000046,0.000046,0.000046,0.197999,0.197999
0.220000,0.000,0,-0.003469,180.000000,0.000000,1.963949,0.000000,0.000000,-0.064455,-9.845145,0.000000,0.000000,0.000000,0.000000,0.060000,0.060000,0.070000,0.070000,0.000000,0.000000,0.000000,0.000000,0.000000,0.000000,0.000000,0.000000,0.000000,0.000000,0.000000,0.000000,0.000000,0.000000,0.000000,0.000000,0.000000,0.000000,0.000000,0.000000,0.000000,0.000000,0.000000,0.000000,0.000000,0.000000,0.000000,0.000000,0.000000,0.000000,0.000000,0.000000,0.000000,0.000000,0.000000,0.000000,0.000000,0.000000,0.000000,0.000000,0.000000,0.000000,0.000000,0.000000,0.030000,0.040000,0.000000,0.000000,0.218269,0.003810,0.000000,0.000000,0.000000,0.000000,0.000000,0.000000,0.000000,0.000000,-0.002010,0.000000,NaN,NaN,NaN,NaN,NaN,NaN,NaN,NaN,0.000183,0.000183,NaN,NaN,10.100000,0.230155,195.560200,0.000000,0.000000,0.000000,0.000000,0.000000,0.500000,0.500000,0.000000,0.000000,0.000000,0.000000,0.000000,0.000000,0.000168,0.000168,0.000168,0.000168,0.217996,0.217996
0.230000,0.000,0,-0.003469,180.000000,0.000000,1.963949,0.000000,0.000000,-0.070409,-9.848485,0.000000,0.000000,0.000000,0.000000,0.060000,0.060000,0.070000,0.070000,0.000000,0.000000,0.000000,0.000000,0.000000,0.000000,0.000000,0.000000,0.000000,0.000000,0.000000,0.000000,0.000000,0.000000,0.000000,0.000000,0.000000,0.000000,0.000000,0.000000,0.000000,0.000000,0.000000,0.000000,0.000000,0.000000,0.000000,0.000000,0.000000,0.000000,0.000000,0.000000,0.000000,0.000000,0.000000,0.000000,0.000000,0.000000,0.000000,0.000000,0.000000,0.000000,0.000000,0.000000,0.030000,0.040000,0.000000,0.000000,0.217018,0.003788,0.000000,0.000000,0.000000,0.000000,0.000000,0.000000,0.000000,0.000000,-0.002010,0.000000,NaN,NaN,NaN,NaN,NaN,NaN,NaN,NaN,0.000183,0.000183,NaN,NaN,10.100000,0.230155,195.560200,0.000000,0.000000,0.000000,0.000000,0.000000,0.500000,0.500000,0.000000,0.000000,0.000000,0.000000,0.000000,0.000000,0.000168,0.000168,0.000168,0.000168,0.217996,0.217996
0.240000,0.000,0,-0.003469,180.000000,0.000000,1.963949,0.000000,0.000000,-0.076613,-9.851945,0.000000,0.000000,0.000000,0.000000,0.060000,0.060000,0.070000,0.070000,0.000000,0.000000,0.000000,0.000000,0.000000,0.000000,0.000000,0.000000,0.000000,0.000000,0.000000,0.000000,0.000000,0.000000,0.000000,0.000000,0.000000,0.000000,0.000000,0.000000,0.000000,0.000000,0.000000,0.000000,0.000000,0.000000,0.000000,0.000000,0.000000,0.000000,0.000000,0.000000,0.000000,0.000000,0.000000,0.000000,0.000000,0.000000,0.000000,0.000000,0.000000,0.000000,0.000000,0.000000,0.030000,0.040000,0.000000,0.000000,0.215591,0.003763,0.000000,0.000000,0.000000,0.000000,0.000000,0.000000,0.000000,0.000000,-0.002613,0.000000,NaN,NaN,NaN,NaN,NaN,NaN,NaN,NaN,0.000366,0.000366,NaN,NaN,10.100000,0.184715,195.560400,0.000000,0.000000,0.000000,0.000000,0.000000,0.500000,0.500000,0.000000,0.000000,0.000000,0.000000,0.000000,0.000000,0.000336,0.000336,0.000336,0.000336,0.237992,0.237991
0.250000,0.000,0,-0.003469,180.000000,0.000000,1.963949,0.000000,0.000000,-0.083065,-9.855524,0.000000,0.000000,0.000000,0.000000,0.060000,0.060000,0.070000,0.070000,0.000000,0.000000,0.000000,0.000000,0.000000,0.000000,0.000000,0.000000,0.000000,0.000000,0.000000,0.000000,0.000000,0.000000,0.000000,0.000000,0.000000,0.000000,0.000000,0.000000,0.000000,0.000000,0.000000,0.000000,0.000000,0.000000,0.000000,0.000000,0.000000,0.000000,0.000000,0.000000,0.000000,0.000000,0.000000,0.000000,0.000000,0.000000,0.000000,0.000000,0.000000,0.000000,0.000000,0.000000,0.030000,0.040000,0.000000,0.000000,0.213982,0.003735,0.000000,0.000000,0.000000,0.000000,0.000000,0.000000,0.000000,0.000000,-0.002613,0.000000,NaN,NaN,NaN,NaN,NaN,NaN,NaN,NaN,0.000366,0.000366,NaN,NaN,10.100000,0.184715,195.560400,0.000000,0.000000,0.000000,0.000000,0.000000,0.500000,0.500000,0.000000,0.000000,0.000000,0.000000,0.000000,0.000000,0.000336,0.000336,0.000336,0.000336,0.237992,0.237991
0.260000,0.001,0,-0.003469,180.000000,0.000000,1.963949,0.000000,0.000000,-0.089761,-9.859344,0.000000,0.000000,0.000000,0.000000,0.060000,0.060000,0.070000,0.070000,0.000000,0.000000,0.000000,0.000000,0.000000,0.000000,0.000000,0.000000,0.000000,0.000000,0.000000,0.000000,0.000000,0.000000,0.000000,0.000000,0.000000,0.000000,0.000000,0.000000,0.000000,0.000000,0.000000,0.000000,0.000000,0.000000,0.000000,0.000000,0.000000,0.000000,0.000000,0.000000,0.000000,0.000000,0.000000,0.000000,0.000000,0.000000,0.000000,0.000000,0.000000,0.000000,0.000000,0.000000,0.030000,0.040000,0.000000,0.000000,0.212166,0.003703,0.000000,0.000000,0.000000,0.000000,0.000000,0.000000,0.000000,0.000000,-0.003326,0.000000,NaN,NaN,NaN,NaN,NaN,NaN,NaN,NaN,0.000549,0.000549,NaN,NaN,10.100000,0.135316,195.560600,0.000000,0.000000,0.000000,0.000000,0.000000,0.500000,0.500000,0.000000,0.000000,0.000000,0.000000,0.000000,0.000000,0.000534,0.000534,0.000534,0.000534,0.257987,0.257986
0.270000,0.001,0,-0.003469,180.000000,0.000000,1.963949,0.000000,0.000000,-0.096700,-9.863401,0.000000,0.000000,0.000000,0.000000,0.060000,0.060000,0.070000,0.070000,0.000000,0.000000,0.000000,0.000000,0.000000,0.000000,0.000000,0.000000,0.000000,0.000000,0.000000,0.000000,0.000000,0.000000,0.000000,0.000000,0.000000,0.000000,0.000000,0.000000,0.000000,0.000000,0.000000,0.000000,0.000000,0.000000,0.000000,0.000000,0.000000,0.000000,0.000000,0.000000,0.000000,0.000000,0.000000,0.000000,0.000000,0.000000,0.000000,0.000000,0.000000,0.000000,0.000000,0.000000,0.030000,0.040000,0.000000,0.000000,0.210121,0.003667,0.000000,0.000000,0.000000,0.000000,0.000000,0.000000,0.000000,0.000000,-0.003326,0.000000,NaN,NaN,NaN,NaN,NaN,NaN,NaN,NaN,0.000549,0.000549,NaN,NaN,10.100000,0.135316,195.560600,0.000000,0.000000,0.000000,0.000000,0.000000,0.500000,0.500000,0.000000,0.000000,0.000000,0.000000,0.000000,0.000000,0.000534,0.000534,0.000534,0.000534,0.257987,0.257986
0.280000,0.001,0,-0.003469,180.000000,0.000000,1.963949,0.000000,0.000000,-0.103879,-9.867460,0.000000,0.000000,0.000000,0.000000,0.060000,0.060000,0.070000,0.070000,0.000000,0.000000,0.000000,0.000000,0.000000,0.000000,0.000000,0.000000,0.000000,0.000000,0.000000,0.000000,0.000000,0.000000,0.000000,0.000000,0.000000,0.000000,0.000000,0.000000,0.000000,0.000000,0.000000,0.000000,0.000000,0.000000,0.000000,0.000000,0.000000,0.000000,0.000000,0.000000,0.000000,0.000000,0.000000,0.000000,0.000000,0.000000,0.000000,0.000000,0.000000,0.000000,0.000000,0.000000,0.030000,0.040000,0.000000,0.000000,0.207840,0.003628,0.000000,0.000000,0.000000,0.000000,0.000000,0.000000,0.000000,0.000000,-0.004159,0.000000,NaN,NaN,NaN,NaN,NaN,NaN,NaN,NaN,0.000732,0.000732,NaN,NaN,10.100000,0.081954,195.560800,0.000000,0.000000,0.000000,0.000000,0.000000,0.500000,0.500000,0.000000,0.000000,0.000000,0.000000,0.000000,0.000000,0.000717,0.000717,0.000717,0.000717,0.277983,0.277982
0.290000,0.001,0,-0.003469,180.000000,0.000000,1.963949,0.000000,0.000000,-0.111296,-9.871640,0.000000,0.000000,0.000000,0.000000,0.060000,0.060000,0.070000,0.070000,0.000000,0.000000,0.000000,0.000000,0.000000,0.000000,0.000000,0.000000,0.000000,0.000000,0.000000,0.000000,0.000000,0.000000,0.000000,0.000000,0.000000,0.000000,0.000000,0.000000,0.000000,0.000000,0.000000,0.000000,0.000000,0.000000,0.000000,0.000000,0.000000,0.000000,0.000000,0.000000,0.000000,0.000000,0.000000,0.000000,0.000000,0.000000,0.000000,0.000000,0.000000,0.000000,0.000000,0.000000,0.030000,0.040000,0.000000,0.000000,0.205292,0.003583,0.000000,0.000000,0.000000,0.000000,0.000000,0.000000,0.000000,0.000000,-0.004159,0.000000,NaN,NaN,NaN,NaN,NaN,NaN,NaN,NaN,0.000732,0.000732,NaN,NaN,10.100000,0.081954,195.560800,0.000000,0.000000,0.000000,0.000000,0.000000,0.500000,0.500000,0.000000,0.000000,0.000000,0.000000,0.000000,0.000000,0.000717,0.000717,0.000717,0.000717,0.277983,0.277982
0.300000,0.001,0,-0.010495,180.000000,0.000000,2.934018,0.000000,0.000000,0.129712,-2.674045,0.000000,0.000000,10111.420000,10111.420000,0.060000,0.060000,0.061584,0.061584,0.000000,0.000000,0.008416,0.008416,0.000000,0.000000,2.889067,2.889067,0.000000,0.000000,1430.756000,1430.756000,0.000000,0.000000,8667.199000,8667.199000,0.000000,0.000000,-0.029815,-0.029815,0.000000,0.000000,6.989420,6.989420,0.000000,0.000000,0.000000,0.000000,0.000000,0.000000,0.000000,0.000000,0.000000,0.000000,0.000000,0.000000,0.000000,0.000000,105.889000,105.889000,0.000000,0.000000,0.000000,0.000000,0.030000,0.031584,0.000000,0.000000,0.010239,0.000179,0.000000,0.000000,0.000000,0.000000,0.000000,0.000000,0.000000,0.000000,-0.030494,0.000000,NaN,NaN,0.001012,0.001012,NaN,NaN,0.000000,0.000000,0.000992,0.000992,NaN,NaN,10.100000,0.024588,195.561100,0.000000,-7.717000,0.000000,0.000000,0.000000,0.500000,0.000000,0.000000,0.000000,0.000000,0.000000,0.000000,4.198000,0.000946,0.000946,0.000946,0.000946,0.297977,0.297976
0.310000,0.002,0,-0.010495,180.000000,0.000000,2.934018,0.000000,0.000000,0.259068,27.609950,13661.420000,13661.420000,14143.930000,14143.930000,0.030658,0.030658,0.033991,0.033991,0.029342,0.029342,0.036009,0.036009,2.904713,2.904713,2.660021,2.660021,4988.059000,4988.059000,6121.442000,6121.442000,8714.132000,8714.132000,7980.057000,7980.057000,-0.062075,-0.062075,-0.062076,-0.062076,0.000000,0.000000,0.528058,0.528058,0.000000,0.000000,0.000000,0.000000,0.000000,0.000000,0.000000,0.000000,0.000357,-0.000357,0.000000,0.000000,7.773514,7.773514,9.533836,9.533836,-124.227700,124.227700,0.000000,0.000000,0.000658,0.003992,0.000000,0.000000,0.000000,0.000000,0.000000,0.000000,0.000000,0.000000,0.000000,0.000000,0.000000,0.000000,-0.030494,0.000000,NaN,NaN,0.001012,0.001012,NaN,NaN,0.000000,0.000000,0.000992,0.000992,NaN,NaN,10.100000,0.024588,195.561100,0.000000,-7.717000,0.000000,0.000000,0.000000,0.500000,0.000000,0.000000,0.000000,0.000000,0.000000,0.000000,4.198000,0.000946,0.000946,0.000946,0.000946,0.297977,0.297976
0.320000,0.002,0,-0.010495,180.000000,0.000000,2.934018,0.000000,0.000000,0.233617,42.311460,21216.140000,21216.140000,17445.730000,17445.730000,0.003520,0.003520,0.009198,0.009198,0.056480,0.056480,0.060802,0.060802,2.549037,2.549037,2.358839,2.358839,9601.579000,9601.579000,10336.250000,10336.250000,7647.092000,7647.092000,7076.499000,7076.499000,-0.044797,-0.044797,-0.044797,-0.044797,0.000000,0.000000,-4.986829,-4.986829,0.000000,0.000000,0.000000,0.000000,0.000000,0.000000,0.000000,0.000000,0.000257,-0.000257,0.000000,0.000000,-52.907040,-52.907040,-69.530650,-69.530650,-139.224100,139.224100,0.000000,0.000000,-0.026480,-0.020802,0.000000,0.000000,0.000000,0.000000,0.000000,0.000000,0.000000,0.000000,0.000000,0.000000,0.000000,0.000000,-0.074584,0.000000,0.000000,0.000000,-0.000576,-0.000576,0.195323,-0.195323,0.000000,0.000000,0.002121,0.002121,NaN,NaN,10.100000,-0.031222,195.562200,0.000000,-7.449000,0.000000,0.000000,0.000000,0.500000,0.000000,0.000000,0.000000,0.000000,0.000000,0.000000,-3.332000,0.002014,0.002014,0.002014,0.002014,0.317951,0.317948
0.330000,0.005,0,-0.010495,180.000000,0.000000,2.934018,0.000000,0.000731,-0.666982,26.727330,15288.450000,15288.450000,11786.160000,11786.160000,0.000846,0.000846,-0.000078,-0.000078,0.059154,0.059154,0.070078,0.070078,-0.216544,-0.216544,-0.031665,-0.031665,10056.130000,10056.130000,11900.000000,11900.000000,-649.630900,-649.630900,-94.994900,-94.994900,0.030404,0.030403,0.030404,0.030404,0.000000,0.000000,7.307861,7.309335,0.000000,0.000000,0.000000,0.000000,0.000000,0.000000,0.000000,0.000000,-0.000169,0.000181,0.000005,0.000005,-32.408550,-32.404250,-8.049293,-8.040566,65.923020,-70.506040,-1.473922,-1.473922,-0.029154,-0.030078,0.000000,0.000000,0.000000,0.000000,0.000000,0.000000,0.000000,0.000000,0.000000,0.000000,0.000000,0.000000,-0.074584,0.000000,0.000000,0.000000,-0.000576,-0.000576,0.195323,-0.195323,0.000000,0.000000,0.002121,0.002121,NaN,NaN,10.100000,-0.031222,195.562200,0.000000,-7.449000,0.000000,0.000000,0.000000,0.500000,0.000000,0.000000,0.000000,0.000000,0.000000,0.000000,-3.332000,0.002014,0.002014,0.002014,0.002014,0.317951,0.317948
0.340000,0.005,0,-0.010495,180.000000,0.000000,2.934018,0.000000,-9.251234,-0.347064,22.032050,12479.590000,12874.680000,10725.020000,11132.720000,0.005021,0.004783,0.001526,0.001289,0.054979,0.055217,0.068474,0.068712,-0.588194,-0.450119,-0.296116,-0.158042,9339.864000,9393.383000,11640.520000,11680.940000,-1764.579000,-1350.357000,-888.346800,-474.124700,0.046092,0.051548,0.046511,0.051131,0.000000,0.000000,2.087826,-9.583606,0.000000,0.000000,0.000000,0.000000,0.000000,0.000000,0.000000,0.000000,-0.072907,-0.072345,-0.064226,-0.064226,6.873379,-33.369550,10.796310,-62.278190,11154.600000,11489.280000,9679.247000,10020.430000,-0.025098,-0.028593,0.000000,0.000000,0.000000,0.000000,0.000000,0.000000,0.000000,0.000000,0.000000,11.671430,-0.005456,-0.004620,0.114543,0.098623,0.000000,0.000000,0.000813,-0.001518,-20.987750,-21.224810,-19.935010,-20.179630,0.004993,0.004993,NaN,NaN,10.100130,-0.024258,195.560400,0.000000,9.623000,0.000000,0.000000,0.000000,0.500000,0.000000,0.000000,0.000000,0.000000,0.000000,0.000000,-1.593000,0.004898,0.004898,0.004898,0.004898,0.337881,0.337874
0.350000,0.006,0,-0.010495,180.000000,0.000000,2.934018,0.000000,24.544610,-0.109312,16.013450,9954.367000,8887.918000,10214.950000,9296.497000,0.010834,0.011915,0.004314,0.005395,0.049166,0.048085,0.065686,0.064605,-0.579268,-0.855505,-0.284538,-0.560746,8384.700000,8148.382000,11166.630000,10982.880000,-1737.797000,-2566.507000,-853.610000,-1682.231000,0.048545,0.048222,0.047729,0.049039,0.000000,0.000000,15.105660,-18.554490,0.000000,0.000000,0.000000,0.000000,0.000000,0.000000,0.000000,0.000000,0.141603,0.142161,0.144267,0.144267,6.546989,17.785550,50.352180,-51.770570,-9037.073000,-8154.059000,-9253.818000,-8491.632000,-0.018625,-0.025146,0.048457,0.048457,0.000000,0.000000,0.000000,0.000000,0.000000,0.000000,0.000000,11.671430,-0.005456,-0.004620,0.114543,0.098623,0.000000,0.000000,0.000813,-0.001518,-20.987750,-21.224810,-19.935010,-20.179630,0.004993,0.004993,NaN,NaN,10.100130,-0.024258,195.560400,0.000000,9.623000,0.000000,0.000000,0.000000,0.500000,0.000000,0.000000,0.000000,0.000000,0.000000,0.000000,-1.593000,0.004898,0.004898,0.004898,0.004898,0.337881,0.337874
0.360000,0.007,0,-0.010495,180.000000,0.000000,2.934018,0.000000,-19.395660,0.064502,9.785167,6235.300000,6261.474000,8153.282000,8457.296000,0.018697,0.019614,0.009751,0.010668,0.041303,0.040386,0.060249,0.059332,-0.891015,-0.718147,-0.694826,-0.521943,7040.367000,6847.033000,10242.330000,10086.460000,-2673.028000,-2154.426000,-2084.465000,-1565.819000,0.029844,0.025707,0.030242,0.025310,0.000000,0.000000,18.071020,-18.452560,0.000000,0.000000,0.000000,0.000000,0.000000,0.000000,0.000000,0.000000,-0.069166,-0.068846,-0.077976,-0.077976,12.192050,55.842440,60.236740,0.548364,5974.037000,5995.578000,7549.026000,7799.138000,-0.010844,-0.019791,0.034264,0.034264,0.000000,0.000000,0.000000,0.000000,0.000000,0.000000,0.000000,36.523580,0.004138,0.004932,0.076940,0.123492,0.000000,0.000000,0.000742,-0.000216,-17.241180,-17.256890,-18.391970,-18.574380,0.007406,0.007406,NaN,NaN,10.099400,-0.009389,195.559500,0.000000,4.572000,0.000000,0.000000,0.000000,0.500000,0.000000,0.000000,0.000000,0.000000,0.000000,0.000000,0.941000,0.007182,0.007182,0.007182,0.007182,0.357825,0.357816
0.370000,0.008,0,-0.010495,180.000000,0.000000,2.934018,0.000000,14.546510,0.153484,3.994577,3920.717000,3361.146000,6878.089000,6444.800000,0.026721,0.027723,0.016765,0.017767,0.033279,0.032277,0.053235,0.052233,-0.748172,-0.847101,-0.716493,-0.815377,5673.979000,5470.886000,9049.849000,8879.594000,-2244.499000,-2541.283000,-2149.460000,-2446.111000,-0.009234,-0.003515,-0.009580,-0.003169,0.000000,0.000000,9.732450,-2.559471,0.000000,0.000000,0.000000,0.000000,0.000000,0.000000,0.000000,0.000000,0.060236,0.060163,0.071859,0.071859,86.003170,7.353135,122.795100,-8.531570,-4031.954000,-3540.204000,-6502.204000,-6146.355000,-0.002778,-0.012734,0.039565,0.039565,0.000000,0.000000,0.000000,0.000000,0.000000,0.000000,0.000000,36.523580,0.004138,0.004932,0.076940,0.123492,0.000000,0.000000,0.000742,-0.000216,-17.241180,-17.256890,-18.391970,-18.574380,0.007406,0.007406,NaN,NaN,10.099400,-0.009389,195.559500,0.000000,4.572000,0.000000,0.000000,0.000000,0.500000,0.000000,0.000000,0.000000,0.000000,0.000000,0.000000,0.941000,0.007182,0.007182,0.007182,0.007182,0.357825,0.357816
0.380000,0.009,0,-0.010495,180.000000,0.000000,2.934018,0.000000,-10.253980,0.209862,-0.472576,1935.916000,2193.718000,4797.234000,5072.068000,0.034615,0.035032,0.025432,0.025848,0.025385,0.024969,0.044568,0.044152,-0.795260,-0.665322,-0.942320,-0.812352,4320.788000,4239.412000,7576.578000,7505.709000,-2385.764000,-1995.953000,-2826.940000,-2437.039000,-0.039356,-0.047850,-0.039121,-0.048087,0.000000,0.000000,1.541842,4.911020,0.000000,0.000000,0.000000,0.000000,0.000000,0.000000,0.000000,0.000000,-0.040785,-0.041286,-0.057340,-0.057340,-2.912498,89.985920,-0.762675,109.348100,2012.745000,2308.792000,4779.778000,5010.309000,0.004823,-0.004360,0.000000,0.019782,0.000000,0.000000,0.000000,0.000000,0.000000,0.000000,0.000000,-3.369179,0.008494,0.008965,-0.057660,0.092881,0.000000,0.000000,-0.002338,0.003996,-13.403820,-13.928940,-16.378340,-16.543240,0.008724,0.008724,NaN,NaN,10.099320,0.006426,195.559800,0.000000,-9.277000,0.000000,0.000000,0.000000,0.500000,0.000000,0.000000,0.000000,0.000000,0.000000,0.000000,2.319000,0.008610,0.008610,0.008610,0.008610,0.377790,0.377779
0.390000,0.009,0,-0.010495,180.000000,0.000000,2.934018,0.000000,5.892320,0.161407,-3.998608,1198.590000,1102.459000,3297.465000,3204.555000,0.041500,0.041720,0.034661,0.034881,0.018500,0.018280,0.035339,0.035119,-0.632212,-0.653103,-0.918731,-0.939623,3146.949000,3105.565000,6007.538000,5970.199000,-1896.628000,-1959.302000,-2756.183000,-2818.857000,-0.076756,-0.069673,-0.076874,-0.069557,0.000000,0.000000,-22.035640,26.773670,0.000000,0.000000,0.000000,0.000000,0.000000,0.000000,0.000000,0.000000,0.020767,0.019925,0.033653,0.033653,83.150710,-18.176720,11.244740,69.519860,-634.526400,-559.970300,-2828.818000,-2749.116000,0.011610,0.004771,0.000000,0.000000,0.000000,0.000000,0.000000,0.000000,0.000000,0.000000,0.000000,-3.369179,0.008494,0.008965,-0.057660,0.092881,0.000000,0.000000,-0.002338,0.003996,-13.403820,-13.928940,-16.378340,-16.543240,0.008724,0.008724,NaN,NaN,10.099320,0.006426,195.559800,0.000000,-9.277000,0.000000,0.000000,0.000000,0.500000,0.000000,0.000000,0.000000,0.000000,0.000000,0.000000,2.319000,0.008610,0.008610,0.008610,0.008610,0.377790,0.377779
0.400000,0.010,0,-0.007150,123.616000,0.012131,0.716622,0.000089,-0.150384,0.082659,-7.067182,389.627800,479.144200,1658.939000,1747.785000,0.047511,0.047403,0.044126,0.044018,0.012489,0.012597,0.025874,0.025982,-0.558198,-0.531703,-0.936553,-0.910059,2122.430000,2142.167000,4398.504000,4416.885000,-1674.591000,-1595.108000,-2809.656000,-2730.173000,-0.093458,-0.093598,-0.093467,-0.093591,0.000000,0.000000,-17.052050,19.961620,0.000000,0.000000,0.000000,0.000000,0.000000,0.000000,0.000000,0.000000,0.001934,0.000858,0.001171,0.001171,19.873860,21.425440,-36.971620,66.538730,-19.212510,-10.485470,-49.533080,-52.185920,0.017457,0.014072,-0.019782,0.000000,0.000000,0.000000,0.000000,0.000000,0.000000,0.000000,0.000000,-37.013660,0.000140,0.000124,-0.148364,0.018931,0.000000,0.000000,-0.004492,0.006055,0.531169,0.238466,0.373826,0.377404,0.010152,0.010152,NaN,NaN,10.099260,0.018890,195.561200,0.000000,-18.317000,0.000000,0.000000,0.000000,0.500000,0.000000,0.000000,0.000000,0.000000,0.000000,0.000000,1.062000,0.009969,0.009969,0.009969,0.009969,0.397757,0.397744
0.410000,0.011,0,-0.007150,123.616000,0.012131,0.716622,0.000089,-0.059939,0.029924,-9.547656,0.000000,0.000000,317.226600,423.269000,0.052458,0.052129,0.053158,0.052830,0.007542,0.007871,0.016842,0.017171,-0.451863,-0.432998,-0.874102,-0.855237,1280.969000,1339.352000,2863.132000,2918.984000,-1214.014000,-1265.583000,-2622.306000,-2565.711000,-0.103847,-0.104269,-0.103871,-0.104248,0.000000,0.000000,-22.227040,23.141210,0.000000,0.000000,0.000000,0.000000,0.000000,0.000000,0.000000,0.000000,0.004477,0.003280,0.003192,0.003192,7.801595,8.040590,-66.271110,77.137360,0.000000,0.000000,-25.808910,-34.436370,0.022293,0.022994,0.000000,0.000000,0.000000,0.000000,0.000000,0.000000,0.000000,0.000000,0.000000,-37.013660,0.000140,0.000124,-0.148364,0.018931,0.000000,0.000000,-0.004492,0.006055,0.531169,0.238466,0.373826,0.377404,0.010152,0.010152,NaN,NaN,10.099260,0.018890,195.561200,0.000000,-18.317000,0.000000,0.000000,0.000000,0.500000,0.000000,0.000000,0.000000,0.000000,0.000000,0.000000,1.062000,0.009969,0.009969,0.009969,0.009969,0.397757,0.397744
0.420000,0.012,0,-0.007150,123.616000,0.012131,0.716622,0.000089,0.002509,0.007621,-10.313720,0.000000,0.000000,0.000000,0.000000,0.056368,0.055874,0.061294,0.060800,0.003632,0.004126,0.008706,0.009200,-0.351295,-0.335351,-0.770926,-0.754952,616.579100,702.372100,1480.054000,1563.939000,-549.523700,-629.592500,-1555.524000,-1633.992000,-0.104376,-0.104522,-0.104405,-0.104497,0.000000,0.000000,-2.840062,2.636568,0.000000,0.000000,0.000000,0.000000,0.000000,0.000000,0.000000,0.000000,0.005244,0.004043,0.004475,0.004475,-0.971515,-1.117397,-9.466873,7.670286,0.000000,0.000000,0.000000,0.000000,0.026121,0.031047,-0.019782,-0.019782,0.000000,0.000000,0.000000,0.000000,0.000000,0.000000,0.000000,-5.476630,0.000146,0.000092,-0.164545,0.011384,0.000000,0.000000,-0.110501,0.097801,0.000000,0.000000,0.000000,0.000000,0.012107,0.012107,NaN,NaN,10.099180,0.027178,195.563200,0.000000,-19.936000,0.000000,0.000000,0.000000,0.500000,0.000000,0.000000,0.000000,0.000000,0.000000,0.000000,-0.054000,0.011908,0.011908,0.011908,0.011908,0.417710,0.417695
0.430000,0.013,0,-0.007150,123.616000,0.012131,0.716622,0.000089,0.004251,0.027007,-10.219780,0.000000,0.000000,0.000000,0.000000,0.059285,0.058637,0.068359,0.067710,0.000715,0.001363,0.001641,0.002290,-0.252217,-0.237003,-0.663817,-0.648588,121.319700,232.227500,278.985600,389.229600,-55.456810,-160.905900,-352.923200,-457.999700,-0.103489,-0.103520,-0.103518,-0.103494,0.000000,0.000000,-2.582354,2.364896,0.000000,0.000000,0.000000,0.000000,0.000000,0.000000,0.000000,0.000000,0.005377,0.004187,0.004825,0.004825,-1.215930,-1.352164,-8.607847,6.529629,0.000000,0.000000,0.000000,0.000000,0.028961,0.038035,-0.034264,-0.034264,0.000000,0.000000,0.000000,0.000000,0.000000,0.000000,0.000000,-5.476630,0.000146,0.000092,-0.164545,0.011384,0.000000,0.000000,-0.110501,0.097801,0.000000,0.000000,0.000000,0.000000,0.012107,0.012107,NaN,NaN,10.099180,0.027178,195.563200,0.000000,-19.936000,0.000000,0.000000,0.000000,0.500000,0.000000,0.000000,0.000000,0.000000,0.000000,0.000000,-0.054000,0.011908,0.011908,0.011908,0.011908,0.417710,0.417695
0.440000,0.014,0,-0.007150,123.616000,0.012131,0.716622,0.000089,0.005777,0.048916,-9.810786,0.000000,0.000000,0.000000,0.000000,0.060000,0.060000,0.070000,0.070000,0.000000,0.000000,0.000000,0.000000,0.000000,0.000000,0.000000,0.000000,0.000000,0.000000,0.000000,0.000000,0.000000,0.000000,0.000000,0.000000,-0.103489,-0.103040,-0.103179,-0.103179,0.000000,0.000000,-0.000005,-0.000005,0.000000,0.000000,0.000000,0.000000,0.103489,0.103040,0.103179,0.103179,0.000000,0.000000,0.000000,0.000000,0.000000,0.000000,0.000000,0.000000,0.000000,0.000000,0.000000,0.000000,0.030000,0.040000,0.000000,0.000000,-0.071007,-0.001239,0.000000,0.000000,0.000000,0.000000,0.000000,0.000000,-0.000448,0.000000,-0.160113,0.013121,NaN,NaN,NaN,NaN,NaN,NaN,NaN,NaN,0.014093,0.014093,NaN,NaN,10.099090,0.031468,195.565100,0.000000,-19.705000,0.000000,0.000000,0.000000,0.500000,0.500000,0.000000,0.000000,0.000000,0.000000,0.000000,0.000000,0.013894,0.013894,0.013894,0.013894,0.437661,0.437644
0.450000,0.015,0,-0.007150,123.616000,0.012131,0.716622,0.000089,0.007064,0.065456,-9.810248,0.000000,0.000000,0.000000,0.000000,0.060000,0.060000,0.070000,0.070000,0.000000,0.000000,0.000000,0.000000,0.000000,0.000000,0.000000,0.000000,0.000000,0.000000,0.000000,0.000000,0.000000,0.000000,0.000000,0.000000,-0.103489,-0.103040,-0.103179,-0.103179,0.000000,0.000000,-0.000005,-0.000005,0.000000,0.000000,0.000000,0.000000,0.103489,0.103040,0.103179,0.103179,0.000000,0.000000,0.000000,0.000000,0.000000,0.000000,0.000000,0.000000,0.000000,0.000000,0.000000,0.000000,0.030000,0.040000,0.000000,0.000000,-0.162750,-0.002841,0.000000,0.000000,0.000000,0.000000,0.000000,0.000000,-0.000448,0.000000,-0.160113,0.013121,NaN,NaN,NaN,NaN,NaN,NaN,NaN,NaN,0.014093,0.014093,NaN,NaN,10.099090,0.031468,195.565100,0.000000,-19.705000,0.000000,0.000000,0.000000,0.500000,0.500000,0.000000,0.000000,0.000000,0.000000,0.000000,0.000000,0.013894,0.013894,0.013894,0.013894,0.437661,0.437644
0.460000,0.016,0,-0.007150,123.616000,0.012131,0.716622,0.000089,0.008351,0.081720,-9.809827,0.000000,0.000000,0.000000,0.000000,0.060000,0.060000,0.070000,0.070000,0.000000,0.000000,0.000000,0.000000,0.000000,0.000000,0.000000,0.000000,0.000000,0.000000,0.000000,0.000000,0.000000,0.000000,0.000000,0.000000,-0.103489,-0.103040,-0.103179,-0.103179,0.000000,0.000000,-0.000005,-0.000005,0.000000,0.000000,0.000000,0.000000,0.103489,0.103040,0.103179,0.103179,0.000000,0.000000,0.000000,0.000000,0.000000,0.000000,0.000000,0.000000,0.000000,0.000000,0.000000,0.000000,0.030000,0.040000,0.000000,0.000000,-0.254486,-0.004442,0.000000,0.000000,0.000000,0.000000,0.000000,0.000000,-0.000448,0.000000,-0.160120,0.013121,NaN,NaN,NaN,NaN,NaN,NaN,NaN,NaN,0.016063,0.016063,NaN,NaN,10.099010,0.031841,195.567100,0.000000,-19.705000,0.000000,0.000000,0.000000,0.500000,0.500000,0.000000,0.000000,0.000000,0.000000,0.000000,0.000000,0.015864,0.015864,0.015864,0.015864,0.457613,0.457593
0.470000,0.017,0,-0.007150,123.616000,0.012131,0.716622,0.000089,0.009638,0.097709,-9.809529,0.000000,0.000000,0.000000,0.000000,0.060000,0.060000,0.070000,0.070000,0.000000,0.000000,0.000000,0.000000,0.000000,0.000000,0.000000,0.000000,0.000000,0.000000,0.000000,0.000000,0.000000,0.000000,0.000000,0.000000,-0.103489,-0.103040,-0.103179,-0.103179,0.000000,0.000000,-0.000005,-0.000005,0.000000,0.000000,0.000000,0.000000,0.103489,0.103040,0.103179,0.103179,0.000000,0.000000,0.000000,0.000000,0.000000,0.000000,0.000000,0.000000,0.000000,0.000000,0.000000,0.000000,0.030000,0.040000,0.000000,0.000000,-0.346230,-0.006043,0.000000,0.000000,0.000000,0.000000,0.000000,0.000000,-0.000448,0.000000,-0.160120,0.013121,NaN,NaN,NaN,NaN,NaN,NaN,NaN,NaN,0.016063,0.016063,NaN,NaN,10.099010,0.031841,195.567100,0.000000,-19.705000,0.000000,0.000000,0.000000,0.500000,0.500000,0.000000,0.000000,0.000000,0.000000,0.000000,0.000000,0.015864,0.015864,0.015864,0.015864,0.457613,0.457593
0.480000,0.018,0,-0.007150,123.616000,0.012131,0.716622,0.000089,-0.206371,0.108609,-9.130656,1337.489000,978.528100,0.000000,0.000000,0.059158,0.057815,0.070000,0.070000,0.000842,0.002185,0.000000,0.000000,0.421165,0.222236,0.000000,0.000000,142.621000,372.873700,0.000000,0.000000,1263.409000,666.663100,0.000000,0.000000,-0.100944,-0.098653,-0.103179,-0.103179,0.000000,0.000000,-0.000005,-0.000005,0.000000,0.000000,0.000000,0.000000,0.000000,0.000000,0.103179,0.103179,0.018304,0.017155,0.000000,0.000000,-15.902700,-11.171230,0.000000,0.000000,-624.076400,-427.922700,0.000000,0.000000,0.028486,0.040000,-0.052339,-0.019782,-0.401901,-0.007015,0.000000,0.000000,0.000000,0.000000,0.000000,0.000000,-0.002291,0.000000,-0.152719,-0.016033,0.000000,0.000000,NaN,NaN,5.638042,5.068477,NaN,NaN,0.018037,0.018037,NaN,NaN,10.098860,0.028363,195.569100,0.000000,-19.705000,0.000000,0.000000,0.000000,0.500000,0.500000,0.000000,0.000000,0.000000,0.000000,0.000000,0.000000,0.017836,0.017836,0.017836,0.017836,0.477565,0.477543
0.490000,0.019,0,-0.007150,123.616000,0.012131,0.716622,0.000089,-0.127070,0.104344,-7.838526,1396.493000,1612.289000,0.000000,0.000000,0.056491,0.055185,0.070000,0.070000,0.003509,0.004815,0.000000,0.000000,0.285476,0.281170,0.000000,0.000000,594.118600,821.710400,0.000000,0.000000,856.357700,843.439500,0.000000,0.000000,-0.087268,-0.079501,-0.103179,-0.103179,0.000000,0.000000,-0.000005,-0.000005,0.000000,0.000000,0.000000,0.000000,0.000000,0.000000,0.103179,0.103179,0.002938,0.001978,0.000000,0.000000,-21.913320,-25.388360,0.000000,0.000000,-104.581200,-81.289660,0.000000,0.000000,0.025838,0.040000,-0.059347,0.000000,-0.420967,-0.007347,0.000000,0.000000,0.000000,0.000000,0.000000,0.000000,-0.002291,0.000000,-0.152719,-0.016033,0.000000,0.000000,NaN,NaN,5.638042,5.068477,NaN,NaN,0.018037,0.018037,NaN,NaN,10.098860,0.028363,195.569100,0.000000,-19.705000,0.000000,0.000000,0.000000,0.500000,0.500000,0.000000,0.000000,0.000000,0.000000,0.000000,0.000000,0.017836,0.017836,0.017836,0.017836,0.477565,0.477543
0.500000,0.020,0,-0.004658,139.989300,0.006628,0.216279,-0.007213,-0.094932,0.098579,-7.007812,2015.091000,2209.464000,0.000000,0.000000,0.053445,0.052208,0.070000,0.070000,0.006555,0.007792,0.000000,0.000000,0.314459,0.305221,0.000000,0.000000,1110.202000,1329.281000,0.000000,0.000000,943.285600,915.572200,0.000000,0.000000,-0.064779,-0.054696,-0.103179,-0.103179,0.000000,0.000000,-0.000005,-0.000005,0.000000,0.000000,0.000000,0.000000,0.000000,0.000000,0.103179,0.103179,0.001724,0.001037,0.000000,0.000000,-32.066020,-34.707030,0.000000,0.000000,-88.584170,-58.399130,0.000000,0.000000,0.022827,0.040000,-0.052339,0.000000,-0.412544,-0.007200,0.000000,0.000000,0.000000,0.000000,0.000000,0.000000,-0.010083,0.000000,-0.086749,-0.006460,0.000000,0.000000,NaN,NaN,0.571388,0.350361,NaN,NaN,0.019658,0.019658,NaN,NaN,10.098800,0.022394,195.570600,0.000000,-19.705000,0.000000,0.000000,0.000000,0.500000,0.500000,0.000000,0.000000,0.000000,0.000000,0.000000,0.000000,0.019536,0.019536,0.019536,0.019536,0.497524,0.497499
0.510000,0.020,0,-0.004658,139.989300,0.006628,0.216279,-0.007213,-0.077743,0.087812,-6.240560,2593.004000,2757.112000,0.000000,0.000000,0.050253,0.049136,0.070000,0.070000,0.009747,0.010864,0.000000,0.000000,0.319690,0.305608,0.000000,0.000000,1651.453000,1852.784000,0.000000,0.000000,958.967300,916.727000,0.000000,0.000000,-0.034721,-0.022758,-0.103179,-0.103179,0.000000,0.000000,-0.000005,-0.000005,0.000000,0.000000,0.000000,0.000000,0.000000,0.000000,0.103179,0.103179,0.001032,0.000701,0.000000,0.000000,-41.046880,-43.209520,0.000000,0.000000,-68.232390,-49.266570,0.000000,0.000000,0.019694,0.040000,-0.039565,0.000000,-0.374703,-0.006540,0.000000,0.000000,0.000000,0.000000,0.000000,0.000000,-0.010083,0.000000,-0.086749,-0.006460,0.000000,0.000000,NaN,NaN,0.571388,0.350361,NaN,NaN,0.019658,0.019658,NaN,NaN,10.098800,0.022394,195.570600,0.000000,-19.705000,0.000000,0.000000,0.000000,0.500000,0.500000,0.000000,0.000000,0.000000,0.000000,0.000000,0.000000,0.019536,0.019536,0.019536,0.019536,0.497524,0.497499
0.520000,0.020,0,-0.004658,139.989300,0.006628,0.216279,-0.007213,-0.042141,0.031671,-5.573637,3098.538000,3226.340000,0.000000,0.000000,0.047138,0.046184,0.070000,0.070000,0.012862,0.013816,0.000000,0.000000,0.303373,0.285432,0.000000,0.000000,2180.220000,2355.113000,0.000000,0.000000,910.022500,856.205200,0.000000,0.000000,0.001791,0.015108,-0.103179,-0.103179,0.000000,0.000000,-0.000005,-0.000005,0.000000,0.000000,0.000000,0.000000,0.000000,0.000000,0.103179,0.103179,0.000626,0.000724,0.000000,0.000000,-48.375760,-48.989010,0.000000,0.000000,-49.442800,-59.505950,0.000000,0.000000,0.016661,0.040000,-0.039565,-0.019782,-0.305641,-0.005334,0.000000,0.000000,0.000000,0.000000,0.000000,0.000000,-0.013317,0.000000,0.027386,-0.012800,0.000000,0.000000,NaN,NaN,0.229831,0.268613,NaN,NaN,0.020253,0.020253,NaN,NaN,10.098790,0.015979,195.571100,0.000000,-19.705000,0.000000,0.000000,0.000000,0.500000,0.500000,0.000000,0.000000,0.000000,0.000000,0.000000,0.000000,0.020253,0.020253,0.020253,0.020253,0.517506,0.517481
0.530000,0.020,0,-0.004658,139.989300,0.006628,0.216279,-0.007213,-0.042161,-0.034116,-5.039532,3512.005000,3599.389000,0.000000,0.000000,0.044292,0.043534,0.070000,0.070000,0.015708,0.016466,0.000000,0.000000,0.270009,0.249460,0.000000,0.000000,2664.145000,2805.239000,0.000000,0.000000,809.950000,748.309700,0.000000,0.000000,0.042311,0.056710,-0.103179,-0.103179,0.000000,0.000000,-0.000005,-0.000005,0.000000,0.000000,0.000000,0.000000,0.000000,0.000000,0.103179,0.103179,0.000017,0.000587,0.000000,0.000000,-52.731220,-53.878510,0.000000,0.000000,-1.489014,-53.840180,0.000000,0.000000,0.013913,0.040000,-0.034264,0.000000,-0.204079,-0.003562,0.000000,0.000000,0.000000,0.000000,0.000000,0.000000,-0.013317,0.000000,0.027386,-0.012800,0.000000,0.000000,NaN,NaN,0.229831,0.268613,NaN,NaN,0.020253,0.020253,NaN,NaN,10.098790,0.015979,195.571100,0.000000,-19.705000,0.000000,0.000000,0.000000,0.500000,0.500000,0.000000,0.000000,0.000000,0.000000,0.000000,0.000000,0.020253,0.020253,0.020253,0.020253,0.517506,0.517481
0.540000,0.021,0,-0.004658,139.989300,0.006628,0.216279,-0.007213,-0.018674,-0.059741,-4.656758,3813.807000,3857.214000,0.000000,0.000000,0.041871,0.041331,0.070000,0.070000,0.018129,0.018669,0.000000,0.000000,0.222087,0.199720,0.000000,0.000000,3076.813000,3178.545000,0.000000,0.000000,666.209900,599.115100,0.000000,0.000000,0.086409,0.101405,-0.103179,-0.103179,0.000000,0.000000,-0.000005,-0.000005,0.000000,0.000000,0.000000,0.000000,0.000000,0.000000,0.103179,0.103179,-0.000408,0.000673,0.000000,0.000000,-56.428020,-56.943790,0.000000,0.000000,39.673220,-66.208590,0.000000,0.000000,0.011601,0.040000,-0.019782,0.000000,-0.068939,-0.001203,0.000000,0.000000,0.000000,0.000000,0.000000,0.000000,-0.014996,0.000000,0.176905,-0.015911,0.000000,0.000000,NaN,NaN,-0.159017,0.263287,NaN,NaN,0.021169,0.021169,NaN,NaN,10.098790,0.010717,195.570000,0.000000,-19.705000,0.000000,0.000000,0.000000,0.500000,0.500000,0.000000,0.000000,0.000000,0.000000,0.000000,0.000000,0.020986,0.020986,0.020986,0.020986,0.537488,0.537462
0.550000,0.022,0,-0.004658,139.989300,0.006628,0.216279,-0.007213,0.644234,-0.078166,-0.446897,4057.471000,4106.337000,2940.382000,2981.152000,0.039940,0.039549,0.065845,0.065454,0.020060,0.020451,0.004155,0.004546,0.184745,0.174925,0.779688,0.770017,3406.114000,3480.467000,706.255700,772.718300,554.205100,524.747100,2338.944000,2309.933000,0.120954,0.120519,0.120924,0.120553,0.000000,0.000000,138.688200,-102.246000,0.000000,0.000000,0.000000,0.000000,0.000000,0.000000,0.000000,0.000000,0.004921,0.006308,0.004941,0.004941,-33.899780,8.758496,428.861000,-332.529800,-508.953900,-660.329500,-370.354400,-375.489400,0.009745,0.035650,0.000000,0.000000,0.000000,0.000000,0.000000,0.000000,0.000000,0.000000,0.000000,0.000000,-0.014996,0.000000,0.176905,-0.015911,0.000000,0.000000,NaN,NaN,-0.159017,0.263287,NaN,NaN,0.021169,0.021169,NaN,NaN,10.098790,0.010717,195.570000,0.000000,-19.705000,0.000000,0.000000,0.000000,0.500000,0.500000,0.000000,0.000000,0.000000,0.000000,0.000000,0.000000,0.020986,0.020986,0.020986,0.020986,0.537488,0.537462
0.560000,0.023,0,-0.004658,139.989300,0.006628,0.216279,-0.007213,-8.580894,-0.100396,1.720070,4155.513000,4526.730000,4110.673000,4474.509000,0.038287,0.037761,0.058106,0.057580,0.021713,0.022239,0.011894,0.012420,0.116319,0.219584,0.725627,0.828832,3685.385000,3786.283000,2021.928000,2111.256000,348.944800,658.730500,2176.815000,2486.422000,0.122741,0.121338,0.123045,0.121039,0.000000,0.000000,96.144680,-100.968300,0.000000,0.000000,0.000000,0.000000,0.000000,0.000000,0.000000,0.000000,-0.053106,-0.051704,-0.056053,-0.056053,5.123955,5.741553,320.482200,-327.822200,4234.554000,4551.283000,4196.010000,4506.963000,0.008024,0.027843,-0.019782,-0.019782,0.000000,0.000000,0.000000,0.000000,0.000000,0.000000,0.000000,197.113000,0.001403,0.002005,0.238844,0.073850,0.000000,0.000000,0.013525,-0.013263,-15.993310,-16.216040,-15.966400,-16.184710,0.023470,0.023470,NaN,NaN,10.098860,0.007098,195.567600,0.000000,23.198000,0.000000,0.000000,0.000000,0.500000,0.000000,0.000000,0.000000,0.000000,0.000000,0.000000,-0.620000,0.023233,0.023233,0.023233,0.023233,0.557433,0.557404
0.570000,0.025,0,-0.004658,139.989300,0.006628,0.216279,-0.007213,13.006300,-0.076830,3.629781,4767.592000,4432.677000,5611.346000,5265.680000,0.036458,0.036295,0.050398,0.050235,0.023542,0.023705,0.019602,0.019765,0.233412,0.092998,0.800416,0.660002,4000.099000,4031.807000,3332.256000,3360.080000,700.224900,278.990200,2401.211000,1979.977000,0.112152,0.109428,0.111739,0.109844,0.000000,0.000000,47.197970,-49.982860,0.000000,0.000000,0.000000,0.000000,0.000000,0.000000,0.000000,0.000000,0.071605,0.072878,0.068798,0.068798,31.364540,7.163527,157.326600,-163.918900,-4754.822000,-4471.408000,-5458.995000,-5171.890000,0.006376,0.020316,0.000000,0.000000,0.000000,0.000000,0.000000,0.000000,0.000000,0.000000,0.000000,197.113000,0.001403,0.002005,0.238844,0.073850,0.000000,0.000000,0.013525,-0.013263,-15.993310,-16.216040,-15.966400,-16.184710,0.023470,0.023470,NaN,NaN,10.098860,0.007098,195.567600,0.000000,23.198000,0.000000,0.000000,0.000000,0.500000,0.000000,0.000000,0.000000,0.000000,0.000000,0.000000,-0.620000,0.023233,0.023233,0.023233,0.023233,0.557433,0.557404
