TIME,DISTANCE,MARKERS,SPEED,SPEEDANGLE,SPEEDLAT,VELOCITY,YAWRATE,ACCELERATIONLAT,ACCELERATIONLONG,ACCELERATIONVERT,SUSPENSIONLOADFL,SUSPENSIONLOADFR,SUSPENSIONLOADRL,SUSPENSIONLOADRR,SUSPENSIONTRAVELFL,SUSPENSIONTRAVELFR,SUSPENSIONTRAVELRL,SUSPENSIONTRAVELRR,SUSPENSIONCONTACTDEPTHFL,SUSPENSIONCONTACTDEPTHFR,SUSPENSIONCONTACTDEPTHRL,SUSPENSIONCONTACTDEPTHRR,SUSPENSIONCONTACTSPEEDFL,SUSPENSIONCONTACTSPEEDFR,SUSPENSIONCONTACTSPEEDRL,SUSPENSIONCONTACTSPEEDRR,SUSPENSIONSPRINGFORCEFL,SUSPENSIONSPRINGFORCEFR,SUSPENSIONSPRINGFORCERL,SUSPENSIONSPRINGFORCERR,SUSPENSIONDAMPERFORCEFL,SUSPENSIONDAMPERFORCEFR,SUSPENSIONDAMPERFORCERL,SUSPENSIONDAMPERFORCERR,WHEELSPINFL,WHEELSPINFR,WHEELSPINRL,WHEELSPINRR,WHEELSHAFTTORQUEFL,WHEELSHAFTTORQUEFR,WHEELSHAFTTORQUERL,WHEELSHAFTTORQUERR,WHEELBRAKETORQUEFL,WHEELBRAKETORQUEFR,WHEELBRAKETORQUERL,WHEELBRAKETORQUERR,TIRESLIPLONGFL,TIRESLIPLONGFR,TIRESLIPLONGRL,TIRESLIPLONGRR,TIRESLIPLATFL,TIRESLIPLATFR,TIRESLIPLATRL,TIRESLIPLATRR,TIREFORCELONGFL,TIREFORCELONGFR,TIREFORCELONGRL,TIREFORCELONGRR,TIREFORCELATFL,TIREFORCELATFR,TIREFORCELATRL,TIREFORCELATRR,RIDEHEIGHTFRONT,RIDEHEIGHTREAR,ROLLANGLEFRONT,ROLLANGLEREAR,GROUNDSLOPE,GROUNDGRADE,GEAR,STEERINGANGLE,THROTTLE,BRAKEPRESSURE,TORQUEDIFFFRONT,TORQUEDIFFREAR,SPEEDDIFFFRONT,SPEEDDIFFREAR,PITCHRATE,ROLLRATE,SLIPRATIOFL,SLIPRATIOFR,SLIPRATIORL,SLIPRATIORR,SLIPANGLEFL,SLIPANGLEFR,SLIPANGLERL,SLIPANGLERR,LAPDISTANCE,TOTALDISTANCE,FORCEFEEDBACKFORCERATIO,FORCEFEEDBACKDAMPERRATIO,POSITIONX,POSITIONY,POSITIONZ,MOTORRPMFRONT,MOTORRPMREAR,POWERELECTRICALFRONT,POWERELECTRICALREAR,POWERELECTRICALTOTAL,POWERBALANCE,WHEELTORQUEBALANCE,EFFICIENCYFRONT,EFFICIENCYREAR,TORQUEMECHANICALFRONT,TORQUEMECHANICALREAR,TORQUEROTORFRONT,TORQUEROTORREAR,919SPEED,IDRSPEED,919TRAVELEDDISTANCE,IDRTRAVELEDDISTANCE,919TIMEDIFF,IDRTIMEDIFF
0.000000,0.000,0,0.000000,0.000000,0.000000,0.000000,0.000000,0.000000,0.000000,0.000000,0.000000,0.000000,0.000000,0.000000,0.060000,0.060000,0.070000,0.070000,0.000000,0.000000,0.000000,0.000000,0.000000,0.000000,0.000000,0.000000,0.000000,0.000000,0.000000,0.000000,0.000000,0.000000,0.000000,0.000000,0.000000,0.000000,0.000000,0.000000,0.000000,0.000000,0.000000,0.000000,0.000000,0.000000,0.000000,0.000000,0.000000,0.000000,0.000000,0.000000,0.000000,0.000000,0.000000,0.000000,0.000000,0.000000,0.000000,0.000000,0.000000,0.000000,0.000000,0.000000,0.030000,0.040000,0.000000,0.000000,0.224686,0.003922,1.000000,0.000000,0.000000,0.000000,0.000000,0.000000,0.000000,0.000000,0.000000,0.000000,NaN,NaN,NaN,NaN,NaN,NaN,NaN,NaN,0.000000,0.000000,NaN,NaN,10.100000,0.470000,195.560000,0.000000,0.000000,0.000000,0.000000,0.000000,0.500000,0.500000,0.000000,0.882000,0.000000,0.000000,0.000000,0.000000,0.000000,0.000000,0.000000,0.000000,0.000000,0.000000
0.010000,0.000,0,0.000000,0.000000,0.000000,0.000000,0.000000,0.000000,-0.000088,-9.810049,0.000000,0.000000,0.000000,0.000000,0.060000,0.060000,0.070000,0.070000,0.000000,0.000000,0.000000,0.000000,0.000000,0.000000,0.000000,0.000000,0.000000,0.000000,0.000000,0.000000,0.000000,0.000000,0.000000,0.000000,0.000000,0.000000,1.311423,1.311423,0.000000,0.000000,499.294300,499.294300,0.000000,0.000000,0.000000,0.000000,0.000000,0.000000,-1.311423,-1.311423,0.000000,0.000000,0.000000,0.000000,0.000000,0.000000,0.000000,0.000000,0.000000,0.000000,0.000000,0.000000,0.030000,0.040000,0.000000,0.000000,0.224686,0.003922,1.000000,0.000000,0.000000,0.000000,0.000000,0.000000,0.000000,0.000000,0.000000,0.000000,NaN,NaN,NaN,NaN,NaN,NaN,NaN,NaN,0.000000,0.000000,NaN,NaN,10.100000,0.470000,195.560000,0.000000,0.000000,0.000000,0.000000,0.000000,0.500000,0.500000,0.000000,0.882000,0.000000,0.000000,0.000000,0.000000,0.000000,0.000000,0.000000,0.000000,0.000000,0.000000
0.020000,0.000,0,0.000000,0.000000,0.000000,0.000000,0.000000,0.000000,-0.000446,-9.810239,0.000000,0.000000,0.000000,0.000000,0.060000,0.060000,0.070000,0.070000,0.000000,0.000000,0.000000,0.000000,0.000000,0.000000,0.000000,0.000000,0.000000,0.000000,0.000000,0.000000,0.000000,0.000000,0.000000,0.000000,0.000000,0.000000,2.437362,2.437362,0.000000,0.000000,82.704440,82.704440,0.000000,0.000000,0.000000,0.000000,0.000000,0.000000,-2.437362,-2.437362,0.000000,0.000000,0.000000,0.000000,0.000000,0.000000,0.000000,0.000000,0.000000,0.000000,0.000000,0.000000,0.030000,0.040000,0.000000,0.000000,0.224686,0.003922,1.000000,0.000000,0.078476,0.000000,0.000000,0.000000,0.000000,0.000000,-0.000001,0.000000,NaN,NaN,NaN,NaN,NaN,NaN,NaN,NaN,0.000000,0.000000,NaN,NaN,10.100000,0.467842,195.560000,0.000000,465.501000,0.000000,1.825000,1.825000,0.000000,0.000000,0.000000,0.938000,0.000000,35.468000,0.000000,27.442000,0.000000,0.000000,0.000000,0.000000,0.018000,0.018000
0.030000,0.000,0,0.000000,0.000000,0.000000,0.000000,0.000000,0.000000,-0.001079,-9.810581,0.000000,0.000000,0.000000,0.000000,0.060000,0.060000,0.070000,0.070000,0.000000,0.000000,0.000000,0.000000,0.000000,0.000000,0.000000,0.000000,0.000000,0.000000,0.000000,0.000000,0.000000,0.000000,0.000000,0.000000,0.000000,0.000000,2.646051,2.646051,0.000000,0.000000,75.672770,75.672770,0.000000,0.000000,0.000000,0.000000,0.000000,0.000000,-2.646051,-2.646051,0.000000,0.000000,0.000000,0.000000,0.000000,0.000000,0.000000,0.000000,0.000000,0.000000,0.000000,0.000000,0.030000,0.040000,0.000000,0.000000,0.224686,0.003922,1.000000,0.000000,0.078476,0.000000,0.000000,0.000000,0.000000,0.000000,-0.000001,0.000000,NaN,NaN,NaN,NaN,NaN,NaN,NaN,NaN,0.000000,0.000000,NaN,NaN,10.100000,0.467842,195.560000,0.000000,465.501000,0.000000,1.825000,1.825000,0.000000,0.000000,0.000000,0.938000,0.000000,35.468000,0.000000,27.442000,0.000000,0.000000,0.000000,0.000000,0.018000,0.018000
0.040000,0.000,0,0.000000,0.000000,0.000000,0.000000,0.000000,0.000000,-0.001986,-9.811073,0.000000,0.000000,0.000000,0.000000,0.060000,0.060000,0.070000,0.070000,0.000000,0.000000,0.000000,0.000000,0.000000,0.000000,0.000000,0.000000,0.000000,0.000000,0.000000,0.000000,0.000000,0.000000,0.000000,0.000000,0.000000,0.000000,2.837826,2.837826,0.000000,0.000000,69.712680,69.712680,0.000000,0.000000,0.000000,0.000000,0.000000,0.000000,-2.837826,-2.837826,0.000000,0.000000,0.000000,0.000000,0.000000,0.000000,0.000000,0.000000,0.000000,0.000000,0.000000,0.000000,0.030000,0.040000,0.000000,0.000000,0.224686,0.003922,1.000000,0.000000,0.077671,0.000000,0.000000,0.000000,0.000000,0.000000,-0.000011,0.000000,NaN,NaN,NaN,NaN,NaN,NaN,NaN,NaN,0.000000,0.000000,NaN,NaN,10.100000,0.461759,195.560000,0.000000,541.984000,0.000000,1.796000,1.796000,0.000000,0.000000,0.000000,0.944000,0.000000,30.090000,0.000000,23.160000,0.000000,0.000000,0.000000,0.000000,0.038000,0.038000
0.050000,0.000,0,0.000000,0.000000,0.000000,0.000000,0.000000,0.000000,-0.003168,-9.811699,0.000000,0.000000,0.000000,0.000000,0.060000,0.060000,0.070000,0.070000,0.000000,0.000000,0.000000,0.000000,0.000000,0.000000,0.000000,0.000000,0.000000,0.000000,0.000000,0.000000,0.000000,0.000000,0.000000,0.000000,0.000000,0.000000,3.016087,3.016087,0.000000,0.000000,65.173780,65.173780,0.000000,0.000000,0.000000,0.000000,0.000000,0.000000,-3.016087,-3.016087,0.000000,0.000000,0.000000,0.000000,0.000000,0.000000,0.000000,0.000000,0.000000,0.000000,0.000000,0.000000,0.030000,0.040000,0.000000,0.000000,0.224670,0.003921,1.000000,0.000000,0.077671,0.000000,0.000000,0.000000,0.000000,0.000000,-0.000011,0.000000,NaN,NaN,NaN,NaN,NaN,NaN,NaN,NaN,0.000000,0.000000,NaN,NaN,10.100000,0.461759,195.560000,0.000000,541.984000,0.000000,1.796000,1.796000,0.000000,0.000000,0.000000,0.944000,0.000000,30.090000,0.000000,23.160000,0.000000,0.000000,0.000000,0.000000,0.038000,0.038000
0.060000,0.000,0,0.000000,0.000000,0.000000,0.000000,0.000000,0.000000,-0.004624,-9.812474,0.000000,0.000000,0.000000,0.000000,0.060000,0.060000,0.070000,0.070000,0.000000,0.000000,0.000000,0.000000,0.000000,0.000000,0.000000,0.000000,0.000000,0.000000,0.000000,0.000000,0.000000,0.000000,0.000000,0.000000,0.000000,0.000000,3.175980,3.175980,0.000000,0.000000,58.391510,58.391510,0.000000,0.000000,0.000000,0.000000,0.000000,0.000000,-3.175980,-3.175980,0.000000,0.000000,0.000000,0.000000,0.000000,0.000000,0.000000,0.000000,0.000000,0.000000,0.000000,0.000000,0.030000,0.040000,0.000000,0.000000,0.224655,0.003921,1.000000,0.000000,0.074753,0.000000,0.000000,0.000000,0.000000,0.000000,-0.000039,0.000000,NaN,NaN,NaN,NaN,NaN,NaN,NaN,NaN,0.000000,0.000000,NaN,NaN,10.100000,0.451752,195.560000,0.000000,606.567000,0.000000,1.691000,1.691000,0.000000,0.000000,0.000000,0.948000,0.000000,25.386000,0.000000,19.415000,0.000000,0.000000,0.000000,0.000000,0.058000,0.058000
0.070000,0.000,0,0.000000,0.000000,0.000000,0.000000,0.000000,0.000000,-0.006353,-9.813428,0.000000,0.000000,0.000000,0.000000,0.060000,0.060000,0.070000,0.070000,0.000000,0.000000,0.000000,0.000000,0.000000,0.000000,0.000000,0.000000,0.000000,0.000000,0.000000,0.000000,0.000000,0.000000,0.000000,0.000000,0.000000,0.000000,3.326948,3.326948,0.000000,0.000000,55.372340,55.372340,0.000000,0.000000,0.000000,0.000000,0.000000,0.000000,-3.326948,-3.326948,0.000000,0.000000,0.000000,0.000000,0.000000,0.000000,0.000000,0.000000,0.000000,0.000000,0.000000,0.000000,0.030000,0.040000,0.000000,0.000000,0.224625,0.003920,1.000000,0.000000,0.074753,0.000000,0.000000,0.000000,0.000000,0.000000,-0.000039,0.000000,NaN,NaN,NaN,NaN,NaN,NaN,NaN,NaN,0.000000,0.000000,NaN,NaN,10.100000,0.451752,195.560000,0.000000,606.567000,0.000000,1.691000,1.691000,0.000000,0.000000,0.000000,0.948000,0.000000,25.386000,0.000000,19.415000,0.000000,0.000000,0.000000,0.000000,0.058000,0.058000
0.080000,0.000,0,0.000000,0.000000,0.000000,0.000000,0.000000,0.000000,-0.008356,-9.814501,0.000000,0.000000,0.000000,0.000000,0.060000,0.060000,0.070000,0.070000,0.000000,0.000000,0.000000,0.000000,0.000000,0.000000,0.000000,0.000000,0.000000,0.000000,0.000000,0.000000,0.000000,0.000000,0.000000,0.000000,0.000000,0.000000,3.470477,3.470477,0.000000,0.000000,52.729150,52.729150,0.000000,0.000000,0.000000,0.000000,0.000000,0.000000,-3.470477,-3.470477,0.000000,0.000000,0.000000,0.000000,0.000000,0.000000,0.000000,0.000000,0.000000,0.000000,0.000000,0.000000,0.030000,0.040000,0.000000,0.000000,0.224579,0.003920,1.000000,0.000000,0.074228,0.000000,0.000000,0.000000,0.000000,0.000000,-0.000094,0.000000,NaN,NaN,NaN,NaN,NaN,NaN,NaN,NaN,0.000000,0.000000,NaN,NaN,10.100000,0.437818,195.560000,0.000000,662.812000,0.000000,1.672000,1.672000,0.000000,0.000000,0.000000,0.952000,0.000000,23.030000,0.000000,17.540000,0.000000,0.000000,0.000000,0.000000,0.078000,0.078000
0.090000,0.000,0,0.000000,0.000000,0.000000,0.000000,0.000000,0.000000,-0.010630,-9.815722,0.000000,0.000000,0.000000,0.000000,0.060000,0.060000,0.070000,0.070000,0.000000,0.000000,0.000000,0.000000,0.000000,0.000000,0.000000,0.000000,0.000000,0.000000,0.000000,0.000000,0.000000,0.000000,0.000000,0.000000,0.000000,0.000000,3.607446,3.607446,0.000000,0.000000,50.386830,50.386830,0.000000,0.000000,0.000000,0.000000,0.000000,0.000000,-3.607446,-3.607446,0.000000,0.000000,0.000000,0.000000,0.000000,0.000000,0.000000,0.000000,0.000000,0.000000,0.000000,0.000000,0.030000,0.040000,0.000000,0.000000,0.224510,0.003918,1.000000,0.000000,0.074228,0.000000,0.000000,0.000000,0.000000,0.000000,-0.000094,0.000000,NaN,NaN,NaN,NaN,NaN,NaN,NaN,NaN,0.000000,0.000000,NaN,NaN,10.100000,0.437818,195.560000,0.000000,662.812000,0.000000,1.672000,1.672000,0.000000,0.000000,0.000000,0.952000,0.000000,23.030000,0.000000,17.540000,0.000000,0.000000,0.000000,0.000000,0.078000,0.078000
0.100000,0.000,0,-0.000440,180.000000,0.000000,0.981239,0.000000,0.000000,-0.013176,-9.817123,0.000000,0.000000,0.000000,0.000000,0.060000,0.060000,0.070000,0.070000,0.000000,0.000000,0.000000,0.000000,0.000000,0.000000,0.000000,0.000000,0.000000,0.000000,0.000000,0.000000,0.000000,0.000000,0.000000,0.000000,0.000000,0.000000,3.738566,3.738566,0.000000,0.000000,48.290830,48.290830,0.000000,0.000000,0.000000,0.000000,0.000000,0.000000,-3.738566,-3.738566,0.000000,0.000000,0.000000,0.000000,0.000000,0.000000,0.000000,0.000000,0.000000,0.000000,0.000000,0.000000,0.030000,0.040000,0.000000,0.000000,0.224419,0.003917,1.000000,0.000000,0.073704,0.000000,0.000000,0.000000,0.000000,0.000000,-0.000185,0.000000,NaN,NaN,NaN,NaN,NaN,NaN,NaN,NaN,0.000000,0.000000,NaN,NaN,10.100000,0.419957,195.560000,0.000000,714.013000,0.000000,1.653000,1.653000,0.000000,0.000000,0.000000,0.954000,0.000000,21.182000,0.000000,16.068000,0.000000,0.000000,0.000000,0.000000,0.098000,0.098000
0.110000,0.000,0,-0.000440,180.000000,0.000000,0.981239,0.000000,0.000000,-0.015992,-9.818673,0.000000,0.000000,0.000000,0.000000,0.060000,0.060000,0.070000,0.070000,0.000000,0.000000,0.000000,0.000000,0.000000,0.000000,0.000000,0.000000,0.000000,0.000000,0.000000,0.000000,0.000000,0.000000,0.000000,0.000000,0.000000,0.000000,3.863537,3.863537,0.000000,0.000000,46.130810,46.130810,0.000000,0.000000,0.000000,0.000000,0.000000,0.000000,-3.863537,-3.863537,0.000000,0.000000,0.000000,0.000000,0.000000,0.000000,0.000000,0.000000,0.000000,0.000000,0.000000,0.000000,0.030000,0.040000,0.000000,0.000000,0.224289,0.003915,1.000000,0.000000,0.073704,0.000000,0.000000,0.000000,0.000000,0.000000,-0.000185,0.000000,NaN,NaN,NaN,NaN,NaN,NaN,NaN,NaN,0.000000,0.000000,NaN,NaN,10.100000,0.419957,195.560000,0.000000,714.013000,0.000000,1.653000,1.653000,0.000000,0.000000,0.000000,0.954000,0.000000,21.182000,0.000000,16.068000,0.000000,0.000000,0.000000,0.000000,0.098000,0.098000
0.120000,0.000,0,-0.000440,180.000000,0.000000,0.981239,0.000000,0.000000,-0.019077,-9.820342,0.000000,0.000000,0.000000,0.000000,0.060000,0.060000,0.070000,0.070000,0.000000,0.000000,0.000000,0.000000,0.000000,0.000000,0.000000,0.000000,0.000000,0.000000,0.000000,0.000000,0.000000,0.000000,0.000000,0.000000,0.000000,0.000000,3.983655,3.983655,0.000000,0.000000,44.432140,44.432140,0.000000,0.000000,0.000000,0.000000,0.000000,0.000000,-3.983655,-3.983655,0.000000,0.000000,0.000000,0.000000,0.000000,0.000000,0.000000,0.000000,0.000000,0.000000,0.000000,0.000000,0.030000,0.040000,0.000000,0.000000,0.224121,0.003912,1.000000,0.000000,0.072922,0.000000,0.000000,0.000000,0.000000,0.000000,-0.000322,0.000000,NaN,NaN,NaN,NaN,NaN,NaN,NaN,NaN,0.000000,0.000000,NaN,NaN,10.100000,0.398166,195.560000,0.000000,760.822000,0.000000,1.625000,1.625000,0.000000,0.000000,0.000000,0.956000,0.000000,19.573000,0.000000,14.788000,0.000000,0.000000,0.000000,0.000000,0.118000,0.118000
0.130000,0.000,0,-0.000440,180.000000,0.000000,0.981239,0.000000,0.000000,-0.022431,-9.822130,0.000000,0.000000,0.000000,0.000000,0.060000,0.060000,0.070000,0.070000,0.000000,0.000000,0.000000,0.000000,0.000000,0.000000,0.000000,0.000000,0.000000,0.000000,0.000000,0.000000,0.000000,0.000000,0.000000,0.000000,0.000000,0.000000,4.100040,4.100040,0.000000,0.000000,43.134290,43.134290,0.000000,0.000000,0.000000,0.000000,0.000000,0.000000,-4.100040,-4.100040,0.000000,0.000000,0.000000,0.000000,0.000000,0.000000,0.000000,0.000000,0.000000,0.000000,0.000000,0.000000,0.030000,0.040000,0.000000,0.000000,0.223908,0.003908,1.000000,0.000000,0.072922,0.000000,0.000000,0.000000,0.000000,0.000000,-0.000322,0.000000,NaN,NaN,NaN,NaN,NaN,NaN,NaN,NaN,0.000000,0.000000,NaN,NaN,10.100000,0.398166,195.560000,0.000000,760.822000,0.000000,1.625000,1.625000,0.000000,0.000000,0.000000,0.956000,0.000000,19.573000,0.000000,14.788000,0.000000,0.000000,0.000000,0.000000,0.118000,0.118000
0.140000,0.000,0,-0.000440,180.000000,0.000000,0.981239,0.000000,0.000000,-0.026052,-9.824158,0.000000,0.000000,0.000000,0.000000,0.060000,0.060000,0.070000,0.070000,0.000000,0.000000,0.000000,0.000000,0.000000,0.000000,0.000000,0.000000,0.000000,0.000000,0.000000,0.000000,0.000000,0.000000,0.000000,0.000000,0.000000,0.000000,4.213134,4.213134,0.000000,0.000000,41.940330,41.940330,0.000000,0.000000,0.000000,0.000000,0.000000,0.000000,-4.213134,-4.213134,0.000000,0.000000,0.000000,0.000000,0.000000,0.000000,0.000000,0.000000,0.000000,0.000000,0.000000,0.000000,0.030000,0.040000,0.000000,0.000000,0.223640,0.003903,1.000000,0.000000,0.072922,0.000000,0.000000,0.000000,0.000000,0.000000,-0.000514,0.000000,NaN,NaN,NaN,NaN,NaN,NaN,NaN,NaN,0.000015,0.000015,NaN,NaN,10.100000,0.372442,195.560000,0.000000,804.649000,0.000000,1.625000,1.625000,0.000000,0.000000,0.000000,0.958000,0.000000,18.535000,0.000000,13.961000,0.000015,0.000015,0.000015,0.000015,0.138000,0.138000
0.150000,0.000,0,-0.000440,180.000000,0.000000,0.981239,0.000000,0.000000,-0.029938,-9.826184,0.000000,0.000000,0.000000,0.000000,0.060000,0.060000,0.070000,0.070000,0.000000,0.000000,0.000000,0.000000,0.000000,0.000000,0.000000,0.000000,0.000000,0.000000,0.000000,0.000000,0.000000,0.000000,0.000000,0.000000,0.000000,0.000000,4.321869,4.321869,0.000000,0.000000,40.350820,40.350820,0.000000,0.000000,0.000000,0.000000,0.000000,0.000000,-4.321869,-4.321869,0.000000,0.000000,0.000000,0.000000,0.000000,0.000000,0.000000,0.000000,0.000000,0.000000,0.000000,0.000000,0.030000,0.040000,0.000000,0.000000,0.223305,0.003897,1.000000,0.000000,0.072922,0.000000,0.000000,0.000000,0.000000,0.000000,-0.000514,0.000000,NaN,NaN,NaN,NaN,NaN,NaN,NaN,NaN,0.000015,0.000015,NaN,NaN,10.100000,0.372442,195.560000,0.000000,804.649000,0.000000,1.625000,1.625000,0.000000,0.000000,0.000000,0.958000,0.000000,18.535000,0.000000,13.961000,0.000015,0.000015,0.000015,0.000015,0.138000,0.138000
0.160000,0.000,0,-0.000440,180.000000,0.000000,0.981239,0.000000,0.000000,-0.034089,-9.828568,0.000000,0.000000,0.000000,0.000000,0.060000,0.060000,0.070000,0.070000,0.000000,0.000000,0.000000,0.000000,0.000000,0.000000,0.000000,0.000000,0.000000,0.000000,0.000000,0.000000,0.000000,0.000000,0.000000,0.000000,0.000000,0.000000,4.426953,4.426953,0.000000,0.000000,38.873230,38.873230,0.000000,0.000000,0.000000,0.000000,0.000000,0.000000,-4.426953,-4.426953,0.000000,0.000000,0.000000,0.000000,0.000000,0.000000,0.000000,0.000000,0.000000,0.000000,0.000000,0.000000,0.030000,0.040000,0.000000,0.000000,0.222893,0.003890,1.000000,0.000000,0.071886,0.000000,0.000000,0.000000,0.000000,0.000000,-0.000769,0.000000,NaN,NaN,NaN,NaN,NaN,NaN,NaN,NaN,0.000015,0.000015,NaN,NaN,10.100000,0.342783,195.560000,0.000000,845.485000,0.000000,1.587000,1.587000,0.000000,0.000000,0.000000,0.959000,0.000000,17.255000,0.000000,12.942000,0.000015,0.000015,0.000015,0.000015,0.158000,0.158000
0.170000,0.000,0,-0.000440,180.000000,0.000000,0.981239,0.000000,0.000000,-0.038503,-9.830954,0.000000,0.000000,0.000000,0.000000,0.060000,0.060000,0.070000,0.070000,0.000000,0.000000,0.000000,0.000000,0.000000,0.000000,0.000000,0.000000,0.000000,0.000000,0.000000,0.000000,0.000000,0.000000,0.000000,0.000000,0.000000,0.000000,4.528891,4.528891,0.000000,0.000000,37.726100,37.726100,0.000000,0.000000,0.000000,0.000000,0.000000,0.000000,-4.528891,-4.528891,0.000000,0.000000,0.000000,0.000000,0.000000,0.000000,0.000000,0.000000,0.000000,0.000000,0.000000,0.000000,0.030000,0.040000,0.000000,0.000000,0.222405,0.003882,1.000000,0.000000,0.071886,0.000000,0.000000,0.000000,0.000000,0.000000,-0.000769,0.000000,NaN,NaN,NaN,NaN,NaN,NaN,NaN,NaN,0.000015,0.000015,NaN,NaN,10.100000,0.342783,195.560000,0.000000,845.485000,0.000000,1.587000,1.587000,0.000000,0.000000,0.000000,0.959000,0.000000,17.255000,0.000000,12.942000,0.000015,0.000015,0.000015,0.000015,0.158000,0.158000
0.180000,0.000,0,-0.000440,180.000000,0.000000,0.981239,0.000000,0.000000,-0.043178,-9.833457,0.000000,0.000000,0.000000,0.000000,0.060000,0.060000,0.070000,0.070000,0.000000,0.000000,0.000000,0.000000,0.000000,0.000000,0.000000,0.000000,0.000000,0.000000,0.000000,0.000000,0.000000,0.000000,0.000000,0.000000,0.000000,0.000000,4.627644,4.627644,0.000000,0.000000,36.656570,36.656570,0.000000,0.000000,0.000000,0.000000,0.000000,0.000000,-4.627644,-4.627644,0.000000,0.000000,0.000000,0.000000,0.000000,0.000000,0.000000,0.000000,0.000000,0.000000,0.000000,0.000000,0.030000,0.040000,0.000000,0.000000,0.221809,0.003871,1.000000,0.000000,0.071370,0.000000,0.000000,0.000000,0.000000,0.000000,-0.001098,0.000000,NaN,NaN,NaN,NaN,NaN,NaN,NaN,NaN,0.000031,0.000031,NaN,NaN,10.100000,0.309185,195.560000,0.000000,883.814000,0.000000,1.569000,1.569000,0.000000,0.000000,0.000000,0.961000,0.000000,16.330000,0.000000,12.205000,0.000031,0.000031,0.000031,0.000031,0.177999,0.177999
0.190000,0.000,0,-0.000440,180.000000,0.000000,0.981239,0.000000,0.000000,-0.048112,-9.836200,0.000000,0.000000,0.000000,0.000000,0.060000,0.060000,0.070000,0.070000,0.000000,0.000000,0.000000,0.000000,0.000000,0.000000,0.000000,0.000000,0.000000,0.000000,0.000000,0.000000,0.000000,0.000000,0.000000,0.000000,0.000000,0.000000,4.723653,4.723653,0.000000,0.000000,35.652330,35.652330,0.000000,0.000000,0.000000,0.000000,0.000000,0.000000,-4.723653,-4.723653,0.000000,0.000000,0.000000,0.000000,0.000000,0.000000,0.000000,0.000000,0.000000,0.000000,0.000000,0.000000,0.030000,0.040000,0.000000,0.000000,0.221115,0.003859,1.000000,0.000000,0.071370,0.000000,0.000000,0.000000,0.000000,0.000000,-0.001098,0.000000,NaN,NaN,NaN,NaN,NaN,NaN,NaN,NaN,0.000031,0.000031,NaN,NaN,10.100000,0.309185,195.560000,0.000000,883.814000,0.000000,1.569000,1.569000,0.000000,0.000000,0.000000,0.961000,0.000000,16.330000,0.000000,12.205000,0.000031,0.000031,0.000031,0.000031,0.177999,0.177999
0.200000,0.000,0,-0.003469,180.000000,0.000000,1.963949,0.000000,0.000000,-0.053305,-9.839062,0.000000,0.000000,0.000000,0.000000,0.060000,0.060000,0.070000,0.070000,0.000000,0.000000,0.000000,0.000000,0.000000,0.000000,0.000000,0.000000,0.000000,0.000000,0.000000,0.000000,0.000000,0.000000,0.000000,0.000000,0.000000,0.000000,4.817552,4.817552,0.000000,0.000000,34.924890,34.924890,0.000000,0.000000,0.000000,0.000000,0.000000,0.000000,-4.817552,-4.817552,0.000000,0.000000,0.000000,0.000000,0.000000,0.000000,0.000000,0.000000,0.000000,0.000000,0.000000,0.000000,0.030000,0.040000,0.000000,0.000000,0.220306,0.003845,1.000000,0.000000,0.071113,0.000000,0.000000,0.000000,0.000000,0.000000,-0.001508,0.000000,NaN,NaN,NaN,NaN,NaN,NaN,NaN,NaN,0.000046,0.000046,NaN,NaN,10.100000,0.271644,195.560000,0.000000,920.084000,0.000000,1.560000,1.560000,0.000000,0.000000,0.000000,0.962000,0.000000,15.607000,0.000000,11.629000,0.000046,0.000046,0.000046,0.000046,0.197999,0.197999
0.210000,0.000,0,-0.003469,180.000000,0.000000,1.963949,0.000000,0.000000,-0.058753,-9.842044,0.000000,0.000000,0.000000,0.000000,0.060000,0.060000,0.070000,0.070000,0.000000,0.000000,0.000000,0.000000,0.000000,0.000000,0.000000,0.000000,0.000000,0.000000,0.000000,0.000000,0.000000,0.000000,0.000000,0.000000,0.000000,0.000000,4.909577,4.909577,0.000000,0.000000,34.238270,34.238270,0.000000,0.000000,0.000000,0.000000,0.000000,0.000000,-4.909577,-4.909577,0.000000,0.000000,0.000000,0.000000,0.000000,0.000000,0.000000,0.000000,0.000000,0.000000,0.000000,0.000000,0.030000,0.040000,0.000000,0.000000,0.219353,0.003828,1.000000,0.000000,0.071113,0.000000,0.000000,0.000000,0.000000,0.000000,-0.001508,0.000000,NaN,NaN,NaN,NaN,NaN,NaN,NaN,NaN,0.000046,0.000046,NaN,NaN,10.100000,0.271644,195.560000,0.000000,920.084000,0.000000,1.560000,1.560000,0.000000,0.000000,0.000000,0.962000,0.000000,15.607000,0.000000,11.629000,0.000046,0.000046,0.000046,0.000046,0.197999,0.197999
0.220000,0.000,0,-0.003469,180.000000,0.000000,1.963949,0.000000,0.000000,-0.064455,-9.845145,0.000000,0.000000,0.000000,0.000000,0.060000,0.060000,0.070000,0.070000,0.000000,0.000000,0.000000,0.000000,0.000000,0.000000,0.000000,0.000000,0.000000,0.000000,0.000000,0.000000,0.000000,0.000000,0.000000,0.000000,0.000000,0.000000,4.999831,4.999831,0.000000,0.000000,33.588360,33.588360,0.000000,0.000000,0.000000,0.000000,0.000000,0.000000,-4.999831,-4.999831,0.000000,0.000000,0.000000,0.000000,0.000000,0.000000,0.000000,0.000000,0.000000,0.000000,0.000000,0.000000,0.030000,0.040000,0.000000,0.000000,0.218269,0.003810,1.000000,0.000000,0.071113,0.000000,0.000000,0.000000,0.000000,0.000000,-0.002010,0.000000,NaN,NaN,NaN,NaN,NaN,NaN,NaN,NaN,0.000183,0.000183,NaN,NaN,10.100000,0.230155,195.560200,0.000000,954.897000,0.000000,1.560000,1.560000,0.000000,0.000000,0.000000,0.962000,0.000000,15.049000,0.000000,11.185000,0.000168,0.000168,0.000168,0.000168,0.217996,0.217996
0.230000,0.000,0,-0.003469,180.000000,0.000000,1.963949,0.000000,0.000000,-0.070409,-9.848485,0.000000,0.000000,0.000000,0.000000,0.060000,0.060000,0.070000,0.070000,0.000000,0.000000,0.000000,0.000000,0.000000,0.000000,0.000000,0.000000,0.000000,0.000000,0.000000,0.000000,0.000000,0.000000,0.000000,0.000000,0.000000,0.000000,5.088408,5.088408,0.000000,0.000000,32.972190,32.972190,0.000000,0.000000,0.000000,0.000000,0.000000,0.000000,-5.088408,-5.088408,0.000000,0.000000,0.000000,0.000000,0.000000,0.000000,0.000000,0.000000,0.000000,0.000000,0.000000,0.000000,0.030000,0.040000,0.000000,0.000000,0.217018,0.003788,1.000000,0.000000,0.071113,0.000000,0.000000,0.000000,0.000000,0.000000,-0.002010,0.000000,NaN,NaN,NaN,NaN,NaN,NaN,NaN,NaN,0.000183,0.000183,NaN,NaN,10.100000,0.230155,195.560200,0.000000,954.897000,0.000000,1.560000,1.560000,0.000000,0.000000,0.000000,0.962000,0.000000,15.049000,0.000000,11.185000,0.000168,0.000168,0.000168,0.000168,0.217996,0.217996
0.240000,0.000,0,-0.003469,180.000000,0.000000,1.963949,0.000000,0.000000,-0.076613,-9.851945,0.000000,0.000000,0.000000,0.000000,0.060000,0.060000,0.070000,0.070000,0.000000,0.000000,0.000000,0.000000,0.000000,0.000000,0.000000,0.000000,0.000000,0.000000,0.000000,0.000000,0.000000,0.000000,0.000000,0.000000,0.000000,0.000000,5.175390,5.175390,0.000000,0.000000,32.387410,32.387410,0.000000,0.000000,0.000000,0.000000,0.000000,0.000000,-5.175390,-5.175390,0.000000,0.000000,0.000000,0.000000,0.000000,0.000000,0.000000,0.000000,0.000000,0.000000,0.000000,0.000000,0.030000,0.040000,0.000000,0.000000,0.215591,0.003763,1.000000,0.000000,0.071113,0.000000,0.000000,0.000000,0.000000,0.000000,-0.002613,0.000000,NaN,NaN,NaN,NaN,NaN,NaN,NaN,NaN,0.000366,0.000366,NaN,NaN,10.100000,0.184715,195.560400,0.000000,988.426000,0.000000,1.560000,1.560000,0.000000,0.000000,0.000000,0.963000,0.000000,14.547000,0.000000,10.786000,0.000336,0.000336,0.000336,0.000336,0.237992,0.237991
0.250000,0.000,0,-0.003469,180.000000,0.000000,1.963949,0.000000,0.000000,-0.083065,-9.855524,0.000000,0.000000,0.000000,0.000000,0.060000,0.060000,0.070000,0.070000,0.000000,0.000000,0.000000,0.000000,0.000000,0.000000,0.000000,0.000000,0.000000,0.000000,0.000000,0.000000,0.000000,0.000000,0.000000,0.000000,0.000000,0.000000,5.260752,5.260752,0.000000,0.000000,31.628040,31.628040,0.000000,0.000000,0.000000,0.000000,0.000000,0.000000,-5.260752,-5.260752,0.000000,0.000000,0.000000,0.000000,0.000000,0.000000,0.000000,0.000000,0.000000,0.000000,0.000000,0.000000,0.030000,0.040000,0.000000,0.000000,0.213982,0.003735,1.000000,0.000000,0.071113,0.000000,0.000000,0.000000,0.000000,0.000000,-0.002613,0.000000,NaN,NaN,NaN,NaN,NaN,NaN,NaN,NaN,0.000366,0.000366,NaN,NaN,10.100000,0.184715,195.560400,0.000000,988.426000,0.000000,1.560000,1.560000,0.000000,0.000000,0.000000,0.963000,0.000000,14.547000,0.000000,10.786000,0.000336,0.000336,0.000336,0.000336,0.237992,0.237991
0.260000,0.001,0,-0.003469,180.000000,0.000000,1.963949,0.000000,0.000000,-0.089761,-9.859344,0.000000,0.000000,0.000000,0.000000,0.060000,0.060000,0.070000,0.070000,0.000000,0.000000,0.000000,0.000000,0.000000,0.000000,0.000000,0.000000,0.000000,0.000000,0.000000,0.000000,0.000000,0.000000,0.000000,0.000000,0.000000,0.000000,5.343823,5.343823,0.000000,0.000000,30.906380,30.906380,0.000000,0.000000,0.000000,0.000000,0.000000,0.000000,-5.343823,-5.343823,0.000000,0.000000,0.000000,0.000000,0.000000,0.000000,0.000000,0.000000,0.000000,0.000000,0.000000,0.000000,0.030000,0.040000,0.000000,0.000000,0.212166,0.003703,1.000000,0.000000,0.070599,0.000000,0.000000,0.000000,0.000000,0.000000,-0.003326,0.000000,NaN,NaN,NaN,NaN,NaN,NaN,NaN,NaN,0.000549,0.000549,NaN,NaN,10.100000,0.135316,195.560600,0.000000,1020.594000,0.000000,1.541000,1.541000,0.000000,0.000000,0.000000,0.964000,0.000000,13.928000,0.000000,10.293000,0.000534,0.000534,0.000534,0.000534,0.257987,0.257986
0.270000,0.001,0,-0.003469,180.000000,0.000000,1.963949,0.000000,0.000000,-0.096700,-9.863401,0.000000,0.000000,0.000000,0.000000,0.060000,0.060000,0.070000,0.070000,0.000000,0.000000,0.000000,0.000000,0.000000,0.000000,0.000000,0.000000,0.000000,0.000000,0.000000,0.000000,0.000000,0.000000,0.000000,0.000000,0.000000,0.000000,5.425028,5.425028,0.000000,0.000000,30.218770,30.218770,0.000000,0.000000,0.000000,0.000000,0.000000,0.000000,-5.425028,-5.425028,0.000000,0.000000,0.000000,0.000000,0.000000,0.000000,0.000000,0.000000,0.000000,0.000000,0.000000,0.000000,0.030000,0.040000,0.000000,0.000000,0.210121,0.003667,1.000000,0.000000,0.070599,0.000000,0.000000,0.000000,0.000000,0.000000,-0.003326,0.000000,NaN,NaN,NaN,NaN,NaN,NaN,NaN,NaN,0.000549,0.000549,NaN,NaN,10.100000,0.135316,195.560600,0.000000,1020.594000,0.000000,1.541000,1.541000,0.000000,0.000000,0.000000,0.964000,0.000000,13.928000,0.000000,10.293000,0.000534,0.000534,0.000534,0.000534,0.257987,0.257986
0.280000,0.001,0,-0.003469,180.000000,0.000000,1.963949,0.000000,0.000000,-0.103879,-9.867460,0.000000,0.000000,0.000000,0.000000,0.060000,0.060000,0.070000,0.070000,0.000000,0.000000,0.000000,0.000000,0.000000,0.000000,0.000000,0.000000,0.000000,0.000000,0.000000,0.000000,0.000000,0.000000,0.000000,0.000000,0.000000,0.000000,5.504140,5.504140,0.000000,0.000000,29.369060,29.369060,0.000000,0.000000,0.000000,0.000000,0.000000,0.000000,-5.504140,-5.504140,0.000000,0.000000,0.000000,0.000000,0.000000,0.000000,0.000000,0.000000,0.000000,0.000000,0.000000,0.000000,0.030000,0.040000,0.000000,0.000000,0.207840,0.003628,1.000000,0.000000,0.069833,0.000000,0.000000,0.000000,0.000000,0.000000,-0.004159,0.000000,NaN,NaN,NaN,NaN,NaN,NaN,NaN,NaN,0.000732,0.000732,NaN,NaN,10.100000,0.081954,195.560800,0.000000,1051.213000,0.000000,1.513000,1.513000,0.000000,0.000000,0.000000,0.964000,0.000000,13.286000,0.000000,9.782000,0.000717,0.000717,0.000717,0.000717,0.277983,0.277982
0.290000,0.001,0,-0.003469,180.000000,0.000000,1.963949,0.000000,0.000000,-0.111296,-9.871640,0.000000,0.000000,0.000000,0.000000,0.060000,0.060000,0.070000,0.070000,0.000000,0.000000,0.000000,0.000000,0.000000,0.000000,0.000000,0.000000,0.000000,0.000000,0.000000,0.000000,0.000000,0.000000,0.000000,0.000000,0.000000,0.000000,5.581453,5.581453,0.000000,0.000000,28.744100,28.744100,0.000000,0.000000,0.000000,0.000000,0.000000,0.000000,-5.581453,-5.581453,0.000000,0.000000,0.000000,0.000000,0.000000,0.000000,0.000000,0.000000,0.000000,0.000000,0.000000,0.000000,0.030000,0.040000,0.000000,0.000000,0.205292,0.003583,1.000000,0.000000,0.069833,0.000000,0.000000,0.000000,0.000000,0.000000,-0.004159,0.000000,NaN,NaN,NaN,NaN,NaN,NaN,NaN,NaN,0.000732,0.000732,NaN,NaN,10.100000,0.081954,195.560800,0.000000,1051.213000,0.000000,1.513000,1.513000,0.000000,0.000000,0.000000,0.964000,0.000000,13.286000,0.000000,9.782000,0.000717,0.000717,0.000717,0.000717,0.277983,0.277982
0.300000,0.001,0,-0.001206,180.000000,0.000000,2.933996,0.000000,0.000000,4.794896,-2.672049,0.000000,0.000000,10139.000000,10139.000000,0.060000,0.060000,0.061565,0.061565,0.000000,0.000000,0.008435,0.008435,0.000000,0.000000,2.898261,2.898261,0.000000,0.000000,1433.882000,1433.882000,0.000000,0.000000,8694.781000,8694.781000,0.000000,0.000000,4.235254,4.235254,0.000000,0.000000,489.124800,489.124800,0.000000,0.000000,0.000000,0.000000,0.000000,0.000000,-4.251563,-4.251563,0.000000,0.000000,0.000000,0.000000,0.000000,0.000000,7519.582000,7519.582000,0.000000,0.000000,0.000000,0.000000,0.030000,0.031565,0.000000,0.000000,0.010635,0.000186,1.000000,0.000000,0.066556,0.000000,0.000000,0.000000,0.000000,0.000000,-0.023427,0.000000,NaN,NaN,6.522143,6.522143,NaN,NaN,0.000000,0.000000,0.000992,0.000992,NaN,NaN,10.100000,0.024605,195.561000,0.000000,808.873000,0.000000,1.396000,1.396000,0.000000,0.000000,0.000000,0.962000,0.000000,13.566000,0.000000,242.309000,0.000946,0.000946,0.000946,0.000946,0.297977,0.297976
0.310000,0.001,0,-0.001206,180.000000,0.000000,2.933996,0.000000,0.000000,8.306426,27.633030,13306.820000,13306.820000,14512.520000,14512.520000,0.031295,0.031295,0.033329,0.033329,0.028705,0.028705,0.036671,0.036671,2.812102,2.812102,2.756283,2.756283,4879.823000,4879.823000,6234.006000,6234.006000,8436.305000,8436.305000,8268.846000,8268.846000,0.090085,0.090085,0.090086,0.090086,0.000000,0.000000,24.994740,24.994740,0.000000,0.000000,0.000000,0.000000,0.000000,0.000000,0.000000,0.000000,-0.000519,0.000519,0.000000,0.000000,-121.159400,-121.159400,-37.845460,-37.845460,175.919000,-175.919000,0.000000,0.000000,0.001295,0.003329,0.000000,0.000000,0.000000,0.000000,1.000000,0.000000,0.066556,0.000000,0.000000,0.000000,0.000000,0.000000,-0.023427,0.000000,NaN,NaN,6.522143,6.522143,NaN,NaN,0.000000,0.000000,0.000992,0.000992,NaN,NaN,10.100000,0.024605,195.561000,0.000000,808.873000,0.000000,1.396000,1.396000,0.000000,0.000000,0.000000,0.962000,0.000000,13.566000,0.000000,242.309000,0.000946,0.000946,0.000946,0.000946,0.297977,0.297976
0.320000,0.002,0,-0.001206,180.000000,0.000000,2.933996,0.000000,0.000000,-0.142443,41.911460,20501.240000,20501.240000,17864.450000,17864.450000,0.004896,0.004896,0.007759,0.007759,0.055104,0.055104,0.062241,0.062241,2.488896,2.488896,2.424061,2.424061,9367.590000,9367.590000,10581.030000,10581.030000,7466.684000,7466.684000,7272.179000,7272.179000,0.086891,0.086891,0.086893,0.086893,0.000000,0.000000,108.232100,108.232100,0.000000,0.000000,0.000000,0.000000,0.000000,0.000000,0.000000,0.000000,-0.000500,0.000500,0.000000,0.000000,-27.297880,-27.297880,333.475300,333.475300,261.421800,-261.421800,0.000000,0.000000,-0.025103,-0.022241,0.000000,0.000000,0.000000,0.000000,1.000000,0.000000,0.065315,0.000000,0.000000,0.000000,0.000000,0.000000,-0.025430,0.000000,0.000000,0.000000,0.005978,0.005978,-0.373228,0.373228,0.000000,0.000000,0.002121,0.002121,NaN,NaN,10.100000,-0.029850,195.559800,0.000000,17.162000,0.000000,0.072000,0.072000,0.000000,0.000000,0.000000,0.884000,0.000000,38.054000,0.000000,35.204000,0.001953,0.001953,0.001953,0.001953,0.317952,0.317950
0.330000,0.004,0,-0.001206,180.000000,0.000000,2.933996,0.000000,-0.002110,-0.057437,26.847350,15582.410000,15582.500000,11581.610000,11581.700000,0.000477,0.000477,0.000281,0.000281,0.059523,0.059523,0.069719,0.069719,-0.158668,-0.158638,-0.085980,-0.085950,10118.890000,10118.900000,11852.150000,11852.160000,-476.002700,-475.913200,-257.939100,-257.849700,0.117310,0.117311,0.117312,0.117313,0.000000,0.000000,105.946900,105.942400,0.000000,0.000000,0.000000,0.000000,0.000000,0.000000,0.000000,0.000000,-0.000692,0.000658,-0.000014,-0.000014,-50.202680,-50.214770,302.952100,302.926300,274.994600,-261.529300,4.177300,4.177333,-0.029523,-0.029719,0.000000,0.000000,0.000000,0.000000,1.000000,0.000000,0.065315,0.000000,0.000000,0.000000,0.000000,0.000000,-0.025430,0.000000,0.000000,0.000000,0.005978,0.005978,-0.373228,0.373228,0.000000,0.000000,0.002121,0.002121,NaN,NaN,10.100000,-0.029850,195.559800,0.000000,17.162000,0.000000,0.072000,0.072000,0.000000,0.000000,0.000000,0.884000,0.000000,38.054000,0.000000,35.204000,0.001953,0.001953,0.001953,0.001953,0.317952,0.317950
0.340000,0.005,0,-0.001206,180.000000,0.000000,2.933996,0.000000,26.993680,0.076640,22.307660,13692.310000,12540.510000,11297.680000,10108.380000,0.003738,0.004431,0.001847,0.002541,0.056262,0.055569,0.068153,0.067459,-0.282496,-0.685289,-0.060439,-0.463232,9584.068000,9427.430000,11585.940000,11468.080000,-847.488300,-2055.867000,-181.317200,-1389.697000,0.158292,0.139185,0.157058,0.140423,0.000000,0.000000,86.007510,128.120800,0.000000,0.000000,0.000000,0.000000,0.000000,0.000000,0.000000,0.000000,0.213806,0.215519,0.184414,0.184415,-100.787400,40.046100,194.885900,427.069200,-12184.500000,-11206.160000,-10158.760000,-9165.121000,-0.025915,-0.027806,0.034264,0.034264,0.000000,0.000000,1.000000,0.000000,0.064576,0.000000,0.000000,-42.113240,0.019107,0.016635,0.087079,-0.287695,0.000000,0.000000,0.003838,0.013270,21.715390,21.024310,20.278610,19.565030,0.005045,0.005045,NaN,NaN,10.099620,-0.025076,195.556800,0.000000,29.079000,0.000000,0.124000,0.124000,0.000000,0.000000,0.000000,0.886000,0.000000,37.389000,0.000000,34.850000,0.004746,0.004746,0.004746,0.004746,0.337884,0.337878
0.350000,0.007,0,-0.001206,180.000000,0.000000,2.933996,0.000000,-24.740500,0.308032,16.353740,9929.243000,9788.546000,9406.961000,9674.706000,0.009812,0.010892,0.005331,0.006412,0.050188,0.049108,0.064669,0.063588,-0.791609,-0.621915,-0.523001,-0.353292,8559.137000,8321.785000,10993.690000,10809.990000,-2374.823000,-1865.741000,-1569.000000,-1059.873000,0.163568,0.158381,0.163958,0.157996,0.000000,0.000000,-54.261680,271.001100,0.000000,0.000000,0.000000,0.000000,0.000000,0.000000,0.000000,0.000000,-0.068234,-0.066381,-0.078151,-0.078151,14.497090,-24.047530,-174.701000,887.612900,9016.197000,8899.358000,8583.050000,8804.906000,-0.019648,-0.024129,0.039565,0.039565,0.000000,0.000000,1.000000,0.000000,0.064576,0.000000,0.000000,-42.113240,0.019107,0.016635,0.087079,-0.287695,0.000000,0.000000,0.003838,0.013270,21.715390,21.024310,20.278610,19.565030,0.005045,0.005045,NaN,NaN,10.099620,-0.025076,195.556800,0.000000,29.079000,0.000000,0.124000,0.124000,0.000000,0.000000,0.000000,0.886000,0.000000,37.389000,0.000000,34.850000,0.004746,0.004746,0.004746,0.004746,0.337884,0.337878
0.360000,0.009,0,-0.001206,180.000000,0.000000,2.933996,0.000000,19.499610,0.171942,9.946054,7051.336000,6105.125000,8459.032000,7788.570000,0.017393,0.018913,0.010520,0.012040,0.042607,0.041087,0.059480,0.057960,-0.736460,-0.891313,-0.530139,-0.685021,7275.609000,6953.488000,10111.590000,9853.089000,-2209.371000,-2673.927000,-1590.409000,-2055.055000,0.147672,0.152813,0.147155,0.153336,0.000000,0.000000,-111.718700,244.061000,0.000000,0.000000,0.000000,0.000000,0.000000,0.000000,0.000000,0.000000,0.089509,0.091239,0.101617,0.101617,44.391100,4.219676,-322.024900,811.778600,-6644.372000,-5866.839000,-7800.566000,-7249.375000,-0.011847,-0.018720,0.062557,0.062557,0.000000,0.000000,1.000000,0.000000,0.049748,0.000000,0.000000,-355.779700,-0.005141,-0.006181,0.080866,-0.110640,0.000000,0.000000,-0.008618,0.022033,17.730800,17.163080,18.575420,18.173150,0.009125,0.009125,NaN,NaN,10.098880,-0.010381,195.553600,0.000000,28.175000,0.000000,0.076000,0.076000,0.000000,0.000000,0.000000,0.886000,0.000000,22.327000,0.000000,22.787000,0.008768,0.008768,0.008768,0.008768,0.357786,0.357775
0.370000,0.011,0,-0.001206,180.000000,0.000000,2.933996,0.000000,-14.534640,0.291231,4.073870,3750.624000,3901.431000,6349.247000,6692.607000,0.025997,0.026812,0.017855,0.018670,0.034003,0.033188,0.052145,0.051330,-0.911623,-0.730455,-0.844851,-0.663683,5794.347000,5628.435000,8864.580000,8726.056000,-2734.855000,-2191.353000,-2534.540000,-1991.038000,0.120913,0.124862,0.121328,0.124451,0.000000,0.000000,-7.954498,139.423200,0.000000,0.000000,0.000000,0.000000,0.000000,0.000000,0.000000,0.000000,-0.072405,-0.070990,-0.066019,-0.066019,8.038585,70.370120,-23.034210,464.744000,3883.908000,4015.224000,6067.789000,6349.936000,-0.003596,-0.011737,0.039565,0.039565,0.000000,0.000000,1.000000,0.000000,0.049748,0.000000,0.000000,-355.779700,-0.005141,-0.006181,0.080866,-0.110640,0.000000,0.000000,-0.008618,0.022033,17.730800,17.163080,18.575420,18.173150,0.009125,0.009125,NaN,NaN,10.098880,-0.010381,195.553600,0.000000,28.175000,0.000000,0.076000,0.076000,0.000000,0.000000,0.000000,0.886000,0.000000,22.327000,0.000000,22.787000,0.008768,0.008768,0.008768,0.008768,0.357786,0.357775
0.380000,0.012,0,-0.001206,180.000000,0.000000,2.933996,0.000000,10.243330,0.317653,-0.594934,2208.033000,1945.780000,4963.388000,4712.776000,0.033996,0.034566,0.026193,0.026763,0.026004,0.025434,0.043807,0.043237,-0.730678,-0.788465,-0.830397,-0.888184,4428.021000,4316.468000,7447.105000,7350.206000,-2192.025000,-2365.384000,-2491.179000,-2664.538000,0.082632,0.095980,0.082407,0.096207,0.000000,0.000000,112.122400,17.427850,0.000000,0.000000,0.000000,0.000000,0.000000,0.000000,0.000000,0.000000,0.038746,0.039774,0.064355,0.064355,81.879410,-2.409117,373.741100,52.643970,-2180.891000,-1972.884000,-4919.323000,-4708.621000,0.004281,-0.003522,0.019782,0.019782,0.000000,0.000000,1.000000,0.000000,0.049098,0.000000,0.000000,94.694510,-0.013347,-0.013799,-0.039107,-0.041287,0.000000,0.000000,0.018046,-0.000747,13.090690,13.085120,16.478030,16.327670,0.011908,0.011908,NaN,NaN,10.099070,0.005896,195.551200,0.000000,16.186000,0.000000,0.044000,0.044000,0.000000,0.000000,0.000000,0.884000,0.000000,21.619000,0.000000,22.720000,0.011704,0.011704,0.011704,0.011704,0.377715,0.377700
0.390000,0.013,0,-0.001206,180.000000,0.000000,2.933996,0.000000,-4.900238,0.263311,-4.124450,1008.600000,1209.218000,3096.602000,3301.617000,0.041334,0.041406,0.035370,0.035442,0.018666,0.018594,0.034630,0.034558,-0.713870,-0.632226,-0.948355,-0.866681,3173.892000,3160.322000,5887.110000,5874.891000,-2141.604000,-1896.674000,-2845.056000,-2600.037000,0.065120,0.058617,0.065204,0.058535,0.000000,0.000000,158.936000,-32.191230,0.000000,0.000000,0.000000,0.000000,0.000000,0.000000,0.000000,0.000000,-0.014724,-0.014012,-0.026496,-0.026496,-14.186500,74.868380,514.391900,-31.227180,378.578400,431.919500,2091.546000,2230.018000,0.011370,0.005406,0.000000,0.000000,0.000000,0.000000,1.000000,0.000000,0.049098,0.000000,0.000000,94.694510,-0.013347,-0.013799,-0.039107,-0.041287,0.000000,0.000000,0.018046,-0.000747,13.090690,13.085120,16.478030,16.327670,0.011908,0.011908,NaN,NaN,10.099070,0.005896,195.551200,0.000000,16.186000,0.000000,0.044000,0.044000,0.000000,0.000000,0.000000,0.884000,0.000000,21.619000,0.000000,22.720000,0.011704,0.011704,0.011704,0.011704,0.377715,0.377700
0.400000,0.013,0,0.117899,7.891553,0.016098,0.729378,0.002184,-0.067959,0.278591,-7.200291,281.397000,408.258100,1632.622000,1757.229000,0.047638,0.047394,0.044601,0.044357,0.012362,0.012606,0.025399,0.025643,-0.590012,-0.558749,-0.915647,-0.884399,2099.984000,2144.525000,4317.798000,4359.286000,-1770.033000,-1676.245000,-2746.938000,-2653.194000,0.045042,0.041915,0.045008,0.041951,0.000000,0.000000,118.666900,3.500971,0.000000,0.000000,0.000000,0.000000,0.000000,0.000000,0.000000,0.000000,0.005827,0.006328,0.000518,0.000518,17.403390,19.085460,395.556400,30.713380,-41.800400,-65.854780,-21.572610,-23.219820,0.017516,0.014479,0.000000,0.000000,0.000000,0.000000,1.000000,0.000000,0.048452,0.000000,0.000000,115.166000,0.003127,0.003057,-0.127709,0.022336,0.000000,0.000000,0.034010,0.002195,1.577691,1.741799,0.164963,0.167189,0.013311,0.013311,NaN,NaN,10.099060,0.018956,195.550000,0.000000,7.890000,0.000000,0.020000,0.020000,0.000000,0.000000,0.000000,0.883000,0.000000,20.929000,0.000000,20.831000,0.013219,0.013219,0.013219,0.013219,0.397678,0.397661
0.410000,0.014,0,0.117899,7.891553,0.016098,0.729378,0.002184,-0.040880,0.263288,-9.553512,0.000000,0.000000,334.676300,472.492900,0.052877,0.052388,0.053410,0.052921,0.007123,0.007612,0.016590,0.017079,-0.480011,-0.459418,-0.851154,-0.830561,1209.173000,1295.821000,2820.316000,2903.365000,-1151.038000,-1230.207000,-2553.463000,-2491.682000,0.037512,0.032278,0.037447,0.032344,0.000000,0.000000,56.128330,62.440950,0.000000,0.000000,0.000000,0.000000,0.000000,0.000000,0.000000,0.000000,0.011212,0.011614,0.002133,0.002133,3.706040,5.617073,187.094400,208.136500,0.000000,0.000000,-18.196660,-25.691460,0.022633,0.023166,-0.019782,-0.019782,0.000000,0.000000,1.000000,0.000000,0.048452,0.000000,0.000000,115.166000,0.003127,0.003057,-0.127709,0.022336,0.000000,0.000000,0.034010,0.002195,1.577691,1.741799,0.164963,0.167189,0.013311,0.013311,NaN,NaN,10.099060,0.018956,195.550000,0.000000,7.890000,0.000000,0.020000,0.020000,0.000000,0.000000,0.000000,0.883000,0.000000,20.929000,0.000000,20.831000,0.013219,0.013219,0.013219,0.013219,0.397678,0.397661
0.420000,0.014,0,0.117899,7.891553,0.016098,0.729378,0.002184,0.003376,0.020924,-10.315670,0.000000,0.000000,0.000000,0.000000,0.057065,0.056408,0.061311,0.060653,0.002935,0.003592,0.008690,0.009347,-0.378832,-0.362709,-0.747353,-0.731215,497.901000,611.883300,1477.213000,1589.058000,-439.388500,-547.537500,-1543.841000,-1650.194000,0.038250,0.033099,0.129157,0.129157,0.000000,0.000000,47.345180,47.345190,0.000000,0.000000,0.000000,0.000000,0.000000,0.000000,-0.090981,-0.095982,0.012808,0.013219,0.003920,0.003920,-1.204880,-1.180146,10.789890,10.789890,0.000000,0.000000,0.000000,0.000000,0.026737,0.030982,-0.019782,-0.019782,0.000000,0.000000,1.000000,0.000000,0.048024,0.000000,0.000000,-0.000004,0.005151,0.000000,-0.144508,0.011508,0.000000,0.000000,0.126056,0.126056,0.000000,0.000000,0.000000,0.000000,0.014150,0.014150,NaN,NaN,10.098830,0.027798,195.549200,0.000000,24.667000,0.000000,0.054000,0.054000,0.000000,0.000000,0.000000,0.885000,0.000000,20.549000,0.000000,15.801000,0.014069,0.014069,0.014069,0.014069,0.417657,0.417639
0.430000,0.015,0,0.117899,7.891553,0.016098,0.729378,0.002184,0.005399,0.039059,-10.158600,0.000000,0.000000,0.000000,0.000000,0.060000,0.059441,0.068144,0.067326,0.000000,0.000559,0.001856,0.002674,0.000000,-0.263363,-0.640959,-0.624016,0.000000,95.205830,315.590500,454.637000,0.000000,-32.121750,-380.971100,-514.257300,0.038866,0.034273,0.247105,0.247105,0.000000,0.000000,47.548160,47.548160,0.000000,0.000000,0.000000,0.000000,-0.038866,0.000000,-0.207736,-0.212758,0.000000,0.012832,0.003487,0.003487,0.000000,-2.159320,10.789920,10.789920,0.000000,0.000000,0.000000,0.000000,0.029720,0.037735,-0.019782,-0.034264,0.002914,0.000051,1.000000,0.000000,0.048024,0.000000,0.000000,-0.000004,0.005151,0.000000,-0.144508,0.011508,0.000000,0.000000,0.126056,0.126056,0.000000,0.000000,0.000000,0.000000,0.014150,0.014150,NaN,NaN,10.098830,0.027798,195.549200,0.000000,24.667000,0.000000,0.054000,0.054000,0.000000,0.000000,0.000000,0.885000,0.000000,20.549000,0.000000,15.801000,0.014069,0.014069,0.014069,0.014069,0.417657,0.417639
0.440000,0.015,0,0.117899,7.891553,0.016098,0.729378,0.002184,0.007036,0.042094,-9.810951,0.000000,0.000000,0.000000,0.000000,0.060000,0.060000,0.070000,0.070000,0.000000,0.000000,0.000000,0.000000,0.000000,0.000000,0.000000,0.000000,0.000000,0.000000,0.000000,0.000000,0.000000,0.000000,0.000000,0.000000,0.038866,0.034273,0.370402,0.370402,0.000000,0.000000,47.092230,47.092230,0.000000,0.000000,0.000000,0.000000,-0.038866,-0.034273,-0.370402,-0.370402,0.000000,0.000000,0.000000,0.000000,0.000000,0.000000,0.000000,0.000000,0.000000,0.000000,0.000000,0.000000,0.030000,0.040000,0.000000,0.000000,-0.032539,-0.000568,1.000000,0.000000,0.048024,0.000000,0.000000,0.000000,0.004592,0.000000,-0.139475,0.013856,NaN,NaN,NaN,NaN,NaN,NaN,NaN,NaN,0.015042,0.015042,NaN,NaN,10.098570,0.032646,195.548300,0.000000,70.741000,0.000000,0.166000,0.166000,0.000000,0.000000,0.000000,0.893000,0.000000,20.720000,0.000000,15.700000,0.014948,0.014948,0.014948,0.014948,0.437636,0.437617
0.450000,0.015,0,0.117899,7.891553,0.016098,0.729378,0.002184,0.008394,0.056617,-9.810430,0.000000,0.000000,0.000000,0.000000,0.060000,0.060000,0.070000,0.070000,0.000000,0.000000,0.000000,0.000000,0.000000,0.000000,0.000000,0.000000,0.000000,0.000000,0.000000,0.000000,0.000000,0.000000,0.000000,0.000000,0.038866,0.034273,0.496308,0.496308,0.000000,0.000000,47.295340,47.295340,0.000000,0.000000,0.000000,0.000000,-0.038866,-0.034273,-0.496308,-0.496308,0.000000,0.000000,0.000000,0.000000,0.000000,0.000000,0.000000,0.000000,0.000000,0.000000,0.000000,0.000000,0.030000,0.040000,0.000000,0.000000,-0.112457,-0.001963,1.000000,0.000000,0.048024,0.000000,0.000000,0.000000,0.004592,0.000000,-0.139475,0.013856,NaN,NaN,NaN,NaN,NaN,NaN,NaN,NaN,0.015042,0.015042,NaN,NaN,10.098570,0.032646,195.548300,0.000000,70.741000,0.000000,0.166000,0.166000,0.000000,0.000000,0.000000,0.893000,0.000000,20.720000,0.000000,15.700000,0.014948,0.014948,0.014948,0.014948,0.437636,0.437617
0.460000,0.016,0,0.117899,7.891553,0.016098,0.729378,0.002184,0.009751,0.070865,-9.810030,0.000000,0.000000,0.000000,0.000000,0.060000,0.060000,0.070000,0.070000,0.000000,0.000000,0.000000,0.000000,0.000000,0.000000,0.000000,0.000000,0.000000,0.000000,0.000000,0.000000,0.000000,0.000000,0.000000,0.000000,0.038866,0.034273,0.619380,0.619380,0.000000,0.000000,45.911640,45.911640,0.000000,0.000000,0.000000,0.000000,-0.038866,-0.034273,-0.619380,-0.619380,0.000000,0.000000,0.000000,0.000000,0.000000,0.000000,0.000000,0.000000,0.000000,0.000000,0.000000,0.000000,0.030000,0.040000,-0.019782,-0.019782,-0.192368,-0.003357,1.000000,0.000000,0.047384,0.000000,0.000000,0.000000,0.004592,0.000000,-0.139484,0.013856,NaN,NaN,NaN,NaN,NaN,NaN,NaN,NaN,0.015930,0.015930,NaN,NaN,10.098340,0.033587,195.547500,0.000000,118.292000,0.000000,0.272000,0.272000,0.000000,0.000000,0.000000,0.900000,0.000000,20.225000,0.000000,15.306000,0.015835,0.015835,0.015835,0.015835,0.457614,0.457594
0.470000,0.016,0,0.117899,7.891553,0.016098,0.729378,0.002184,0.011107,0.084835,-9.809761,0.000000,0.000000,0.000000,0.000000,0.060000,0.060000,0.070000,0.070000,0.000000,0.000000,0.000000,0.000000,0.000000,0.000000,0.000000,0.000000,0.000000,0.000000,0.000000,0.000000,0.000000,0.000000,0.000000,0.000000,0.038866,0.034273,0.741260,0.741260,0.000000,0.000000,45.565720,45.565720,0.000000,0.000000,0.000000,0.000000,-0.038866,-0.034273,-0.741260,-0.741260,0.000000,0.000000,0.000000,0.000000,0.000000,0.000000,0.000000,0.000000,0.000000,0.000000,0.000000,0.000000,0.030000,0.040000,0.000000,0.000000,-0.272293,-0.004752,1.000000,0.000000,0.047384,0.000000,0.000000,0.000000,0.004592,0.000000,-0.139484,0.013856,NaN,NaN,NaN,NaN,NaN,NaN,NaN,NaN,0.015930,0.015930,NaN,NaN,10.098340,0.033587,195.547500,0.000000,118.292000,0.000000,0.272000,0.272000,0.000000,0.000000,0.000000,0.900000,0.000000,20.225000,0.000000,15.306000,0.015835,0.015835,0.015835,0.015835,0.457614,0.457594
0.480000,0.017,0,0.117899,7.891553,0.016098,0.729378,0.002184,0.012463,0.098533,-9.809625,0.000000,0.000000,0.000000,0.000000,0.060000,0.060000,0.070000,0.070000,0.000000,0.000000,0.000000,0.000000,0.000000,0.000000,0.000000,0.000000,0.000000,0.000000,0.000000,0.000000,0.000000,0.000000,0.000000,0.000000,0.038866,0.034273,0.822844,0.822844,0.000000,0.000000,30.428330,30.428330,0.000000,0.000000,0.000000,0.000000,-0.038866,-0.034273,-0.822844,-0.822844,0.000000,0.000000,0.000000,0.000000,0.000000,0.000000,0.000000,0.000000,0.000000,0.000000,0.000000,0.000000,0.030000,0.040000,0.000000,0.000000,-0.352219,-0.006147,1.000000,0.000000,0.041016,0.000000,0.000000,0.000000,0.004592,0.000000,-0.139486,0.013856,NaN,NaN,NaN,NaN,NaN,NaN,NaN,NaN,0.016816,0.016816,NaN,NaN,10.098100,0.030609,195.546600,0.000000,157.151000,0.000000,0.247000,0.247000,0.000000,0.000000,0.000000,0.905000,0.000000,13.740000,0.000000,10.144000,0.016722,0.016722,0.016722,0.016722,0.477592,0.477571
0.490000,0.017,0,0.117899,7.891553,0.016098,0.729378,0.002184,-0.669676,0.073774,-8.430089,1026.755000,1308.756000,0.000000,0.000000,0.058941,0.057167,0.070000,0.070000,0.001059,0.002833,0.000000,0.000000,0.301093,0.292659,0.000000,0.000000,179.097700,484.112200,0.000000,0.000000,903.219100,877.918500,0.000000,0.000000,0.042990,0.044023,0.903059,0.903059,0.000000,0.000000,30.011520,30.011520,0.000000,0.000000,0.000000,0.000000,0.000000,0.000000,-0.903059,-0.903059,0.014616,0.015117,0.000000,0.000000,-7.515146,-24.908430,0.000000,0.000000,-382.548600,-504.357300,0.000000,0.000000,0.028054,0.040000,-0.074019,0.000000,-0.385536,-0.006729,1.000000,0.000000,0.041016,0.000000,0.000000,0.000000,0.004592,0.000000,-0.139486,0.013856,NaN,NaN,NaN,NaN,NaN,NaN,NaN,NaN,0.016816,0.016816,NaN,NaN,10.098100,0.030609,195.546600,0.000000,157.151000,0.000000,0.247000,0.247000,0.000000,0.000000,0.000000,0.905000,0.000000,13.740000,0.000000,10.144000,0.016722,0.016722,0.016722,0.016722,0.477592,0.477571
0.500000,0.018,0,0.123296,4.334540,0.009419,0.261418,-0.005416,-0.165211,0.049479,-7.369766,1693.338000,2003.793000,0.000000,0.000000,0.055715,0.053935,0.070000,0.070000,0.004285,0.006065,0.000000,0.000000,0.336483,0.336155,0.000000,0.000000,724.590600,1036.310000,0.000000,0.000000,1009.369000,1008.386000,0.000000,0.000000,0.059095,0.066649,0.981896,0.981896,0.000000,0.000000,29.099310,29.099310,0.000000,0.000000,0.000000,0.000000,0.000000,0.000000,-0.981896,-0.981896,0.002221,0.002946,0.000000,0.000000,-26.155350,-30.629020,0.000000,0.000000,-95.886030,-150.500600,0.000000,0.000000,0.024825,0.040000,-0.071326,0.000000,-0.375977,-0.006562,1.000000,0.000000,0.040423,0.000000,0.000000,0.000000,-0.007553,0.000000,-0.095811,-0.000258,0.000000,0.000000,NaN,NaN,0.711581,0.975106,NaN,NaN,0.017844,0.017844,NaN,NaN,10.097890,0.024361,195.545600,0.000000,187.528000,0.000000,0.282000,0.282000,0.000000,0.000000,0.000000,0.909000,0.000000,13.184000,0.000000,9.700000,0.017707,0.017707,0.017707,0.017707,0.497568,0.497546
0.510000,0.019,0,0.123296,4.334540,0.009419,0.261418,-0.005416,-0.136441,0.022252,-6.490079,2348.910000,2635.385000,0.000000,0.000000,0.052234,0.050505,0.070000,0.070000,0.007766,0.009495,0.000000,0.000000,0.352636,0.344291,0.000000,0.000000,1313.424000,1622.150000,0.000000,0.000000,1057.815000,1032.783000,0.000000,0.000000,0.085009,0.095716,1.058817,1.058817,0.000000,0.000000,28.676030,28.676030,0.000000,0.000000,0.000000,0.000000,0.000000,0.000000,-1.058817,-1.058817,0.001116,0.002159,0.000000,0.000000,-36.326920,-40.047530,0.000000,0.000000,-66.844870,-145.011600,0.000000,0.000000,0.021369,0.040000,-0.071326,0.000000,-0.337868,-0.005897,1.000000,0.000000,0.040423,0.000000,0.000000,0.000000,-0.007553,0.000000,-0.095811,-0.000258,0.000000,0.000000,NaN,NaN,0.711581,0.975106,NaN,NaN,0.017844,0.017844,NaN,NaN,10.097890,0.024361,195.545600,0.000000,187.528000,0.000000,0.282000,0.282000,0.000000,0.000000,0.000000,0.909000,0.000000,13.184000,0.000000,9.700000,0.017707,0.017707,0.017707,0.017707,0.497568,0.497546
0.520000,0.020,0,0.123296,4.334540,0.009419,0.261418,-0.005416,-0.115584,-0.007395,-5.709974,2939.244000,3189.394000,0.000000,0.000000,0.048739,0.047139,0.070000,0.070000,0.011261,0.012861,0.000000,0.000000,0.344262,0.328600,0.000000,0.000000,1905.151000,2196.465000,0.000000,0.000000,1032.692000,985.712600,0.000000,0.000000,0.118330,0.131744,1.111934,1.111934,0.000000,0.000000,17.270080,17.270080,0.000000,0.000000,0.000000,0.000000,0.000000,0.000000,-1.111934,-1.111934,0.000397,0.001836,0.000000,0.000000,-44.981930,-48.126420,0.000000,0.000000,-29.740730,-149.309600,0.000000,0.000000,0.017939,0.040000,-0.065611,0.000000,-0.269196,-0.004698,1.000000,0.000000,0.035644,0.000000,0.000000,0.000000,-0.013415,0.000000,0.010007,-0.011260,0.000000,0.000000,NaN,NaN,0.143699,0.679631,NaN,NaN,0.019676,0.019676,NaN,NaN,10.097860,0.017217,195.543600,0.000000,212.363000,0.000000,0.199000,0.199000,0.000000,0.000000,0.000000,0.913000,0.000000,8.230000,0.000000,5.757000,0.019432,0.019432,0.019432,0.019432,0.517526,0.517502
0.530000,0.021,0,0.123296,4.334540,0.009419,0.261418,-0.005416,-0.092630,-0.037231,-5.065850,3435.485000,3637.563000,0.000000,0.000000,0.045458,0.044055,0.070000,0.070000,0.014542,0.015945,0.000000,0.000000,0.314698,0.292584,0.000000,0.000000,2461.661000,2721.541000,0.000000,0.000000,944.014600,877.680200,0.000000,0.000000,0.157732,0.173369,1.157037,1.157037,0.000000,0.000000,16.830420,16.830420,0.000000,0.000000,0.000000,0.000000,0.000000,0.000000,-1.157037,-1.157037,-0.000202,0.001704,0.000000,0.000000,-51.834910,-54.344220,0.000000,0.000000,17.720800,-157.968200,0.000000,0.000000,0.014757,0.040000,-0.052339,0.000000,-0.168251,-0.002937,1.000000,0.000000,0.035644,0.000000,0.000000,0.000000,-0.013415,0.000000,0.010007,-0.011260,0.000000,0.000000,NaN,NaN,0.143699,0.679631,NaN,NaN,0.019676,0.019676,NaN,NaN,10.097860,0.017217,195.543600,0.000000,212.363000,0.000000,0.199000,0.199000,0.000000,0.000000,0.000000,0.913000,0.000000,8.230000,0.000000,5.757000,0.019432,0.019432,0.019432,0.019432,0.517526,0.517502
0.540000,0.023,0,0.123296,4.334540,0.009419,0.261418,-0.005416,-0.066302,-0.065211,-4.584877,3816.674000,3962.329000,0.000000,0.000000,0.042582,0.041432,0.070000,0.070000,0.017418,0.018568,0.000000,0.000000,0.267908,0.240803,0.000000,0.000000,2950.824000,3167.015000,0.000000,0.000000,803.669900,722.359700,0.000000,0.000000,0.201645,0.218948,1.200472,1.200472,0.000000,0.000000,15.927740,15.927740,0.000000,0.000000,0.000000,0.000000,0.000000,0.000000,-1.200472,-1.200472,-0.000745,0.001677,0.000000,0.000000,-56.633260,-58.423100,0.000000,0.000000,72.449620,-169.371400,0.000000,0.000000,0.012007,0.040000,-0.048457,0.000000,-0.033699,-0.000588,1.000000,0.000000,0.035090,0.000000,0.000000,0.000000,-0.017302,0.000000,0.159072,-0.019339,0.000000,0.000000,NaN,NaN,-0.290237,0.661056,NaN,NaN,0.022895,0.022895,NaN,NaN,10.097850,0.011082,195.540200,0.000000,229.273000,0.000000,0.200000,0.200000,0.000000,0.000000,0.000000,0.915000,0.000000,7.668000,0.000000,5.309000,0.022499,0.022499,0.022499,0.022499,0.537451,0.537423
0.550000,0.025,0,0.123296,4.334540,0.009419,0.261418,-0.005416,-1.620101,3.317620,0.032242,4070.040000,4252.121000,3123.136000,3287.744000,0.040195,0.039308,0.064586,0.063699,0.019805,0.020692,0.005414,0.006301,0.206009,0.210941,0.766411,0.771582,3357.996000,3526.615000,920.365800,1071.069000,617.997200,632.793400,2299.128000,2314.640000,0.259511,0.264221,0.259566,0.264174,0.000000,0.000000,92.120300,96.113400,0.000000,0.000000,0.000000,0.000000,0.000000,0.000000,0.000000,0.000000,-0.010338,-0.007328,-0.000453,-0.000453,-126.595100,-15.971340,530.587600,479.648700,1072.555000,794.321500,36.095190,37.998430,0.009751,0.034142,-0.034264,-0.034264,0.000000,0.000000,1.000000,0.000000,0.035090,0.000000,0.000000,0.000000,-0.017302,0.000000,0.159072,-0.019339,0.000000,0.000000,NaN,NaN,-0.290237,0.661056,NaN,NaN,0.022895,0.022895,NaN,NaN,10.097850,0.011082,195.540200,0.000000,229.273000,0.000000,0.200000,0.200000,0.000000,0.000000,0.000000,0.915000,0.000000,7.668000,0.000000,5.309000,0.022499,0.022499,0.022499,0.022499,0.537451,0.537423
0.560000,0.028,0,0.123296,4.334540,0.009419,0.261418,-0.005416,11.707410,-0.074253,2.171264,4593.101000,4329.849000,4642.104000,4357.695000,0.038073,0.037437,0.056754,0.056119,0.021927,0.022563,0.013246,0.013881,0.268742,0.121191,0.838056,0.690520,3720.521000,3842.707000,2251.735000,2359.748000,806.205600,363.563600,2514.101000,2071.503000,0.262446,0.263170,0.262046,0.263579,0.000000,0.000000,9.381531,1.115423,0.000000,0.000000,0.000000,0.000000,0.000000,0.000000,0.000000,0.000000,0.068965,0.071986,0.073266,0.073266,8.707586,3.952813,35.317010,3.503669,-4607.509000,-4383.802000,-4648.953000,-4407.556000,0.007755,0.026436,-0.019782,-0.019782,0.000000,0.000000,1.000000,0.000000,0.030292,0.000000,0.000000,8.266108,-0.000724,-0.001534,0.223211,-0.105310,0.000000,0.000000,0.001769,-0.000220,16.255860,16.097910,16.285260,16.114620,0.027821,0.027821,NaN,NaN,10.097780,0.006815,195.535200,0.000000,50.069000,0.000000,0.015000,0.015000,0.000000,0.000000,0.000000,0.890000,0.000000,2.564000,0.000000,1.976000,0.027294,0.027294,0.027294,0.027294,0.557334,0.557300
