TIME,DISTANCE,MARKERS,SPEED,SPEEDANGLE,SPEEDLAT,VELOCITY,YAWRATE,ACCELERATIONLAT,ACCELERATIONLONG,ACCELERATIONVERT,SUSPENSIONLOADFL,SUSPENSIONLOADFR,SUSPENSIONLOADRL,SUSPENSIONLOADRR,SUSPENSIONTRAVELFL,SUSPENSIONTRAVELFR,SUSPENSIONTRAVELRL,SUSPENSIONTRAVELRR,SUSPENSIONCONTACTDEPTHFL,SUSPENSIONCONTACTDEPTHFR,SUSPENSIONCONTACTDEPTHRL,SUSPENSIONCONTACTDEPTHRR,SUSPENSIONCONTACTSPEEDFL,SUSPENSIONCONTACTSPEEDFR,SUSPENSIONCONTACTSPEEDRL,SUSPENSIONCONTACTSPEEDRR,SUSPENSIONSPRINGFORCEFL,SUSPENSIONSPRINGFORCEFR,SUSPENSIONSPRINGFORCERL,SUSPENSIONSPRINGFORCERR,SUSPENSIONDAMPERFORCEFL,SUSPENSIONDAMPERFORCEFR,SUSPENSIONDAMPERFORCERL,SUSPENSIONDAMPERFORCERR,WHEELSPINFL,WHEELSPINFR,WHEELSPINRL,WHEELSPINRR,WHEELSHAFTTORQUEFL,WHEELSHAFTTORQUEFR,WHEELSHAFTTORQUERL,WHEELSHAFTTORQUERR,WHEELBRAKETORQUEFL,WHEELBRAKETORQUEFR,WHEELBRAKETORQUERL,WHEELBRAKETORQUERR,TIRESLIPLONGFL,TIRESLIPLONGFR,TIRESLIPLONGRL,TIRESLIPLONGRR,TIRESLIPLATFL,TIRESLIPLATFR,TIRESLIPLATRL,TIRESLIPLATRR,TIREFORCELONGFL,TIREFORCELONGFR,TIREFORCELONGRL,TIREFORCELONGRR,TIREFORCELATFL,TIREFORCELATFR,TIREFORCELATRL,TIREFORCELATRR,RIDEHEIGHTFRONT,RIDEHEIGHTREAR,ROLLANGLEFRONT,ROLLANGLEREAR,GROUNDSLOPE,GROUNDGRADE,GEAR,STEERINGANGLE,THROTTLE,BRAKEPRESSURE,TORQUEDIFFFRONT,TORQUEDIFFREAR,SPEEDDIFFFRONT,SPEEDDIFFREAR,PITCHRATE,ROLLRATE,SLIPRATIOFL,SLIPRATIOFR,SLIPRATIORL,SLIPRATIORR,SLIPANGLEFL,SLIPANGLEFR,SLIPANGLERL,SLIPANGLERR,LAPDISTANCE,TOTALDISTANCE,FORCEFEEDBACKFORCERATIO,FORCEFEEDBACKDAMPERRATIO,POSITIONX,POSITIONY,POSITIONZ,MOTORRPMFRONT,MOTORRPMREAR,POWERELECTRICALFRONT,POWERELECTRICALREAR,POWERELECTRICALTOTAL,POWERBALANCE,WHEELTORQUEBALANCE,EFFICIENCYFRONT,EFFICIENCYREAR,TORQUEMECHANICALFRONT,TORQUEMECHANICALREAR,TORQUEROTORFRONT,TORQUEROTORREAR,919SPEED,IDRSPEED,919TRAVELEDDISTANCE,IDRTRAVELEDDISTANCE,919TIMEDIFF,IDRTIMEDIFF
0.000000,0.000,0,0.000000,0.000000,0.000000,0.000000,0.000000,0.000000,0.000000,0.000000,0.000000,0.000000,0.000000,0.000000,0.060000,0.060000,0.070000,0.070000,0.000000,0.000000,0.000000,0.000000,0.000000,0.000000,0.000000,0.000000,0.000000,0.000000,0.000000,0.000000,0.000000,0.000000,0.000000,0.000000,0.000000,0.000000,0.000000,0.000000,0.000000,0.000000,0.000000,0.000000,0.000000,0.000000,0.000000,0.000000,0.000000,0.000000,0.000000,0.000000,0.000000,0.000000,0.000000,0.000000,0.000000,0.000000,0.000000,0.000000,0.000000,0.000000,0.000000,0.000000,0.030000,0.040000,0.000000,0.000000,0.224686,0.003922,1.000000,0.000000,0.000000,0.000000,0.000000,0.000000,0.000000,0.000000,0.000000,0.000000,NaN,NaN,NaN,NaN,NaN,NaN,NaN,NaN,0.000000,0.000000,NaN,NaN,10.100000,0.470000,195.560000,0.000000,0.000000,0.000000,0.000000,0.000000,0.500000,0.500000,0.000000,0.882000,0.000000,0.000000,0.000000,0.000000,0.000000,0.000000,0.000000,0.000000,0.000000,0.000000
0.010000,0.000,0,0.000000,0.000000,0.000000,0.000000,0.000000,0.000000,-0.000088,-9.810049,0.000000,0.000000,0.000000,0.000000,0.060000,0.060000,0.070000,0.070000,0.000000,0.000000,0.000000,0.000000,0.000000,0.000000,0.000000,0.000000,0.000000,0.000000,0.000000,0.000000,0.000000,0.000000,0.000000,0.000000,0.000000,0.000000,0.000000,0.000000,0.000000,0.000000,0.000000,0.000000,0.000000,0.000000,0.000000,0.000000,0.000000,0.000000,0.000000,0.000000,0.000000,0.000000,0.000000,0.000000,0.000000,0.000000,0.000000,0.000000,0.000000,0.000000,0.000000,0.000000,0.030000,0.040000,0.000000,0.000000,0.224686,0.003922,1.000000,0.000000,0.000000,0.000000,0.000000,0.000000,0.000000,0.000000,0.000000,0.000000,NaN,NaN,NaN,NaN,NaN,NaN,NaN,NaN,0.000000,0.000000,NaN,NaN,10.100000,0.470000,195.560000,0.000000,0.000000,0.000000,0.000000,0.000000,0.500000,0.500000,0.000000,0.882000,0.000000,0.000000,0.000000,0.000000,0.000000,0.000000,0.000000,0.000000,0.000000,0.000000
0.020000,0.000,0,0.000000,0.000000,0.000000,0.000000,0.000000,0.000000,-0.000446,-9.810239,0.000000,0.000000,0.000000,0.000000,0.060000,0.060000,0.070000,0.070000,0.000000,0.000000,0.000000,0.000000,0.000000,0.000000,0.000000,0.000000,0.000000,0.000000,0.000000,0.000000,0.000000,0.000000,0.000000,0.000000,0.000000,0.000000,0.125971,0.125971,0.000000,0.000000,236.196400,236.196400,0.000000,0.000000,0.000000,0.000000,0.000000,0.000000,-0.125971,-0.125971,0.000000,0.000000,0.000000,0.000000,0.000000,0.000000,0.000000,0.000000,0.000000,0.000000,0.000000,0.000000,0.030000,0.040000,0.000000,0.000000,0.224686,0.003922,1.000000,0.000000,0.126000,0.000000,0.000000,0.000000,0.000000,0.000000,-0.000001,0.000000,NaN,NaN,NaN,NaN,NaN,NaN,NaN,NaN,0.000000,0.000000,NaN,NaN,10.100000,0.467842,195.560000,0.000000,24.058000,0.000000,0.142000,0.142000,0.000000,0.000000,0.000000,0.884000,0.000000,99.502000,0.000000,78.425000,0.000000,0.000000,0.000000,0.000000,0.018000,0.018000
0.030000,0.000,0,0.000000,0.000000,0.000000,0.000000,0.000000,0.000000,-0.001079,-9.810581,0.000000,0.000000,0.000000,0.000000,0.060000,0.060000,0.070000,0.070000,0.000000,0.000000,0.000000,0.000000,0.000000,0.000000,0.000000,0.000000,0.000000,0.000000,0.000000,0.000000,0.000000,0.000000,0.000000,0.000000,0.000000,0.000000,0.760887,0.760887,0.000000,0.000000,240.053100,240.053100,0.000000,0.000000,0.000000,0.000000,0.000000,0.000000,-0.760887,-0.760887,0.000000,0.000000,0.000000,0.000000,0.000000,0.000000,0.000000,0.000000,0.000000,0.000000,0.000000,0.000000,0.030000,0.040000,0.000000,0.000000,0.224686,0.003922,1.000000,0.000000,0.126000,0.000000,0.000000,0.000000,0.000000,0.000000,-0.000001,0.000000,NaN,NaN,NaN,NaN,NaN,NaN,NaN,NaN,0.000000,0.000000,NaN,NaN,10.100000,0.467842,195.560000,0.000000,24.058000,0.000000,0.142000,0.142000,0.000000,0.000000,0.000000,0.884000,0.000000,99.502000,0.000000,78.425000,0.000000,0.000000,0.000000,0.000000,0.018000,0.018000
0.040000,0.000,0,0.000000,0.000000,0.000000,0.000000,0.000000,0.000000,-0.001986,-9.811073,0.000000,0.000000,0.000000,0.000000,0.060000,0.060000,0.070000,0.070000,0.000000,0.000000,0.000000,0.000000,0.000000,0.000000,0.000000,0.000000,0.000000,0.000000,0.000000,0.000000,0.000000,0.000000,0.000000,0.000000,0.000000,0.000000,1.408080,1.408080,0.000000,0.000000,244.362600,244.362600,0.000000,0.000000,0.000000,0.000000,0.000000,0.000000,-1.408080,-1.408080,0.000000,0.000000,0.000000,0.000000,0.000000,0.000000,0.000000,0.000000,0.000000,0.000000,0.000000,0.000000,0.030000,0.040000,0.000000,0.000000,0.224686,0.003922,1.000000,0.000000,0.126000,0.000000,0.000000,0.000000,0.000000,0.000000,-0.000011,0.000000,NaN,NaN,NaN,NaN,NaN,NaN,NaN,NaN,0.000000,0.000000,NaN,NaN,10.100000,0.461759,195.560000,0.000000,268.923000,0.000000,3.022000,3.022000,0.000000,0.000000,0.000000,0.918000,0.000000,103.389000,0.000000,81.519000,0.000000,0.000000,0.000000,0.000000,0.038000,0.038000
0.050000,0.000,0,0.000000,0.000000,0.000000,0.000000,0.000000,0.000000,-0.003168,-9.811699,0.000000,0.000000,0.000000,0.000000,0.060000,0.060000,0.070000,0.070000,0.000000,0.000000,0.000000,0.000000,0.000000,0.000000,0.000000,0.000000,0.000000,0.000000,0.000000,0.000000,0.000000,0.000000,0.000000,0.000000,0.000000,0.000000,2.011064,2.011064,0.000000,0.000000,201.154900,201.154900,0.000000,0.000000,0.000000,0.000000,0.000000,0.000000,-2.011064,-2.011064,0.000000,0.000000,0.000000,0.000000,0.000000,0.000000,0.000000,0.000000,0.000000,0.000000,0.000000,0.000000,0.030000,0.040000,0.000000,0.000000,0.224670,0.003921,1.000000,0.000000,0.126000,0.000000,0.000000,0.000000,0.000000,0.000000,-0.000011,0.000000,NaN,NaN,NaN,NaN,NaN,NaN,NaN,NaN,0.000000,0.000000,NaN,NaN,10.100000,0.461759,195.560000,0.000000,268.923000,0.000000,3.022000,3.022000,0.000000,0.000000,0.000000,0.918000,0.000000,103.389000,0.000000,81.519000,0.000000,0.000000,0.000000,0.000000,0.038000,0.038000
0.060000,0.000,0,0.000000,0.000000,0.000000,0.000000,0.000000,0.000000,-0.004624,-9.812474,0.000000,0.000000,0.000000,0.000000,0.060000,0.060000,0.070000,0.070000,0.000000,0.000000,0.000000,0.000000,0.000000,0.000000,0.000000,0.000000,0.000000,0.000000,0.000000,0.000000,0.000000,0.000000,0.000000,0.000000,0.000000,0.000000,2.478997,2.478997,0.000000,0.000000,161.815100,161.815100,0.000000,0.000000,0.000000,0.000000,0.000000,0.000000,-2.478997,-2.478997,0.000000,0.000000,0.000000,0.000000,0.000000,0.000000,0.000000,0.000000,0.000000,0.000000,0.000000,0.000000,0.030000,0.040000,0.000000,0.000000,0.224655,0.003921,1.000000,0.000000,0.126000,0.000000,0.000000,0.000000,0.000000,0.000000,-0.000039,0.000000,NaN,NaN,NaN,NaN,NaN,NaN,NaN,NaN,0.000000,0.000000,NaN,NaN,10.100000,0.451752,195.560000,0.000000,473.453000,0.000000,3.536000,3.536000,0.000000,0.000000,0.000000,0.939000,0.000000,68.151000,0.000000,53.464000,0.000000,0.000000,0.000000,0.000000,0.058000,0.058000
0.070000,0.000,0,0.000000,0.000000,0.000000,0.000000,0.000000,0.000000,-0.006353,-9.813428,0.000000,0.000000,0.000000,0.000000,0.060000,0.060000,0.070000,0.070000,0.000000,0.000000,0.000000,0.000000,0.000000,0.000000,0.000000,0.000000,0.000000,0.000000,0.000000,0.000000,0.000000,0.000000,0.000000,0.000000,0.000000,0.000000,2.872195,2.872195,0.000000,0.000000,139.236300,139.236300,0.000000,0.000000,0.000000,0.000000,0.000000,0.000000,-2.872195,-2.872195,0.000000,0.000000,0.000000,0.000000,0.000000,0.000000,0.000000,0.000000,0.000000,0.000000,0.000000,0.000000,0.030000,0.040000,0.000000,0.000000,0.224625,0.003920,1.000000,0.000000,0.126000,0.000000,0.000000,0.000000,0.000000,0.000000,-0.000039,0.000000,NaN,NaN,NaN,NaN,NaN,NaN,NaN,NaN,0.000000,0.000000,NaN,NaN,10.100000,0.451752,195.560000,0.000000,473.453000,0.000000,3.536000,3.536000,0.000000,0.000000,0.000000,0.939000,0.000000,68.151000,0.000000,53.464000,0.000000,0.000000,0.000000,0.000000,0.058000,0.058000
0.080000,0.000,0,0.000000,0.000000,0.000000,0.000000,0.000000,0.000000,-0.008356,-9.814501,0.000000,0.000000,0.000000,0.000000,0.060000,0.060000,0.070000,0.070000,0.000000,0.000000,0.000000,0.000000,0.000000,0.000000,0.000000,0.000000,0.000000,0.000000,0.000000,0.000000,0.000000,0.000000,0.000000,0.000000,0.000000,0.000000,3.218134,3.218134,0.000000,0.000000,124.086500,124.086500,0.000000,0.000000,0.000000,0.000000,0.000000,0.000000,-3.218134,-3.218134,0.000000,0.000000,0.000000,0.000000,0.000000,0.000000,0.000000,0.000000,0.000000,0.000000,0.000000,0.000000,0.030000,0.040000,0.000000,0.000000,0.224579,0.003920,1.000000,0.000000,0.126000,0.000000,0.000000,0.000000,0.000000,0.000000,-0.000094,0.000000,NaN,NaN,NaN,NaN,NaN,NaN,NaN,NaN,0.000000,0.000000,NaN,NaN,10.100000,0.437818,195.560000,0.000000,614.618000,0.000000,3.536000,3.536000,0.000000,0.000000,0.000000,0.949000,0.000000,52.683000,0.000000,41.149000,0.000000,0.000000,0.000000,0.000000,0.078000,0.078000
0.090000,0.000,0,0.000000,0.000000,0.000000,0.000000,0.000000,0.000000,-0.010630,-9.815722,0.000000,0.000000,0.000000,0.000000,0.060000,0.060000,0.070000,0.070000,0.000000,0.000000,0.000000,0.000000,0.000000,0.000000,0.000000,0.000000,0.000000,0.000000,0.000000,0.000000,0.000000,0.000000,0.000000,0.000000,0.000000,0.000000,3.530633,3.530633,0.000000,0.000000,113.000300,113.000300,0.000000,0.000000,0.000000,0.000000,0.000000,0.000000,-3.530633,-3.530633,0.000000,0.000000,0.000000,0.000000,0.000000,0.000000,0.000000,0.000000,0.000000,0.000000,0.000000,0.000000,0.030000,0.040000,0.000000,0.000000,0.224510,0.003918,1.000000,0.000000,0.126000,0.000000,0.000000,0.000000,0.000000,0.000000,-0.000094,0.000000,NaN,NaN,NaN,NaN,NaN,NaN,NaN,NaN,0.000000,0.000000,NaN,NaN,10.100000,0.437818,195.560000,0.000000,614.618000,0.000000,3.536000,3.536000,0.000000,0.000000,0.000000,0.949000,0.000000,52.683000,0.000000,41.149000,0.000000,0.000000,0.000000,0.000000,0.078000,0.078000
0.100000,0.000,0,-0.000440,180.000000,0.000000,0.981239,0.000000,0.000000,-0.013176,-9.817123,0.000000,0.000000,0.000000,0.000000,0.060000,0.060000,0.070000,0.070000,0.000000,0.000000,0.000000,0.000000,0.000000,0.000000,0.000000,0.000000,0.000000,0.000000,0.000000,0.000000,0.000000,0.000000,0.000000,0.000000,0.000000,0.000000,3.817817,3.817817,0.000000,0.000000,104.424900,104.424900,0.000000,0.000000,0.000000,0.000000,0.000000,0.000000,-3.817817,-3.817817,0.000000,0.000000,0.000000,0.000000,0.000000,0.000000,0.000000,0.000000,0.000000,0.000000,0.000000,0.000000,0.030000,0.040000,0.000000,0.000000,0.224419,0.003917,1.000000,0.000000,0.126000,0.000000,0.000000,0.000000,0.000000,0.000000,-0.000185,0.000000,NaN,NaN,NaN,NaN,NaN,NaN,NaN,NaN,0.000000,0.000000,NaN,NaN,10.100000,0.419957,195.560000,0.000000,729.149000,0.000000,3.536000,3.536000,0.000000,0.000000,0.000000,0.955000,0.000000,44.559000,0.000000,34.681000,0.000000,0.000000,0.000000,0.000000,0.098000,0.098000
0.110000,0.000,0,-0.000440,180.000000,0.000000,0.981239,0.000000,0.000000,-0.015992,-9.818673,0.000000,0.000000,0.000000,0.000000,0.060000,0.060000,0.070000,0.070000,0.000000,0.000000,0.000000,0.000000,0.000000,0.000000,0.000000,0.000000,0.000000,0.000000,0.000000,0.000000,0.000000,0.000000,0.000000,0.000000,0.000000,0.000000,4.084955,4.084955,0.000000,0.000000,97.530410,97.530410,0.000000,0.000000,0.000000,0.000000,0.000000,0.000000,-4.084955,-4.084955,0.000000,0.000000,0.000000,0.000000,0.000000,0.000000,0.000000,0.000000,0.000000,0.000000,0.000000,0.000000,0.030000,0.040000,0.000000,0.000000,0.224289,0.003915,1.000000,0.000000,0.126000,0.000000,0.000000,0.000000,0.000000,0.000000,-0.000185,0.000000,NaN,NaN,NaN,NaN,NaN,NaN,NaN,NaN,0.000000,0.000000,NaN,NaN,10.100000,0.419957,195.560000,0.000000,729.149000,0.000000,3.536000,3.536000,0.000000,0.000000,0.000000,0.955000,0.000000,44.559000,0.000000,34.681000,0.000000,0.000000,0.000000,0.000000,0.098000,0.098000
0.120000,0.000,0,-0.000440,180.000000,0.000000,0.981239,0.000000,0.000000,-0.019077,-9.820342,0.000000,0.000000,0.000000,0.000000,0.060000,0.060000,0.070000,0.070000,0.000000,0.000000,0.000000,0.000000,0.000000,0.000000,0.000000,0.000000,0.000000,0.000000,0.000000,0.000000,0.000000,0.000000,0.000000,0.000000,0.000000,0.000000,4.335694,4.335694,0.000000,0.000000,91.826900,91.826900,0.000000,0.000000,0.000000,0.000000,0.000000,0.000000,-4.335694,-4.335694,0.000000,0.000000,0.000000,0.000000,0.000000,0.000000,0.000000,0.000000,0.000000,0.000000,0.000000,0.000000,0.030000,0.040000,0.000000,0.000000,0.224121,0.003912,1.000000,0.000000,0.126000,0.000000,0.000000,0.000000,0.000000,0.000000,-0.000322,0.000000,NaN,NaN,NaN,NaN,NaN,NaN,NaN,NaN,0.000000,0.000000,NaN,NaN,10.100000,0.398166,195.560000,0.000000,828.056000,0.000000,3.536000,3.536000,0.000000,0.000000,0.000000,0.959000,0.000000,39.335000,0.000000,30.521000,0.000000,0.000000,0.000000,0.000000,0.118000,0.118000
0.130000,0.000,0,-0.000440,180.000000,0.000000,0.981239,0.000000,0.000000,-0.022431,-9.822130,0.000000,0.000000,0.000000,0.000000,0.060000,0.060000,0.070000,0.070000,0.000000,0.000000,0.000000,0.000000,0.000000,0.000000,0.000000,0.000000,0.000000,0.000000,0.000000,0.000000,0.000000,0.000000,0.000000,0.000000,0.000000,0.000000,4.572688,4.572688,0.000000,0.000000,87.004350,87.004350,0.000000,0.000000,0.000000,0.000000,0.000000,0.000000,-4.572688,-4.572688,0.000000,0.000000,0.000000,0.000000,0.000000,0.000000,0.000000,0.000000,0.000000,0.000000,0.000000,0.000000,0.030000,0.040000,0.000000,0.000000,0.223908,0.003908,1.000000,0.000000,0.126000,0.000000,0.000000,0.000000,0.000000,0.000000,-0.000322,0.000000,NaN,NaN,NaN,NaN,NaN,NaN,NaN,NaN,0.000000,0.000000,NaN,NaN,10.100000,0.398166,195.560000,0.000000,828.056000,0.000000,3.536000,3.536000,0.000000,0.000000,0.000000,0.959000,0.000000,39.335000,0.000000,30.521000,0.000000,0.000000,0.000000,0.000000,0.118000,0.118000
0.140000,0.000,0,-0.000440,180.000000,0.000000,0.981239,0.000000,0.000000,-0.026052,-9.824158,0.000000,0.000000,0.000000,0.000000,0.060000,0.060000,0.070000,0.070000,0.000000,0.000000,0.000000,0.000000,0.000000,0.000000,0.000000,0.000000,0.000000,0.000000,0.000000,0.000000,0.000000,0.000000,0.000000,0.000000,0.000000,0.000000,4.797936,4.797936,0.000000,0.000000,82.856060,82.856060,0.000000,0.000000,0.000000,0.000000,0.000000,0.000000,-4.797936,-4.797936,0.000000,0.000000,0.000000,0.000000,0.000000,0.000000,0.000000,0.000000,0.000000,0.000000,0.000000,0.000000,0.030000,0.040000,0.000000,0.000000,0.223640,0.003903,1.000000,0.000000,0.126000,0.000000,0.000000,0.000000,0.000000,0.000000,-0.000514,0.000000,NaN,NaN,NaN,NaN,NaN,NaN,NaN,NaN,0.000015,0.000015,NaN,NaN,10.100000,0.372442,195.560000,0.000000,916.338000,0.000000,3.536000,3.536000,0.000000,0.000000,0.000000,0.961000,0.000000,35.608000,0.000000,27.554000,0.000015,0.000015,0.000015,0.000015,0.138000,0.138000
0.150000,0.000,0,-0.000440,180.000000,0.000000,0.981239,0.000000,0.000000,-0.029938,-9.826184,0.000000,0.000000,0.000000,0.000000,0.060000,0.060000,0.070000,0.070000,0.000000,0.000000,0.000000,0.000000,0.000000,0.000000,0.000000,0.000000,0.000000,0.000000,0.000000,0.000000,0.000000,0.000000,0.000000,0.000000,0.000000,0.000000,5.012994,5.012994,0.000000,0.000000,79.236990,79.236990,0.000000,0.000000,0.000000,0.000000,0.000000,0.000000,-5.012994,-5.012994,0.000000,0.000000,0.000000,0.000000,0.000000,0.000000,0.000000,0.000000,0.000000,0.000000,0.000000,0.000000,0.030000,0.040000,0.000000,0.000000,0.223305,0.003897,1.000000,0.000000,0.126000,0.000000,0.000000,0.000000,0.000000,0.000000,-0.000514,0.000000,NaN,NaN,NaN,NaN,NaN,NaN,NaN,NaN,0.000015,0.000015,NaN,NaN,10.100000,0.372442,195.560000,0.000000,916.338000,0.000000,3.536000,3.536000,0.000000,0.000000,0.000000,0.961000,0.000000,35.608000,0.000000,27.554000,0.000015,0.000015,0.000015,0.000015,0.138000,0.138000
0.160000,0.000,0,-0.000440,180.000000,0.000000,0.981239,0.000000,0.000000,-0.034089,-9.828568,0.000000,0.000000,0.000000,0.000000,0.060000,0.060000,0.070000,0.070000,0.000000,0.000000,0.000000,0.000000,0.000000,0.000000,0.000000,0.000000,0.000000,0.000000,0.000000,0.000000,0.000000,0.000000,0.000000,0.000000,0.000000,0.000000,5.219100,5.219100,0.000000,0.000000,76.042610,76.042610,0.000000,0.000000,0.000000,0.000000,0.000000,0.000000,-5.219100,-5.219100,0.000000,0.000000,0.000000,0.000000,0.000000,0.000000,0.000000,0.000000,0.000000,0.000000,0.000000,0.000000,0.030000,0.040000,0.000000,0.000000,0.222893,0.003890,1.000000,0.000000,0.126000,0.000000,0.000000,0.000000,0.000000,0.000000,-0.000769,0.000000,NaN,NaN,NaN,NaN,NaN,NaN,NaN,NaN,0.000015,0.000015,NaN,NaN,10.100000,0.342783,195.560000,0.000000,996.774000,0.000000,3.536000,3.536000,0.000000,0.000000,0.000000,0.963000,0.000000,32.773000,0.000000,25.297000,0.000015,0.000015,0.000015,0.000015,0.158000,0.158000
0.170000,0.000,0,-0.000440,180.000000,0.000000,0.981239,0.000000,0.000000,-0.038503,-9.830954,0.000000,0.000000,0.000000,0.000000,0.060000,0.060000,0.070000,0.070000,0.000000,0.000000,0.000000,0.000000,0.000000,0.000000,0.000000,0.000000,0.000000,0.000000,0.000000,0.000000,0.000000,0.000000,0.000000,0.000000,0.000000,0.000000,5.417258,5.417258,0.000000,0.000000,73.195680,73.195680,0.000000,0.000000,0.000000,0.000000,0.000000,0.000000,-5.417258,-5.417258,0.000000,0.000000,0.000000,0.000000,0.000000,0.000000,0.000000,0.000000,0.000000,0.000000,0.000000,0.000000,0.030000,0.040000,0.000000,0.000000,0.222405,0.003882,1.000000,0.000000,0.126000,0.000000,0.000000,0.000000,0.000000,0.000000,-0.000769,0.000000,NaN,NaN,NaN,NaN,NaN,NaN,NaN,NaN,0.000015,0.000015,NaN,NaN,10.100000,0.342783,195.560000,0.000000,996.774000,0.000000,3.536000,3.536000,0.000000,0.000000,0.000000,0.963000,0.000000,32.773000,0.000000,25.297000,0.000015,0.000015,0.000015,0.000015,0.158000,0.158000
0.180000,0.000,0,-0.000440,180.000000,0.000000,0.981239,0.000000,0.000000,-0.043178,-9.833457,0.000000,0.000000,0.000000,0.000000,0.060000,0.060000,0.070000,0.070000,0.000000,0.000000,0.000000,0.000000,0.000000,0.000000,0.000000,0.000000,0.000000,0.000000,0.000000,0.000000,0.000000,0.000000,0.000000,0.000000,0.000000,0.000000,5.608297,5.608297,0.000000,0.000000,70.637420,70.637420,0.000000,0.000000,0.000000,0.000000,0.000000,0.000000,-5.608297,-5.608297,0.000000,0.000000,0.000000,0.000000,0.000000,0.000000,0.000000,0.000000,0.000000,0.000000,0.000000,0.000000,0.030000,0.040000,0.000000,0.000000,0.221809,0.003871,1.000000,0.000000,0.126000,0.000000,0.000000,0.000000,0.000000,0.000000,-0.001098,0.000000,NaN,NaN,NaN,NaN,NaN,NaN,NaN,NaN,0.000031,0.000031,NaN,NaN,10.100000,0.309185,195.560000,0.000000,1071.105000,0.000000,3.536000,3.536000,0.000000,0.000000,0.000000,0.964000,0.000000,30.522000,0.000000,23.505000,0.000031,0.000031,0.000031,0.000031,0.177999,0.177999
0.190000,0.000,0,-0.000440,180.000000,0.000000,0.981239,0.000000,0.000000,-0.048112,-9.836200,0.000000,0.000000,0.000000,0.000000,0.060000,0.060000,0.070000,0.070000,0.000000,0.000000,0.000000,0.000000,0.000000,0.000000,0.000000,0.000000,0.000000,0.000000,0.000000,0.000000,0.000000,0.000000,0.000000,0.000000,0.000000,0.000000,5.792910,5.792910,0.000000,0.000000,68.321050,68.321050,0.000000,0.000000,0.000000,0.000000,0.000000,0.000000,-5.792910,-5.792910,0.000000,0.000000,0.000000,0.000000,0.000000,0.000000,0.000000,0.000000,0.000000,0.000000,0.000000,0.000000,0.030000,0.040000,0.000000,0.000000,0.221115,0.003859,1.000000,0.000000,0.126000,0.000000,0.000000,0.000000,0.000000,0.000000,-0.001098,0.000000,NaN,NaN,NaN,NaN,NaN,NaN,NaN,NaN,0.000031,0.000031,NaN,NaN,10.100000,0.309185,195.560000,0.000000,1071.105000,0.000000,3.536000,3.536000,0.000000,0.000000,0.000000,0.964000,0.000000,30.522000,0.000000,23.505000,0.000031,0.000031,0.000031,0.000031,0.177999,0.177999
0.200000,0.000,0,-0.003469,180.000000,0.000000,1.963949,0.000000,0.000000,-0.053305,-9.839062,0.000000,0.000000,0.000000,0.000000,0.060000,0.060000,0.070000,0.070000,0.000000,0.000000,0.000000,0.000000,0.000000,0.000000,0.000000,0.000000,0.000000,0.000000,0.000000,0.000000,0.000000,0.000000,0.000000,0.000000,0.000000,0.000000,5.971683,5.971683,0.000000,0.000000,66.211900,66.211900,0.000000,0.000000,0.000000,0.000000,0.000000,0.000000,-5.971683,-5.971683,0.000000,0.000000,0.000000,0.000000,0.000000,0.000000,0.000000,0.000000,0.000000,0.000000,0.000000,0.000000,0.030000,0.040000,0.000000,0.000000,0.220306,0.003845,1.000000,0.000000,0.126000,0.000000,0.000000,0.000000,0.000000,0.000000,-0.001508,0.000000,NaN,NaN,NaN,NaN,NaN,NaN,NaN,NaN,0.000046,0.000046,NaN,NaN,10.100000,0.271644,195.560000,0.000000,1140.507000,0.000000,3.536000,3.536000,0.000000,0.000000,0.000000,0.965000,0.000000,28.678000,0.000000,22.037000,0.000046,0.000046,0.000046,0.000046,0.197999,0.197999
0.210000,0.000,0,-0.003469,180.000000,0.000000,1.963949,0.000000,0.000000,-0.058753,-9.842044,0.000000,0.000000,0.000000,0.000000,0.060000,0.060000,0.070000,0.070000,0.000000,0.000000,0.000000,0.000000,0.000000,0.000000,0.000000,0.000000,0.000000,0.000000,0.000000,0.000000,0.000000,0.000000,0.000000,0.000000,0.000000,0.000000,6.145122,6.145122,0.000000,0.000000,64.279590,64.279590,0.000000,0.000000,0.000000,0.000000,0.000000,0.000000,-6.145122,-6.145122,0.000000,0.000000,0.000000,0.000000,0.000000,0.000000,0.000000,0.000000,0.000000,0.000000,0.000000,0.000000,0.030000,0.040000,0.000000,0.000000,0.219353,0.003828,1.000000,0.000000,0.126000,0.000000,0.000000,0.000000,0.000000,0.000000,-0.001508,0.000000,NaN,NaN,NaN,NaN,NaN,NaN,NaN,NaN,0.000046,0.000046,NaN,NaN,10.100000,0.271644,195.560000,0.000000,1140.507000,0.000000,3.536000,3.536000,0.000000,0.000000,0.000000,0.965000,0.000000,28.678000,0.000000,22.037000,0.000046,0.000046,0.000046,0.000046,0.197999,0.197999
0.220000,0.000,0,-0.003469,180.000000,0.000000,1.963949,0.000000,0.000000,-0.064455,-9.845145,0.000000,0.000000,0.000000,0.000000,0.060000,0.060000,0.070000,0.070000,0.000000,0.000000,0.000000,0.000000,0.000000,0.000000,0.000000,0.000000,0.000000,0.000000,0.000000,0.000000,0.000000,0.000000,0.000000,0.000000,0.000000,0.000000,6.313659,6.313659,0.000000,0.000000,62.501590,62.501590,0.000000,0.000000,0.000000,0.000000,0.000000,0.000000,-6.313659,-6.313659,0.000000,0.000000,0.000000,0.000000,0.000000,0.000000,0.000000,0.000000,0.000000,0.000000,0.000000,0.000000,0.030000,0.040000,0.000000,0.000000,0.218269,0.003810,1.000000,0.000000,0.126000,0.000000,0.000000,0.000000,0.000000,0.000000,-0.002010,0.000000,NaN,NaN,NaN,NaN,NaN,NaN,NaN,NaN,0.000183,0.000183,NaN,NaN,10.100000,0.230155,195.560200,0.000000,1205.820000,0.000000,3.536000,3.536000,0.000000,0.000000,0.000000,0.966000,0.000000,27.131000,0.000000,20.805000,0.000168,0.000168,0.000168,0.000168,0.217996,0.217996
0.230000,0.000,0,-0.003469,180.000000,0.000000,1.963949,0.000000,0.000000,-0.070409,-9.848485,0.000000,0.000000,0.000000,0.000000,0.060000,0.060000,0.070000,0.070000,0.000000,0.000000,0.000000,0.000000,0.000000,0.000000,0.000000,0.000000,0.000000,0.000000,0.000000,0.000000,0.000000,0.000000,0.000000,0.000000,0.000000,0.000000,6.477674,6.477674,0.000000,0.000000,60.858460,60.858460,0.000000,0.000000,0.000000,0.000000,0.000000,0.000000,-6.477674,-6.477674,0.000000,0.000000,0.000000,0.000000,0.000000,0.000000,0.000000,0.000000,0.000000,0.000000,0.000000,0.000000,0.030000,0.040000,0.000000,0.000000,0.217018,0.003788,1.000000,0.000000,0.126000,0.000000,0.000000,0.000000,0.000000,0.000000,-0.002010,0.000000,NaN,NaN,NaN,NaN,NaN,NaN,NaN,NaN,0.000183,0.000183,NaN,NaN,10.100000,0.230155,195.560200,0.000000,1205.820000,0.000000,3.536000,3.536000,0.000000,0.000000,0.000000,0.966000,0.000000,27.131000,0.000000,20.805000,0.000168,0.000168,0.000168,0.000168,0.217996,0.217996
0.240000,0.000,0,-0.003469,180.000000,0.000000,1.963949,0.000000,0.000000,-0.076613,-9.851945,0.000000,0.000000,0.000000,0.000000,0.060000,0.060000,0.070000,0.070000,0.000000,0.000000,0.000000,0.000000,0.000000,0.000000,0.000000,0.000000,0.000000,0.000000,0.000000,0.000000,0.000000,0.000000,0.000000,0.000000,0.000000,0.000000,6.637500,6.637500,0.000000,0.000000,59.333760,59.333760,0.000000,0.000000,0.000000,0.000000,0.000000,0.000000,-6.637500,-6.637500,0.000000,0.000000,0.000000,0.000000,0.000000,0.000000,0.000000,0.000000,0.000000,0.000000,0.000000,0.000000,0.030000,0.040000,0.000000,0.000000,0.215591,0.003763,1.000000,0.000000,0.126000,0.000000,0.000000,0.000000,0.000000,0.000000,-0.002613,0.000000,NaN,NaN,NaN,NaN,NaN,NaN,NaN,NaN,0.000366,0.000366,NaN,NaN,10.100000,0.184715,195.560400,0.000000,1267.668000,0.000000,3.536000,3.536000,0.000000,0.000000,0.000000,0.966000,0.000000,25.810000,0.000000,19.753000,0.000336,0.000336,0.000336,0.000336,0.237992,0.237991
0.250000,0.000,0,-0.003469,180.000000,0.000000,1.963949,0.000000,0.000000,-0.083065,-9.855524,0.000000,0.000000,0.000000,0.000000,0.060000,0.060000,0.070000,0.070000,0.000000,0.000000,0.000000,0.000000,0.000000,0.000000,0.000000,0.000000,0.000000,0.000000,0.000000,0.000000,0.000000,0.000000,0.000000,0.000000,0.000000,0.000000,6.793429,6.793429,0.000000,0.000000,57.913710,57.913710,0.000000,0.000000,0.000000,0.000000,0.000000,0.000000,-6.793429,-6.793429,0.000000,0.000000,0.000000,0.000000,0.000000,0.000000,0.000000,0.000000,0.000000,0.000000,0.000000,0.000000,0.030000,0.040000,0.000000,0.000000,0.213982,0.003735,1.000000,0.000000,0.126000,0.000000,0.000000,0.000000,0.000000,0.000000,-0.002613,0.000000,NaN,NaN,NaN,NaN,NaN,NaN,NaN,NaN,0.000366,0.000366,NaN,NaN,10.100000,0.184715,195.560400,0.000000,1267.668000,0.000000,3.536000,3.536000,0.000000,0.000000,0.000000,0.966000,0.000000,25.810000,0.000000,19.753000,0.000336,0.000336,0.000336,0.000336,0.237992,0.237991
0.260000,0.001,0,-0.003469,180.000000,0.000000,1.963949,0.000000,0.000000,-0.089761,-9.859344,0.000000,0.000000,0.000000,0.000000,0.060000,0.060000,0.070000,0.070000,0.000000,0.000000,0.000000,0.000000,0.000000,0.000000,0.000000,0.000000,0.000000,0.000000,0.000000,0.000000,0.000000,0.000000,0.000000,0.000000,0.000000,0.000000,6.945725,6.945725,0.000000,0.000000,56.587840,56.587840,0.000000,0.000000,0.000000,0.000000,0.000000,0.000000,-6.945725,-6.945725,0.000000,0.000000,0.000000,0.000000,0.000000,0.000000,0.000000,0.000000,0.000000,0.000000,0.000000,0.000000,0.030000,0.040000,0.000000,0.000000,0.212166,0.003703,1.000000,0.000000,0.126000,0.000000,0.000000,0.000000,0.000000,0.000000,-0.003326,0.000000,NaN,NaN,NaN,NaN,NaN,NaN,NaN,NaN,0.000549,0.000549,NaN,NaN,10.100000,0.135316,195.560600,0.000000,1326.535000,0.000000,3.536000,3.536000,0.000000,0.000000,0.000000,0.966000,0.000000,24.664000,0.000000,18.841000,0.000534,0.000534,0.000534,0.000534,0.257987,0.257986
0.270000,0.001,0,-0.003469,180.000000,0.000000,1.963949,0.000000,0.000000,-0.096700,-9.863401,0.000000,0.000000,0.000000,0.000000,0.060000,0.060000,0.070000,0.070000,0.000000,0.000000,0.000000,0.000000,0.000000,0.000000,0.000000,0.000000,0.000000,0.000000,0.000000,0.000000,0.000000,0.000000,0.000000,0.000000,0.000000,0.000000,7.094622,7.094622,0.000000,0.000000,55.345540,55.345540,0.000000,0.000000,0.000000,0.000000,0.000000,0.000000,-7.094622,-7.094622,0.000000,0.000000,0.000000,0.000000,0.000000,0.000000,0.000000,0.000000,0.000000,0.000000,0.000000,0.000000,0.030000,0.040000,0.000000,0.000000,0.210121,0.003667,1.000000,0.000000,0.126000,0.000000,0.000000,0.000000,0.000000,0.000000,-0.003326,0.000000,NaN,NaN,NaN,NaN,NaN,NaN,NaN,NaN,0.000549,0.000549,NaN,NaN,10.100000,0.135316,195.560600,0.000000,1326.535000,0.000000,3.536000,3.536000,0.000000,0.000000,0.000000,0.966000,0.000000,24.664000,0.000000,18.841000,0.000534,0.000534,0.000534,0.000534,0.257987,0.257986
0.280000,0.001,0,-0.003469,180.000000,0.000000,1.963949,0.000000,0.000000,-0.103879,-9.867460,0.000000,0.000000,0.000000,0.000000,0.060000,0.060000,0.070000,0.070000,0.000000,0.000000,0.000000,0.000000,0.000000,0.000000,0.000000,0.000000,0.000000,0.000000,0.000000,0.000000,0.000000,0.000000,0.000000,0.000000,0.000000,0.000000,7.240327,7.240327,0.000000,0.000000,54.178650,54.178650,0.000000,0.000000,0.000000,0.000000,0.000000,0.000000,-7.240327,-7.240327,0.000000,0.000000,0.000000,0.000000,0.000000,0.000000,0.000000,0.000000,0.000000,0.000000,0.000000,0.000000,0.030000,0.040000,0.000000,0.000000,0.207840,0.003628,1.000000,0.000000,0.126000,0.000000,0.000000,0.000000,0.000000,0.000000,-0.004159,0.000000,NaN,NaN,NaN,NaN,NaN,NaN,NaN,NaN,0.000732,0.000732,NaN,NaN,10.100000,0.081954,195.560800,0.000000,1382.800000,0.000000,3.536000,3.536000,0.000000,0.000000,0.000000,0.966000,0.000000,23.659000,0.000000,18.040000,0.000717,0.000717,0.000717,0.000717,0.277983,0.277982
0.290000,0.001,0,-0.003469,180.000000,0.000000,1.963949,0.000000,0.000000,-0.111296,-9.871640,0.000000,0.000000,0.000000,0.000000,0.060000,0.060000,0.070000,0.070000,0.000000,0.000000,0.000000,0.000000,0.000000,0.000000,0.000000,0.000000,0.000000,0.000000,0.000000,0.000000,0.000000,0.000000,0.000000,0.000000,0.000000,0.000000,7.383031,7.383031,0.000000,0.000000,53.079900,53.079900,0.000000,0.000000,0.000000,0.000000,0.000000,0.000000,-7.383031,-7.383031,0.000000,0.000000,0.000000,0.000000,0.000000,0.000000,0.000000,0.000000,0.000000,0.000000,0.000000,0.000000,0.030000,0.040000,0.000000,0.000000,0.205292,0.003583,1.000000,0.000000,0.126000,0.000000,0.000000,0.000000,0.000000,0.000000,-0.004159,0.000000,NaN,NaN,NaN,NaN,NaN,NaN,NaN,NaN,0.000732,0.000732,NaN,NaN,10.100000,0.081954,195.560800,0.000000,1382.800000,0.000000,3.536000,3.536000,0.000000,0.000000,0.000000,0.966000,0.000000,23.659000,0.000000,18.040000,0.000717,0.000717,0.000717,0.000717,0.277983,0.277982
0.300000,0.001,0,-0.001206,180.000000,0.000000,2.933996,0.000000,0.000000,4.794896,-2.672049,0.000000,0.000000,10139.000000,10139.000000,0.060000,0.060000,0.061565,0.061565,0.000000,0.000000,0.008435,0.008435,0.000000,0.000000,2.898261,2.898261,0.000000,0.000000,1433.882000,1433.882000,0.000000,0.000000,8694.781000,8694.781000,0.000000,0.000000,6.103519,6.103519,0.000000,0.000000,516.400900,516.400900,0.000000,0.000000,0.000000,0.000000,0.000000,0.000000,-6.119827,-6.119827,0.000000,0.000000,0.000000,0.000000,0.000000,0.000000,7519.582000,7519.582000,0.000000,0.000000,0.000000,0.000000,0.030000,0.031565,0.000000,0.000000,0.010635,0.000186,1.000000,0.000000,0.126000,0.000000,0.000000,0.000000,0.000000,0.000000,-0.023427,0.000000,NaN,NaN,9.127104,9.127104,NaN,NaN,0.000000,0.000000,0.000992,0.000992,NaN,NaN,10.100000,0.024605,195.561000,0.000000,1165.686000,0.000000,3.536000,3.536000,0.000000,0.000000,0.000000,0.966000,0.000000,25.084000,0.000000,251.480000,0.000946,0.000946,0.000946,0.000946,0.297977,0.297976
0.310000,0.001,0,-0.001206,180.000000,0.000000,2.933996,0.000000,0.000000,12.596680,27.636300,13283.580000,13283.580000,14536.570000,14536.570000,0.031311,0.031311,0.033313,0.033313,0.028689,0.028689,0.036687,0.036687,2.804354,2.804354,2.764299,2.764299,4877.188000,4877.188000,6236.731000,6236.731000,8413.059000,8413.059000,8292.896000,8292.896000,0.102141,0.102141,0.478039,0.478039,0.000000,0.000000,881.254600,881.254600,0.000000,0.000000,0.000000,0.000000,0.000000,0.000000,-0.375896,-0.375896,-0.000588,0.000588,0.000000,0.000000,-196.511100,-196.511100,10559.310000,10559.310000,199.114300,-199.114300,0.000000,0.000000,0.001311,0.003313,0.000000,0.000000,0.000000,0.000000,1.000000,0.000000,0.126000,0.000000,0.000000,0.000000,0.000000,0.000000,-0.023427,0.000000,NaN,NaN,9.127104,9.127104,NaN,NaN,0.000000,0.000000,0.000992,0.000992,NaN,NaN,10.100000,0.024605,195.561000,0.000000,1165.686000,0.000000,3.536000,3.536000,0.000000,0.000000,0.000000,0.966000,0.000000,25.084000,0.000000,251.480000,0.000946,0.000946,0.000946,0.000946,0.297977,0.297976
0.320000,0.003,0,-0.001206,180.000000,0.000000,2.933996,0.000000,0.000000,0.718291,41.822570,20276.910000,20276.910000,18022.980000,18022.980000,0.005257,0.005257,0.007382,0.007382,0.054743,0.054743,0.062618,0.062618,2.455249,2.455249,2.459541,2.459541,9306.259000,9306.259000,10645.100000,10645.100000,7365.745000,7365.745000,7378.620000,7378.620000,0.147448,0.147448,0.147450,0.147450,0.000000,0.000000,292.665200,292.665200,0.000000,0.000000,0.000000,0.000000,0.000000,0.000000,0.000000,0.000000,-0.000849,0.000849,0.000000,0.000000,-35.443290,-35.443290,940.106700,940.106700,438.758500,-438.758500,0.000000,0.000000,-0.024743,-0.022618,0.000000,0.000000,0.000000,0.000000,1.000000,0.000000,0.126000,0.000000,0.000000,0.000000,0.000000,0.000000,0.001673,0.000000,0.000000,0.000000,0.016089,0.016089,-0.629966,0.629966,0.000000,0.000000,0.002625,0.002625,NaN,NaN,10.100000,-0.029490,195.559200,0.000000,28.732000,0.000000,0.318000,0.318000,0.000000,0.000000,0.000000,0.886000,0.000000,99.780000,0.000000,95.882000,0.002350,0.002350,0.002350,0.002350,0.317943,0.317940
0.330000,0.005,0,-0.001206,180.000000,0.000000,2.933996,0.000000,-0.012701,0.733375,26.834620,15533.200000,15533.810000,11621.030000,11621.660000,0.000535,0.000535,0.000221,0.000221,0.059465,0.059465,0.069779,0.069779,-0.169277,-0.169069,-0.075027,-0.074819,10108.970000,10109.050000,11862.420000,11862.480000,-507.831500,-507.205700,-225.082000,-224.456200,0.175346,0.175357,0.175350,0.175359,0.000000,0.000000,291.727100,291.699500,0.000000,0.000000,0.000000,0.000000,0.000000,0.000000,0.000000,0.000000,-0.001113,0.000906,-0.000086,-0.000086,-62.390920,-62.464430,910.027600,909.870400,440.587700,-358.867400,25.526530,25.527900,-0.029465,-0.029779,0.000000,0.000000,0.000000,0.000000,1.000000,0.000000,0.126000,0.000000,0.000000,0.000000,0.000000,0.000000,0.001673,0.000000,0.000000,0.000000,0.016089,0.016089,-0.629966,0.629966,0.000000,0.000000,0.002625,0.002625,NaN,NaN,10.100000,-0.029490,195.559200,0.000000,28.732000,0.000000,0.318000,0.318000,0.000000,0.000000,0.000000,0.886000,0.000000,99.780000,0.000000,95.882000,0.002350,0.002350,0.002350,0.002350,0.317943,0.317940
0.340000,0.007,0,-0.001206,180.000000,0.000000,2.933996,0.000000,29.537140,0.952795,22.277610,13068.530000,12947.380000,10948.600000,10601.460000,0.004451,0.004081,0.002185,0.001815,0.055549,0.055919,0.067815,0.068185,-0.420079,-0.574216,-0.170112,-0.324264,9433.029000,9516.577000,11528.470000,11591.380000,-1260.235000,-1722.648000,-510.334700,-972.792000,0.213327,0.219137,0.212947,0.219524,0.000000,0.000000,364.987100,223.101500,0.000000,0.000000,0.000000,0.000000,0.000000,0.000000,0.000000,0.000000,0.065376,0.067866,0.078582,0.078582,-86.866960,1.457964,1139.703000,735.172500,-11653.790000,-11550.950000,-9866.203000,-9576.041000,-0.025734,-0.028000,-0.019782,-0.019782,0.000000,0.000000,1.000000,0.000000,0.126000,0.000000,0.000000,141.885600,-0.005810,-0.006577,0.098022,-0.110081,0.000000,0.000000,0.026988,0.017223,21.341120,21.268430,20.069160,19.860870,0.006754,0.006754,NaN,NaN,10.100240,-0.024896,195.555100,0.000000,42.234000,0.000000,0.482000,0.482000,0.000000,0.000000,0.000000,0.888000,0.000000,100.034000,0.000000,96.807000,0.006155,0.006155,0.006155,0.006155,0.337850,0.337842
0.350000,0.009,0,-0.001206,180.000000,0.000000,2.933996,0.000000,-24.615620,1.042664,16.231070,9119.557000,10283.720000,9193.532000,10090.970000,0.011380,0.009954,0.006237,0.004811,0.048620,0.050046,0.063763,0.065189,-0.842899,-0.596598,-0.545487,-0.299260,8230.652000,8543.528000,10839.660000,11082.150000,-2528.691000,-1789.789000,-1636.456000,-897.777800,0.233149,0.239713,0.233947,0.238922,0.000000,0.000000,476.143700,117.086300,0.000000,0.000000,0.000000,0.000000,0.000000,0.000000,0.000000,0.000000,-0.139436,-0.136714,-0.129032,-0.129032,-8.233074,-19.013200,1571.202000,378.984900,8345.337000,9311.080000,8406.479000,9150.646000,-0.019333,-0.024476,-0.059347,-0.059347,0.000000,0.000000,1.000000,0.000000,0.126000,0.000000,0.000000,141.885600,-0.005810,-0.006577,0.098022,-0.110081,0.000000,0.000000,0.026988,0.017223,21.341120,21.268430,20.069160,19.860870,0.006754,0.006754,NaN,NaN,10.100240,-0.024896,195.555100,0.000000,42.234000,0.000000,0.482000,0.482000,0.000000,0.000000,0.000000,0.888000,0.000000,100.034000,0.000000,96.807000,0.006155,0.006155,0.006155,0.006155,0.337850,0.337842
0.360000,0.012,0,-0.001206,180.000000,0.000000,2.933996,0.000000,19.396850,1.172277,9.906547,6424.671000,6362.843000,8437.573000,8069.154000,0.019077,0.018113,0.011255,0.010290,0.040923,0.041887,0.058745,0.059710,-0.726446,-0.926644,-0.491425,-0.691593,6937.063000,7141.029000,9986.571000,10150.600000,-2179.329000,-2779.917000,-1474.269000,-2074.768000,0.235549,0.234241,0.235079,0.234719,0.000000,0.000000,467.823400,129.132000,0.000000,0.000000,0.000000,0.000000,0.000000,0.000000,0.000000,0.000000,0.080962,0.083666,0.081661,0.081661,23.836800,-0.493410,1559.411000,423.654000,-6129.809000,-6078.970000,-7782.892000,-7479.872000,-0.011405,-0.019227,-0.034264,-0.034264,0.000000,0.000000,1.000000,0.000000,0.126000,0.000000,0.000000,338.691300,0.001308,0.000360,0.092196,-0.142987,0.000000,0.000000,0.042189,0.011450,17.354800,17.317710,18.562550,18.341490,0.011970,0.011970,NaN,NaN,10.100860,-0.009943,195.550400,0.000000,44.619000,0.000000,0.531000,0.531000,0.000000,0.000000,0.000000,0.889000,0.000000,100.109000,0.000000,99.864000,0.011461,0.011461,0.011461,0.011461,0.357721,0.357706
0.370000,0.014,0,-0.001206,180.000000,0.000000,2.933996,0.000000,-14.470550,1.243655,4.003995,3398.187000,3868.069000,6499.334000,6861.281000,0.027383,0.026542,0.018010,0.017169,0.032617,0.033458,0.051990,0.052831,-0.873163,-0.790820,-0.778839,-0.696525,5531.064000,5701.834000,8838.215000,8981.198000,-2619.472000,-2372.442000,-2336.501000,-2089.560000,0.225832,0.208295,0.226095,0.208038,0.000000,0.000000,346.147600,252.677700,0.000000,0.000000,0.000000,0.000000,0.000000,0.000000,0.000000,0.000000,-0.046464,-0.043964,-0.078054,-0.078053,-13.364220,68.973880,1136.116000,842.259000,3573.201000,3986.252000,6191.174000,6488.396000,-0.003037,-0.012410,-0.034264,-0.034264,0.000000,0.000000,1.000000,0.000000,0.126000,0.000000,0.000000,338.691300,0.001308,0.000360,0.092196,-0.142987,0.000000,0.000000,0.042189,0.011450,17.354800,17.317710,18.562550,18.341490,0.011970,0.011970,NaN,NaN,10.100860,-0.009943,195.550400,0.000000,44.619000,0.000000,0.531000,0.531000,0.000000,0.000000,0.000000,0.889000,0.000000,100.109000,0.000000,99.864000,0.011461,0.011461,0.011461,0.011461,0.357721,0.357706
0.380000,0.017,0,-0.001206,180.000000,0.000000,2.933996,0.000000,9.798601,1.272358,-0.532927,2067.840000,1805.282000,5160.536000,4885.807000,0.035067,0.034825,0.025765,0.025523,0.024933,0.025175,0.044235,0.044477,-0.710830,-0.829503,-0.783980,-0.902712,4235.583000,4282.761000,7519.950000,7561.059000,-2132.476000,-2488.492000,-2351.924000,-2708.119000,0.192158,0.194154,0.191941,0.194378,0.000000,0.000000,209.879600,387.998200,0.000000,0.000000,0.000000,0.000000,0.000000,0.000000,0.000000,0.000000,0.037150,0.039374,0.042694,0.042694,83.553730,-27.772950,699.598500,1262.810000,-1958.316000,-1812.012000,-5084.202000,-4854.228000,0.004946,-0.004356,0.000000,0.000000,0.000000,0.000000,1.000000,0.000000,0.126000,0.000000,0.000000,-178.118700,-0.001996,-0.002437,-0.028677,-0.084826,0.000000,0.000000,0.028435,0.047105,12.375800,12.764560,16.596320,16.431480,0.016511,0.016511,NaN,NaN,10.100730,0.006556,195.546100,0.000000,36.280000,0.000000,0.437000,0.437000,0.000000,0.000000,0.000000,0.888000,0.000000,99.966000,0.000000,100.437000,0.016122,0.016122,0.016122,0.016122,0.377607,0.377587
0.390000,0.018,0,-0.001206,180.000000,0.000000,2.933996,0.000000,-5.474224,1.259213,-4.062089,927.422600,972.955800,3383.994000,3429.163000,0.042166,0.042116,0.034443,0.034393,0.017834,0.017884,0.035557,0.035607,-0.690565,-0.676766,-0.899777,-0.885963,3031.360000,3040.681000,6044.669000,6053.109000,-2071.684000,-2030.289000,-2699.318000,-2657.878000,0.178441,0.172231,0.178560,0.172119,0.000000,0.000000,190.413600,405.583100,0.000000,0.000000,0.000000,0.000000,0.000000,0.000000,0.000000,0.000000,-0.021036,-0.019017,-0.031740,-0.031740,-28.363900,64.890400,604.884300,1351.944000,497.324100,471.668200,2738.016000,2774.559000,0.012141,0.004418,0.000000,0.000000,0.000000,0.000000,1.000000,0.000000,0.126000,0.000000,0.000000,-178.118700,-0.001996,-0.002437,-0.028677,-0.084826,0.000000,0.000000,0.028435,0.047105,12.375800,12.764560,16.596320,16.431480,0.016511,0.016511,NaN,NaN,10.100730,0.006556,195.546100,0.000000,36.280000,0.000000,0.437000,0.437000,0.000000,0.000000,0.000000,0.888000,0.000000,99.966000,0.000000,100.437000,0.016122,0.016122,0.016122,0.016122,0.377607,0.377587
0.400000,0.020,0,0.236309,-3.488856,-0.014177,0.756272,-0.003064,0.169643,1.289441,-7.133692,228.992800,113.111100,1976.440000,1863.112000,0.048248,0.048527,0.043217,0.043496,0.011752,0.011473,0.026783,0.026504,-0.571787,-0.596538,-0.875026,-0.899792,1999.421000,1948.734000,4553.167000,4505.715000,-1715.359000,-1789.611000,-2625.073000,-2699.370000,0.164213,0.168595,0.164262,0.168552,0.000000,0.000000,228.792100,365.131300,0.000000,0.000000,0.000000,0.000000,0.000000,0.000000,0.000000,0.000000,-0.008910,-0.006994,-0.000151,-0.000151,9.087592,3.602998,762.640300,1217.104000,52.013540,20.167570,7.600883,7.164877,0.018388,0.013356,0.000000,0.000000,0.000000,0.000000,1.000000,0.000000,0.126000,0.000000,0.000000,-136.339200,-0.004382,-0.004290,-0.118914,-0.017690,0.000000,0.000000,0.058004,0.093702,-2.395798,-1.851735,-0.049788,-0.049204,0.020109,0.020109,NaN,NaN,10.100840,0.019825,195.542600,0.000000,31.637000,0.000000,0.374000,0.374000,0.000000,0.000000,0.000000,0.887000,0.000000,99.868000,0.000000,99.151000,0.019773,0.019773,0.019773,0.019773,0.397518,0.397493
0.410000,0.022,0,0.236309,-3.488856,-0.014177,0.756272,-0.003064,0.027808,1.141355,-9.236563,0.000000,0.000000,705.519300,584.131600,0.053373,0.053839,0.051692,0.052158,0.006627,0.006161,0.018308,0.017842,-0.473201,-0.489026,-0.821501,-0.837341,1128.183000,1045.954000,3112.322000,3033.074000,-1067.291000,-990.792500,-2464.502000,-2512.022000,0.164796,0.171180,0.222108,0.222108,0.000000,0.000000,294.473400,259.689700,0.000000,0.000000,0.000000,0.000000,0.000000,0.000000,-0.057235,-0.050999,-0.013823,-0.011889,-0.001516,-0.001516,-7.440712,-7.189552,719.081700,601.403000,0.000000,0.000000,27.260490,22.569310,0.023606,0.021925,0.019782,0.019782,0.000000,0.000000,1.000000,0.000000,0.126000,0.000000,0.000000,-136.339200,-0.004382,-0.004290,-0.118914,-0.017690,0.000000,0.000000,0.058004,0.093702,-2.395798,-1.851735,-0.049788,-0.049204,0.020109,0.020109,NaN,NaN,10.100840,0.019825,195.542600,0.000000,31.637000,0.000000,0.374000,0.374000,0.000000,0.000000,0.000000,0.887000,0.000000,99.868000,0.000000,99.151000,0.019773,0.019773,0.019773,0.019773,0.397518,0.397493
0.420000,0.024,0,0.236309,-3.488856,-0.014177,0.756272,-0.003064,-0.002969,0.013333,-10.318270,0.000000,0.000000,0.000000,0.000000,0.057534,0.058121,0.059364,0.059950,0.002466,0.001879,0.010636,0.010050,-0.377715,-0.388145,-0.726983,-0.737414,419.874800,318.955500,1808.161000,1708.516000,-359.794500,-262.660500,-1866.956000,-1770.857000,0.167385,0.173522,0.766101,0.766101,0.000000,0.000000,240.759600,240.760600,0.000000,0.000000,0.000000,0.000000,0.000000,0.000000,-0.598629,-0.592661,-0.015599,-0.013637,-0.003766,-0.003766,-1.160792,-1.190777,10.813800,10.817190,0.000000,0.000000,0.000000,0.000000,0.027827,0.029657,0.019782,0.019782,0.000000,0.000000,1.000000,0.000000,0.126000,0.000000,0.000000,-0.000992,-0.006136,0.000000,-0.136976,-0.007455,0.000001,0.000000,0.126056,0.126056,0.000000,0.000000,0.000000,0.000000,0.023536,0.023536,NaN,NaN,10.101100,0.028894,195.539200,0.000000,146.314000,0.000000,1.581000,1.581000,0.000000,0.000000,0.000000,0.902000,0.000000,101.618000,0.000000,80.347000,0.023184,0.023184,0.023184,0.023184,0.417435,0.417406
0.430000,0.025,0,0.236309,-3.488856,-0.014177,0.756272,-0.003064,-0.004452,0.029288,-10.095880,0.000000,0.000000,0.000000,0.000000,0.060000,0.060000,0.065987,0.066684,0.000000,0.000000,0.004013,0.003316,0.000000,0.000000,-0.618979,-0.630677,0.000000,0.000000,682.255600,563.727600,0.000000,0.000000,-739.115100,-624.553800,0.168090,0.173916,1.406460,1.406460,0.000000,0.000000,245.019000,245.019000,0.000000,0.000000,0.000000,0.000000,-0.168090,-0.173916,-1.237381,-1.231391,0.000000,0.000000,-0.003160,-0.003160,0.000000,0.000000,10.790040,10.790040,0.000000,0.000000,0.000000,0.000000,0.030000,0.036335,0.000000,0.019782,0.023926,0.000418,1.000000,0.000000,0.126000,0.000000,0.000000,-0.000992,-0.006136,0.000000,-0.136976,-0.007455,0.000001,0.000000,0.126056,0.126056,0.000000,0.000000,0.000000,0.000000,0.023536,0.023536,NaN,NaN,10.101100,0.028894,195.539200,0.000000,146.314000,0.000000,1.581000,1.581000,0.000000,0.000000,0.000000,0.902000,0.000000,101.618000,0.000000,80.347000,0.023184,0.023184,0.023184,0.023184,0.417435,0.417406
0.440000,0.027,0,0.236309,-3.488856,-0.014177,0.756272,-0.003064,-0.005746,0.030458,-9.811382,0.000000,0.000000,0.000000,0.000000,0.060000,0.060000,0.070000,0.070000,0.000000,0.000000,0.000000,0.000000,0.000000,0.000000,0.000000,0.000000,0.000000,0.000000,0.000000,0.000000,0.000000,0.000000,0.000000,0.000000,0.168090,0.173916,2.006349,2.006349,0.000000,0.000000,201.654300,201.654300,0.000000,0.000000,0.000000,0.000000,-0.168090,-0.173916,-2.006349,-2.006349,0.000000,0.000000,0.000000,0.000000,0.000000,0.000000,0.000000,0.000000,0.000000,0.000000,0.000000,0.000000,0.030000,0.040000,0.000000,0.000000,0.031242,0.000545,1.000000,0.000000,0.126000,0.000000,0.000000,0.000000,-0.005826,0.000000,-0.130157,-0.009579,NaN,NaN,NaN,NaN,NaN,NaN,NaN,NaN,0.027073,0.027073,NaN,NaN,10.101390,0.034005,195.535600,0.000000,383.184000,0.000000,3.536000,3.536000,0.000000,0.000000,0.000000,0.930000,0.000000,84.263000,0.000000,66.292000,0.026721,0.026721,0.026721,0.026721,0.437348,0.437315
0.450000,0.029,0,0.236309,-3.488856,-0.014177,0.756272,-0.003064,-0.006684,0.044077,-9.810867,0.000000,0.000000,0.000000,0.000000,0.060000,0.060000,0.070000,0.070000,0.000000,0.000000,0.000000,0.000000,0.000000,0.000000,0.000000,0.000000,0.000000,0.000000,0.000000,0.000000,0.000000,0.000000,0.000000,0.000000,0.168090,0.173916,2.475170,2.475170,0.000000,0.000000,162.071900,162.071900,0.000000,0.000000,0.000000,0.000000,-0.168090,-0.173916,-2.475170,-2.475170,0.000000,0.000000,0.000000,0.000000,0.000000,0.000000,0.000000,0.000000,0.000000,0.000000,0.000000,0.000000,0.030000,0.040000,0.000000,0.000000,-0.043335,-0.000756,1.000000,0.000000,0.126000,0.000000,0.000000,0.000000,-0.005826,0.000000,-0.130157,-0.009579,NaN,NaN,NaN,NaN,NaN,NaN,NaN,NaN,0.027073,0.027073,NaN,NaN,10.101390,0.034005,195.535600,0.000000,383.184000,0.000000,3.536000,3.536000,0.000000,0.000000,0.000000,0.930000,0.000000,84.263000,0.000000,66.292000,0.026721,0.026721,0.026721,0.026721,0.437348,0.437315
0.460000,0.031,0,0.236309,-3.488856,-0.014177,0.756272,-0.003064,-0.007621,0.057412,-9.810493,0.000000,0.000000,0.000000,0.000000,0.060000,0.060000,0.070000,0.070000,0.000000,0.000000,0.000000,0.000000,0.000000,0.000000,0.000000,0.000000,0.000000,0.000000,0.000000,0.000000,0.000000,0.000000,0.000000,0.000000,0.168090,0.173916,2.868887,2.868887,0.000000,0.000000,139.399300,139.399300,0.000000,0.000000,0.000000,0.000000,-0.168090,-0.173916,-2.868887,-2.868887,0.000000,0.000000,0.000000,0.000000,0.000000,0.000000,0.000000,0.000000,0.000000,0.000000,0.000000,0.000000,0.030000,0.040000,0.000000,0.000000,-0.117920,-0.002058,1.000000,0.000000,0.126000,0.000000,0.000000,0.000000,-0.005826,0.000000,-0.130172,-0.009579,NaN,NaN,NaN,NaN,NaN,NaN,NaN,NaN,0.030654,0.030654,NaN,NaN,10.101660,0.035228,195.532100,0.000000,547.917000,0.000000,3.536000,3.536000,0.000000,0.000000,0.000000,0.944000,0.000000,58.982000,0.000000,46.164000,0.030287,0.030287,0.030287,0.030287,0.457261,0.457223
0.470000,0.032,0,0.236309,-3.488856,-0.014177,0.756272,-0.003064,-0.008558,0.070480,-9.810250,0.000000,0.000000,0.000000,0.000000,0.060000,0.060000,0.070000,0.070000,0.000000,0.000000,0.000000,0.000000,0.000000,0.000000,0.000000,0.000000,0.000000,0.000000,0.000000,0.000000,0.000000,0.000000,0.000000,0.000000,0.168090,0.173916,3.215179,3.215179,0.000000,0.000000,124.201800,124.201800,0.000000,0.000000,0.000000,0.000000,-0.168090,-0.173916,-3.215179,-3.215179,0.000000,0.000000,0.000000,0.000000,0.000000,0.000000,0.000000,0.000000,0.000000,0.000000,0.000000,0.000000,0.030000,0.040000,0.000000,0.000000,-0.192505,-0.003360,1.000000,0.000000,0.126000,0.000000,0.000000,0.000000,-0.005826,0.000000,-0.130172,-0.009579,NaN,NaN,NaN,NaN,NaN,NaN,NaN,NaN,0.030654,0.030654,NaN,NaN,10.101660,0.035228,195.532100,0.000000,547.917000,0.000000,3.536000,3.536000,0.000000,0.000000,0.000000,0.944000,0.000000,58.982000,0.000000,46.164000,0.030287,0.030287,0.030287,0.030287,0.457261,0.457223
0.480000,0.034,0,0.236309,-3.488856,-0.014177,0.756272,-0.003064,-0.009493,0.083266,-9.810136,0.000000,0.000000,0.000000,0.000000,0.060000,0.060000,0.070000,0.070000,0.000000,0.000000,0.000000,0.000000,0.000000,0.000000,0.000000,0.000000,0.000000,0.000000,0.000000,0.000000,0.000000,0.000000,0.000000,0.000000,0.168090,0.173916,3.527938,3.527938,0.000000,0.000000,113.087500,113.087500,0.000000,0.000000,0.000000,0.000000,-0.168090,-0.173916,-3.527938,-3.527938,0.000000,0.000000,0.000000,0.000000,0.000000,0.000000,0.000000,0.000000,0.000000,0.000000,0.000000,0.000000,0.030000,0.040000,0.000000,0.000000,-0.267090,-0.004662,1.000000,0.000000,0.126000,0.000000,0.000000,0.000000,-0.005826,0.000000,-0.130180,-0.009579,NaN,NaN,NaN,NaN,NaN,NaN,NaN,NaN,0.034220,0.034220,NaN,NaN,10.101940,0.032531,195.528500,0.000000,673.786000,0.000000,3.536000,3.536000,0.000000,0.000000,0.000000,0.952000,0.000000,48.143000,0.000000,37.534000,0.033853,0.033853,0.033853,0.033853,0.477174,0.477132
0.490000,0.036,0,0.236309,-3.488856,-0.014177,0.756272,-0.003064,-0.010370,0.095361,-9.767582,1134.007000,0.000000,0.000000,0.000000,0.059287,0.060000,0.070000,0.070000,0.000713,0.000000,0.000000,0.000000,0.356732,0.000000,0.000000,0.000000,121.537400,0.000000,0.000000,0.000000,1070.143000,0.000000,0.000000,0.000000,0.169761,0.173916,3.815324,3.815324,0.000000,0.000000,104.493900,104.493900,0.000000,0.000000,0.000000,0.000000,0.000000,-0.173916,-3.815324,-3.815324,-0.014577,0.000000,0.000000,0.000000,-10.445000,0.000000,0.000000,0.000000,421.402100,0.000000,0.000000,0.000000,0.029643,0.040000,0.034264,0.000000,-0.333656,-0.005823,1.000000,0.000000,0.126000,0.000000,0.000000,0.000000,-0.005826,0.000000,-0.130180,-0.009579,NaN,NaN,NaN,NaN,NaN,NaN,NaN,NaN,0.034220,0.034220,NaN,NaN,10.101940,0.032531,195.528500,0.000000,673.786000,0.000000,3.536000,3.536000,0.000000,0.000000,0.000000,0.952000,0.000000,48.143000,0.000000,37.534000,0.033853,0.033853,0.033853,0.033853,0.477174,0.477132
0.500000,0.038,0,0.253605,-2.059091,-0.009274,0.349107,0.002353,0.322622,0.048893,-7.692319,1745.876000,1476.792000,0.000000,0.000000,0.055882,0.057350,0.070000,0.070000,0.004118,0.002650,0.000000,0.000000,0.363171,0.357598,0.000000,0.000000,703.126000,448.468700,0.000000,0.000000,1089.446000,1072.728000,0.000000,0.000000,0.188169,0.184918,4.082625,4.082625,0.000000,0.000000,97.586550,97.586550,0.000000,0.000000,0.000000,0.000000,0.000000,0.000000,-4.082625,-4.082625,-0.004819,-0.002673,0.000000,0.000000,-28.908760,-20.610370,0.000000,0.000000,214.483600,100.647300,0.000000,0.000000,0.026616,0.040000,0.059347,0.000000,-0.333626,-0.005823,1.000000,0.000000,0.126000,0.000000,0.000000,0.000000,0.003252,0.000000,-0.107235,-0.003965,0.000000,0.000000,NaN,NaN,-1.552507,-0.836443,NaN,NaN,0.037817,0.037817,NaN,NaN,10.102200,0.026130,195.524900,0.000000,779.723000,0.000000,3.536000,3.536000,0.000000,0.000000,0.000000,0.957000,0.000000,41.725000,0.000000,32.424000,0.037436,0.037436,0.037436,0.037436,0.497087,0.497040
0.510000,0.040,0,0.253605,-2.059091,-0.009274,0.349107,0.002353,0.128025,0.021027,-6.714948,2460.291000,2194.938000,0.000000,0.000000,0.052118,0.053616,0.070000,0.070000,0.007882,0.006384,0.000000,0.000000,0.380754,0.380650,0.000000,0.000000,1345.803000,1080.469000,0.000000,0.000000,1142.182000,1141.869000,0.000000,0.000000,0.214912,0.208437,4.333498,4.333498,0.000000,0.000000,91.873950,91.873950,0.000000,0.000000,0.000000,0.000000,0.000000,0.000000,-4.333498,-4.333498,-0.002837,-0.000403,0.000000,0.000000,-37.446850,-33.970670,0.000000,0.000000,177.952400,22.523840,0.000000,0.000000,0.022867,0.040000,0.062557,0.000000,-0.296944,-0.005183,1.000000,0.000000,0.126000,0.000000,0.000000,0.000000,0.003252,0.000000,-0.107235,-0.003965,0.000000,0.000000,NaN,NaN,-1.552507,-0.836443,NaN,NaN,0.037817,0.037817,NaN,NaN,10.102200,0.026130,195.524900,0.000000,779.723000,0.000000,3.536000,3.536000,0.000000,0.000000,0.000000,0.957000,0.000000,41.725000,0.000000,32.424000,0.037436,0.037436,0.037436,0.037436,0.497087,0.497040
0.520000,0.042,0,0.253605,-2.059091,-0.009274,0.349107,0.002353,0.114694,-0.009898,-5.832650,3096.132000,2850.876000,0.000000,0.000000,0.048353,0.049810,0.070000,0.070000,0.011647,0.010190,0.000000,0.000000,0.370041,0.376984,0.000000,0.000000,1988.245000,1724.683000,0.000000,0.000000,1110.038000,1130.868000,0.000000,0.000000,0.249465,0.240388,4.570606,4.570606,0.000000,0.000000,87.044690,87.044690,0.000000,0.000000,0.000000,0.000000,0.000000,0.000000,-4.570606,-4.570606,-0.002522,0.000296,0.000000,0.000000,-46.808530,-43.702050,0.000000,0.000000,199.033200,-21.479460,0.000000,0.000000,0.019082,0.040000,0.059347,0.000000,-0.230148,-0.004017,1.000000,0.000000,0.126000,0.000000,0.000000,0.000000,0.009077,0.000000,-0.008042,0.004966,0.000000,0.000000,NaN,NaN,-0.925715,0.106151,NaN,NaN,0.042075,0.042075,NaN,NaN,10.102230,0.018330,195.520500,0.000000,872.921000,0.000000,3.536000,3.536000,0.000000,0.000000,0.000000,0.960000,0.000000,37.349000,0.000000,28.940000,0.041602,0.041602,0.041602,0.041602,0.516985,0.516933
0.530000,0.045,0,0.253605,-2.059091,-0.009274,0.349107,0.002353,0.098591,-0.041343,-5.091245,3623.005000,3409.856000,0.000000,0.000000,0.044841,0.046188,0.070000,0.070000,0.015159,0.013812,0.000000,0.000000,0.335768,0.349298,0.000000,0.000000,2587.066000,2338.603000,0.000000,0.000000,1007.232000,1047.820000,0.000000,0.000000,0.290590,0.279244,4.795952,4.795952,0.000000,0.000000,82.890960,82.890960,0.000000,0.000000,0.000000,0.000000,0.000000,0.000000,-4.795952,-4.795952,-0.002419,0.000861,0.000000,0.000000,-54.211740,-51.553780,0.000000,0.000000,223.434800,-74.839360,0.000000,0.000000,0.015514,0.040000,0.052339,0.000000,-0.131287,-0.002291,1.000000,0.000000,0.126000,0.000000,0.000000,0.000000,0.009077,0.000000,-0.008042,0.004966,0.000000,0.000000,NaN,NaN,-0.925715,0.106151,NaN,NaN,0.042075,0.042075,NaN,NaN,10.102230,0.018330,195.520500,0.000000,872.921000,0.000000,3.536000,3.536000,0.000000,0.000000,0.000000,0.960000,0.000000,37.349000,0.000000,28.940000,0.041602,0.041602,0.041602,0.041602,0.516985,0.516933
0.540000,0.048,0,0.253605,-2.059091,-0.009274,0.349107,0.002353,0.077812,-0.071368,-4.489897,4019.157000,3850.360000,1009.866000,0.000000,0.041786,0.042962,0.069360,0.070000,0.018214,0.017038,0.000640,0.000000,0.282943,0.302821,0.319947,0.000000,3106.823000,2886.299000,108.775400,0.000000,848.779800,908.410800,959.783100,0.000000,0.336490,0.323284,4.947284,4.947284,0.000000,0.000000,260.176900,-40.381510,0.000000,0.000000,0.000000,0.000000,0.000000,0.000000,-4.610784,-4.947284,-0.002750,0.001048,-0.024890,0.000000,-58.915450,-56.803660,1001.862000,0.000000,281.785300,-102.838400,5.417747,0.000000,0.012374,0.039680,0.048457,0.034264,-0.005997,-0.000105,1.000000,0.000000,0.126000,0.000000,0.000000,300.558400,0.013206,0.000000,0.140396,0.014218,0.000000,0.000000,6.066127,NaN,-1.089017,0.409458,-4.230255,NaN,0.047736,0.047736,NaN,NaN,10.102250,0.011419,195.514700,0.000000,944.861000,0.000000,3.536000,3.536000,0.000000,0.000000,0.000000,0.962000,0.000000,34.115000,0.000000,46.786000,0.047110,0.047110,0.047110,0.047110,0.536851,0.536792
0.550000,0.051,0,0.253605,-2.059091,-0.009274,0.349107,0.002353,0.021542,3.420149,0.390200,4296.696000,4244.628000,3377.691000,3343.383000,0.039315,0.040115,0.062410,0.063210,0.020685,0.019885,0.007590,0.006790,0.227377,0.265777,0.722244,0.760496,3524.605000,3372.409000,1290.303000,1154.306000,682.102300,797.298500,2166.644000,2281.393000,0.394473,0.374649,3.656594,3.656594,0.000000,0.000000,282.031400,274.523000,0.000000,0.000000,0.000000,0.000000,0.000000,0.000000,-3.262114,-3.281942,-0.002527,0.001901,-0.036376,-0.036376,-71.913700,-72.978180,2908.479000,2883.451000,276.814800,-205.658600,30.273800,29.847640,0.009715,0.032810,0.034264,0.034264,0.000000,0.000000,1.000000,0.000000,0.126000,0.000000,0.000000,300.558400,0.013206,0.000000,0.140396,0.014218,0.000000,0.000000,6.066127,NaN,-1.089017,0.409458,-4.230255,NaN,0.047736,0.047736,NaN,NaN,10.102250,0.011419,195.514700,0.000000,944.861000,0.000000,3.536000,3.536000,0.000000,0.000000,0.000000,0.962000,0.000000,34.115000,0.000000,46.786000,0.047110,0.047110,0.047110,0.047110,0.536851,0.536792
0.560000,0.055,0,0.253605,-2.059091,-0.009274,0.349107,0.002353,0.074040,4.691854,2.548273,4488.606000,4493.311000,4723.567000,4739.878000,0.037348,0.037785,0.054965,0.055402,0.022652,0.022215,0.015035,0.014599,0.176653,0.210747,0.753969,0.788048,3855.749000,3771.641000,2555.972000,2481.685000,529.947100,632.226200,2261.853000,2364.087000,0.453519,0.435214,1.814131,1.814130,0.000000,0.000000,419.103300,422.484300,0.000000,0.000000,0.000000,0.000000,0.000000,0.000000,-1.360609,-1.378906,-0.001897,0.003219,-0.032619,-0.032619,-74.624270,-77.287860,3859.347000,3870.619000,217.104900,-368.701300,76.415310,75.801210,0.007566,0.025183,0.019782,0.019782,0.000000,0.000000,1.000000,0.000000,0.126000,0.000000,0.000000,-3.380920,0.018305,0.000001,0.226427,0.024312,0.000000,0.000000,1.974659,2.012059,-0.777974,1.320269,-4.113894,-4.286149,0.055319,0.055319,NaN,NaN,10.102250,0.006623,195.506900,0.000000,346.471000,0.000000,3.536000,3.536000,0.000000,0.000000,0.000000,0.932000,0.000000,81.557000,0.000000,146.686000,0.054450,0.054450,0.054450,0.054450,0.556672,0.556604
