TIME,DISTANCE,MARKERS,SPEED,SPEEDANGLE,SPEEDLAT,VELOCITY,YAWRATE,ACCELERATIONLAT,ACCELERATIONLONG,ACCELERATIONVERT,SUSPENSIONLOADFL,SUSPENSIONLOADFR,SUSPENSIONLOADRL,SUSPENSIONLOADRR,SUSPENSIONTRAVELFL,SUSPENSIONTRAVELFR,SUSPENSIONTRAVELRL,SUSPENSIONTRAVELRR,SUSPENSIONCONTACTDEPTHFL,SUSPENSIONCONTACTDEPTHFR,SUSPENSIONCONTACTDEPTHRL,SUSPENSIONCONTACTDEPTHRR,SUSPENSIONCONTACTSPEEDFL,SUSPENSIONCONTACTSPEEDFR,SUSPENSIONCONTACTSPEEDRL,SUSPENSIONCONTACTSPEEDRR,SUSPENSIONSPRINGFORCEFL,SUSPENSIONSPRINGFORCEFR,SUSPENSIONSPRINGFORCERL,SUSPENSIONSPRINGFORCERR,SUSPENSIONDAMPERFORCEFL,SUSPENSIONDAMPERFORCEFR,SUSPENSIONDAMPERFORCERL,SUSPENSIONDAMPERFORCERR,WHEELSPINFL,WHEELSPINFR,WHEELSPINRL,WHEELSPINRR,WHEELSHAFTTORQUEFL,WHEELSHAFTTORQUEFR,WHEELSHAFTTORQUERL,WHEELSHAFTTORQUERR,WHEELBRAKETORQUEFL,WHEELBRAKETORQUEFR,WHEELBRAKETORQUERL,WHEELBRAKETORQUERR,TIRESLIPLONGFL,TIRESLIPLONGFR,TIRESLIPLONGRL,TIRESLIPLONGRR,TIRESLIPLATFL,TIRESLIPLATFR,TIRESLIPLATRL,TIRESLIPLATRR,TIREFORCELONGFL,TIREFORCELONGFR,TIREFORCELONGRL,TIREFORCELONGRR,TIREFORCELATFL,TIREFORCELATFR,TIREFORCELATRL,TIREFORCELATRR,RIDEHEIGHTFRONT,RIDEHEIGHTREAR,ROLLANGLEFRONT,ROLLANGLEREAR,GROUNDSLOPE,GROUNDGRADE,GEAR,STEERINGANGLE,THROTTLE,BRAKEPRESSURE,TORQUEDIFFFRONT,TORQUEDIFFREAR,SPEEDDIFFFRONT,SPEEDDIFFREAR,PITCHRATE,ROLLRATE,SLIPRATIOFL,SLIPRATIOFR,SLIPRATIORL,SLIPRATIORR,SLIPANGLEFL,SLIPANGLEFR,SLIPANGLERL,SLIPANGLERR,LAPDISTANCE,TOTALDISTANCE,FORCEFEEDBACKFORCERATIO,FORCEFEEDBACKDAMPERRATIO,POSITIONX,POSITIONY,POSITIONZ,MOTORRPMFRONT,MOTORRPMREAR,POWERELECTRICALFRONT,POWERELECTRICALREAR,POWERELECTRICALTOTAL,POWERBALANCE,WHEELTORQUEBALANCE,EFFICIENCYFRONT,EFFICIENCYREAR,TORQUEMECHANICALFRONT,TORQUEMECHANICALREAR,TORQUEROTORFRONT,TORQUEROTORREAR,919SPEED,IDRSPEED,919TRAVELEDDISTANCE,IDRTRAVELEDDISTANCE,919TIMEDIFF,IDRTIMEDIFF
0.000000,0.000,0,0.000000,0.000000,0.000000,0.000000,0.000000,0.000000,0.000000,0.000000,0.000000,0.000000,0.000000,0.000000,0.060000,0.060000,0.070000,0.070000,0.000000,0.000000,0.000000,0.000000,0.000000,0.000000,0.000000,0.000000,0.000000,0.000000,0.000000,0.000000,0.000000,0.000000,0.000000,0.000000,0.000000,0.000000,0.000000,0.000000,0.000000,0.000000,0.000000,0.000000,0.000000,0.000000,0.000000,0.000000,0.000000,0.000000,0.000000,0.000000,0.000000,0.000000,0.000000,0.000000,0.000000,0.000000,0.000000,0.000000,0.000000,0.000000,0.000000,0.000000,0.030000,0.040000,0.000000,0.000000,0.224686,0.003922,0.000000,0.000000,0.000000,0.000000,0.000000,0.000000,0.000000,0.000000,0.000000,0.000000,NaN,NaN,NaN,NaN,NaN,NaN,NaN,NaN,0.000000,0.000000,NaN,NaN,10.100000,0.470000,195.560000,0.000000,0.000000,0.000000,0.000000,0.000000,0.500000,0.500000,0.000000,0.000000,0.000000,0.000000,0.000000,0.000000,0.000000,0.000000,0.000000,0.000000,0.000000,0.000000
0.010000,0.000,0,0.000000,0.000000,0.000000,0.000000,0.000000,0.000000,-0.000088,-9.810049,0.000000,0.000000,0.000000,0.000000,0.060000,0.060000,0.070000,0.070000,0.000000,0.000000,0.000000,0.000000,0.000000,0.000000,0.000000,0.000000,0.000000,0.000000,0.000000,0.000000,0.000000,0.000000,0.000000,0.000000,0.000000,0.000000,0.000000,0.000000,0.000000,0.000000,0.000000,0.000000,0.000000,0.000000,0.000000,0.000000,0.000000,0.000000,0.000000,0.000000,0.000000,0.000000,0.000000,0.000000,0.000000,0.000000,0.000000,0.000000,0.000000,0.000000,0.000000,0.000000,0.030000,0.040000,0.000000,0.000000,0.224686,0.003922,0.000000,0.000000,0.000000,0.000000,0.000000,0.000000,0.000000,0.000000,0.000000,0.000000,NaN,NaN,NaN,NaN,NaN,NaN,NaN,NaN,0.000000,0.000000,NaN,NaN,10.100000,0.470000,195.560000,0.000000,0.000000,0.000000,0.000000,0.000000,0.500000,0.500000,0.000000,0.000000,0.000000,0.000000,0.000000,0.000000,0.000000,0.000000,0.000000,0.000000,0.000000,0.000000
0.020000,0.000,0,0.000000,0.000000,0.000000,0.000000,0.000000,0.000000,-0.000446,-9.810239,0.000000,0.000000,0.000000,0.000000,0.060000,0.060000,0.070000,0.070000,0.000000,0.000000,0.000000,0.000000,0.000000,0.000000,0.000000,0.000000,0.000000,0.000000,0.000000,0.000000,0.000000,0.000000,0.000000,0.000000,0.000000,0.000000,0.000000,0.000000,0.000000,0.000000,0.000000,0.000000,0.000000,0.000000,0.000000,0.000000,0.000000,0.000000,0.000000,0.000000,0.000000,0.000000,0.000000,0.000000,0.000000,0.000000,0.000000,0.000000,0.000000,0.000000,0.000000,0.000000,0.030000,0.040000,0.000000,0.000000,0.224686,0.003922,0.000000,0.000000,3.800344,0.000000,0.000000,0.000000,0.000000,0.000000,-0.000001,0.000000,NaN,NaN,NaN,NaN,NaN,NaN,NaN,NaN,0.000000,0.000000,NaN,NaN,10.100000,0.467842,195.560000,0.000000,0.000000,0.000000,0.000000,0.000000,0.500000,0.500000,0.000000,0.000000,0.000000,0.000000,0.000000,0.000000,0.000000,0.000000,0.000000,0.000000,0.018000,0.018000
0.030000,0.000,0,0.000000,0.000000,0.000000,0.000000,0.000000,0.000000,-0.001079,-9.810581,0.000000,0.000000,0.000000,0.000000,0.060000,0.060000,0.070000,0.070000,0.000000,0.000000,0.000000,0.000000,0.000000,0.000000,0.000000,0.000000,0.000000,0.000000,0.000000,0.000000,0.000000,0.000000,0.000000,0.000000,0.000000,0.000000,0.000000,0.000000,0.000000,0.000000,0.000000,0.000000,0.000000,0.000000,0.000000,0.000000,0.000000,0.000000,0.000000,0.000000,0.000000,0.000000,0.000000,0.000000,0.000000,0.000000,0.000000,0.000000,0.000000,0.000000,0.000000,0.000000,0.030000,0.040000,0.000000,0.000000,0.224686,0.003922,0.000000,0.000000,3.800344,0.000000,0.000000,0.000000,0.000000,0.000000,-0.000001,0.000000,NaN,NaN,NaN,NaN,NaN,NaN,NaN,NaN,0.000000,0.000000,NaN,NaN,10.100000,0.467842,195.560000,0.000000,0.000000,0.000000,0.000000,0.000000,0.500000,0.500000,0.000000,0.000000,0.000000,0.000000,0.000000,0.000000,0.000000,0.000000,0.000000,0.000000,0.018000,0.018000
0.040000,0.000,0,0.000000,0.000000,0.000000,0.000000,0.000000,0.000000,-0.001986,-9.811073,0.000000,0.000000,0.000000,0.000000,0.060000,0.060000,0.070000,0.070000,0.000000,0.000000,0.000000,0.000000,0.000000,0.000000,0.000000,0.000000,0.000000,0.000000,0.000000,0.000000,0.000000,0.000000,0.000000,0.000000,0.000000,0.000000,0.000000,0.000000,0.000000,0.000000,0.000000,0.000000,0.000000,0.000000,0.000000,0.000000,0.000000,0.000000,0.000000,0.000000,0.000000,0.000000,0.000000,0.000000,0.000000,0.000000,0.000000,0.000000,0.000000,0.000000,0.000000,0.000000,0.030000,0.040000,0.000000,0.000000,0.224686,0.003922,0.000000,0.000000,3.800344,0.000000,0.000000,0.000000,0.000000,0.000000,-0.000011,0.000000,NaN,NaN,NaN,NaN,NaN,NaN,NaN,NaN,0.000000,0.000000,NaN,NaN,10.100000,0.461759,195.560000,0.000000,0.000000,0.000000,0.000000,0.000000,0.500000,0.500000,0.000000,0.000000,0.000000,0.000000,0.000000,0.000000,0.000000,0.000000,0.000000,0.000000,0.038000,0.038000
0.050000,0.000,0,0.000000,0.000000,0.000000,0.000000,0.000000,0.000000,-0.003168,-9.811699,0.000000,0.000000,0.000000,0.000000,0.060000,0.060000,0.070000,0.070000,0.000000,0.000000,0.000000,0.000000,0.000000,0.000000,0.000000,0.000000,0.000000,0.000000,0.000000,0.000000,0.000000,0.000000,0.000000,0.000000,0.000000,0.000000,0.000000,0.000000,0.000000,0.000000,0.000000,0.000000,0.000000,0.000000,0.000000,0.000000,0.000000,0.000000,0.000000,0.000000,0.000000,0.000000,0.000000,0.000000,0.000000,0.000000,0.000000,0.000000,0.000000,0.000000,0.000000,0.000000,0.030000,0.040000,0.000000,0.000000,0.224670,0.003921,0.000000,0.000000,3.800344,0.000000,0.000000,0.000000,0.000000,0.000000,-0.000011,0.000000,NaN,NaN,NaN,NaN,NaN,NaN,NaN,NaN,0.000000,0.000000,NaN,NaN,10.100000,0.461759,195.560000,0.000000,0.000000,0.000000,0.000000,0.000000,0.500000,0.500000,0.000000,0.000000,0.000000,0.000000,0.000000,0.000000,0.000000,0.000000,0.000000,0.000000,0.038000,0.038000
0.060000,0.000,0,0.000000,0.000000,0.000000,0.000000,0.000000,0.000000,-0.004624,-9.812474,0.000000,0.000000,0.000000,0.000000,0.060000,0.060000,0.070000,0.070000,0.000000,0.000000,0.000000,0.000000,0.000000,0.000000,0.000000,0.000000,0.000000,0.000000,0.000000,0.000000,0.000000,0.000000,0.000000,0.000000,0.000000,0.000000,0.000000,0.000000,0.000000,0.000000,0.000000,0.000000,0.000000,0.000000,0.000000,0.000000,0.000000,0.000000,0.000000,0.000000,0.000000,0.000000,0.000000,0.000000,0.000000,0.000000,0.000000,0.000000,0.000000,0.000000,0.000000,0.000000,0.030000,0.040000,0.000000,0.000000,0.224655,0.003921,0.000000,0.000000,3.800344,0.000000,0.000000,0.000000,0.000000,0.000000,-0.000039,0.000000,NaN,NaN,NaN,NaN,NaN,NaN,NaN,NaN,0.000000,0.000000,NaN,NaN,10.100000,0.451752,195.560000,0.000000,0.000000,0.000000,0.000000,0.000000,0.500000,0.500000,0.000000,0.000000,0.000000,0.000000,0.000000,0.000000,0.000000,0.000000,0.000000,0.000000,0.058000,0.058000
0.070000,0.000,0,0.000000,0.000000,0.000000,0.000000,0.000000,0.000000,-0.006353,-9.813428,0.000000,0.000000,0.000000,0.000000,0.060000,0.060000,0.070000,0.070000,0.000000,0.000000,0.000000,0.000000,0.000000,0.000000,0.000000,0.000000,0.000000,0.000000,0.000000,0.000000,0.000000,0.000000,0.000000,0.000000,0.000000,0.000000,0.000000,0.000000,0.000000,0.000000,0.000000,0.000000,0.000000,0.000000,0.000000,0.000000,0.000000,0.000000,0.000000,0.000000,0.000000,0.000000,0.000000,0.000000,0.000000,0.000000,0.000000,0.000000,0.000000,0.000000,0.000000,0.000000,0.030000,0.040000,0.000000,0.000000,0.224625,0.003920,0.000000,0.000000,3.800344,0.000000,0.000000,0.000000,0.000000,0.000000,-0.000039,0.000000,NaN,NaN,NaN,NaN,NaN,NaN,NaN,NaN,0.000000,0.000000,NaN,NaN,10.100000,0.451752,195.560000,0.000000,0.000000,0.000000,0.000000,0.000000,0.500000,0.500000,0.000000,0.000000,0.000000,0.000000,0.000000,0.000000,0.000000,0.000000,0.000000,0.000000,0.058000,0.058000
0.080000,0.000,0,0.000000,0.000000,0.000000,0.000000,0.000000,0.000000,-0.008356,-9.814501,0.000000,0.000000,0.000000,0.000000,0.060000,0.060000,0.070000,0.070000,0.000000,0.000000,0.000000,0.000000,0.000000,0.000000,0.000000,0.000000,0.000000,0.000000,0.000000,0.000000,0.000000,0.000000,0.000000,0.000000,0.000000,0.000000,0.000000,0.000000,0.000000,0.000000,0.000000,0.000000,0.000000,0.000000,0.000000,0.000000,0.000000,0.000000,0.000000,0.000000,0.000000,0.000000,0.000000,0.000000,0.000000,0.000000,0.000000,0.000000,0.000000,0.000000,0.000000,0.000000,0.030000,0.040000,0.000000,0.000000,0.224579,0.003920,0.000000,0.000000,3.800344,0.000000,0.000000,0.000000,0.000000,0.000000,-0.000094,0.000000,NaN,NaN,NaN,NaN,NaN,NaN,NaN,NaN,0.000000,0.000000,NaN,NaN,10.100000,0.437818,195.560000,0.000000,0.000000,0.000000,0.000000,0.000000,0.500000,0.500000,0.000000,0.000000,0.000000,0.000000,0.000000,0.000000,0.000000,0.000000,0.000000,0.000000,0.078000,0.078000
0.090000,0.000,0,0.000000,0.000000,0.000000,0.000000,0.000000,0.000000,-0.010630,-9.815722,0.000000,0.000000,0.000000,0.000000,0.060000,0.060000,0.070000,0.070000,0.000000,0.000000,0.000000,0.000000,0.000000,0.000000,0.000000,0.000000,0.000000,0.000000,0.000000,0.000000,0.000000,0.000000,0.000000,0.000000,0.000000,0.000000,0.000000,0.000000,0.000000,0.000000,0.000000,0.000000,0.000000,0.000000,0.000000,0.000000,0.000000,0.000000,0.000000,0.000000,0.000000,0.000000,0.000000,0.000000,0.000000,0.000000,0.000000,0.000000,0.000000,0.000000,0.000000,0.000000,0.030000,0.040000,0.000000,0.000000,0.224510,0.003918,0.000000,0.000000,3.800344,0.000000,0.000000,0.000000,0.000000,0.000000,-0.000094,0.000000,NaN,NaN,NaN,NaN,NaN,NaN,NaN,NaN,0.000000,0.000000,NaN,NaN,10.100000,0.437818,195.560000,0.000000,0.000000,0.000000,0.000000,0.000000,0.500000,0.500000,0.000000,0.000000,0.000000,0.000000,0.000000,0.000000,0.000000,0.000000,0.000000,0.000000,0.078000,0.078000
0.100000,0.000,0,-0.000440,180.000000,0.000000,0.981239,0.000000,0.000000,-0.013176,-9.817123,0.000000,0.000000,0.000000,0.000000,0.060000,0.060000,0.070000,0.070000,0.000000,0.000000,0.000000,0.000000,0.000000,0.000000,0.000000,0.000000,0.000000,0.000000,0.000000,0.000000,0.000000,0.000000,0.000000,0.000000,0.000000,0.000000,0.000000,0.000000,0.000000,0.000000,0.000000,0.000000,0.000000,0.000000,0.000000,0.000000,0.000000,0.000000,0.000000,0.000000,0.000000,0.000000,0.000000,0.000000,0.000000,0.000000,0.000000,0.000000,0.000000,0.000000,0.000000,0.000000,0.030000,0.040000,0.000000,0.000000,0.224419,0.003917,0.000000,0.000000,3.800344,0.000000,0.000000,0.000000,0.000000,0.000000,-0.000185,0.000000,NaN,NaN,NaN,NaN,NaN,NaN,NaN,NaN,0.000000,0.000000,NaN,NaN,10.100000,0.419957,195.560000,0.000000,0.000000,0.000000,0.000000,0.000000,0.500000,0.500000,0.000000,0.000000,0.000000,0.000000,0.000000,0.000000,0.000000,0.000000,0.000000,0.000000,0.098000,0.098000
0.110000,0.000,0,-0.000440,180.000000,0.000000,0.981239,0.000000,0.000000,-0.015992,-9.818673,0.000000,0.000000,0.000000,0.000000,0.060000,0.060000,0.070000,0.070000,0.000000,0.000000,0.000000,0.000000,0.000000,0.000000,0.000000,0.000000,0.000000,0.000000,0.000000,0.000000,0.000000,0.000000,0.000000,0.000000,0.000000,0.000000,0.000000,0.000000,0.000000,0.000000,0.000000,0.000000,0.000000,0.000000,0.000000,0.000000,0.000000,0.000000,0.000000,0.000000,0.000000,0.000000,0.000000,0.000000,0.000000,0.000000,0.000000,0.000000,0.000000,0.000000,0.000000,0.000000,0.030000,0.040000,0.000000,0.000000,0.224289,0.003915,0.000000,0.000000,3.800344,0.000000,0.000000,0.000000,0.000000,0.000000,-0.000185,0.000000,NaN,NaN,NaN,NaN,NaN,NaN,NaN,NaN,0.000000,0.000000,NaN,NaN,10.100000,0.419957,195.560000,0.000000,0.000000,0.000000,0.000000,0.000000,0.500000,0.500000,0.000000,0.000000,0.000000,0.000000,0.000000,0.000000,0.000000,0.000000,0.000000,0.000000,0.098000,0.098000
0.120000,0.000,0,-0.000440,180.000000,0.000000,0.981239,0.000000,0.000000,-0.019077,-9.820342,0.000000,0.000000,0.000000,0.000000,0.060000,0.060000,0.070000,0.070000,0.000000,0.000000,0.000000,0.000000,0.000000,0.000000,0.000000,0.000000,0.000000,0.000000,0.000000,0.000000,0.000000,0.000000,0.000000,0.000000,0.000000,0.000000,0.000000,0.000000,0.000000,0.000000,0.000000,0.000000,0.000000,0.000000,0.000000,0.000000,0.000000,0.000000,0.000000,0.000000,0.000000,0.000000,0.000000,0.000000,0.000000,0.000000,0.000000,0.000000,0.000000,0.000000,0.000000,0.000000,0.030000,0.040000,0.000000,0.000000,0.224121,0.003912,0.000000,0.000000,3.800344,0.000000,0.000000,0.000000,0.000000,0.000000,-0.000322,0.000000,NaN,NaN,NaN,NaN,NaN,NaN,NaN,NaN,0.000000,0.000000,NaN,NaN,10.100000,0.398166,195.560000,0.000000,0.000000,0.000000,0.000000,0.000000,0.500000,0.500000,0.000000,0.000000,0.000000,0.000000,0.000000,0.000000,0.000000,0.000000,0.000000,0.000000,0.118000,0.118000
0.130000,0.000,0,-0.000440,180.000000,0.000000,0.981239,0.000000,0.000000,-0.022431,-9.822130,0.000000,0.000000,0.000000,0.000000,0.060000,0.060000,0.070000,0.070000,0.000000,0.000000,0.000000,0.000000,0.000000,0.000000,0.000000,0.000000,0.000000,0.000000,0.000000,0.000000,0.000000,0.000000,0.000000,0.000000,0.000000,0.000000,0.000000,0.000000,0.000000,0.000000,0.000000,0.000000,0.000000,0.000000,0.000000,0.000000,0.000000,0.000000,0.000000,0.000000,0.000000,0.000000,0.000000,0.000000,0.000000,0.000000,0.000000,0.000000,0.000000,0.000000,0.000000,0.000000,0.030000,0.040000,0.000000,0.000000,0.223908,0.003908,0.000000,0.000000,3.800344,0.000000,0.000000,0.000000,0.000000,0.000000,-0.000322,0.000000,NaN,NaN,NaN,NaN,NaN,NaN,NaN,NaN,0.000000,0.000000,NaN,NaN,10.100000,0.398166,195.560000,0.000000,0.000000,0.000000,0.000000,0.000000,0.500000,0.500000,0.000000,0.000000,0.000000,0.000000,0.000000,0.000000,0.000000,0.000000,0.000000,0.000000,0.118000,0.118000
0.140000,0.000,0,-0.000440,180.000000,0.000000,0.981239,0.000000,0.000000,-0.026052,-9.824158,0.000000,0.000000,0.000000,0.000000,0.060000,0.060000,0.070000,0.070000,0.000000,0.000000,0.000000,0.000000,0.000000,0.000000,0.000000,0.000000,0.000000,0.000000,0.000000,0.000000,0.000000,0.000000,0.000000,0.000000,0.000000,0.000000,0.000000,0.000000,0.000000,0.000000,0.000000,0.000000,0.000000,0.000000,0.000000,0.000000,0.000000,0.000000,0.000000,0.000000,0.000000,0.000000,0.000000,0.000000,0.000000,0.000000,0.000000,0.000000,0.000000,0.000000,0.000000,0.000000,0.030000,0.040000,0.000000,0.000000,0.223640,0.003903,0.000000,0.000000,3.800344,0.000000,0.000000,0.000000,0.000000,0.000000,-0.000514,0.000000,NaN,NaN,NaN,NaN,NaN,NaN,NaN,NaN,0.000015,0.000015,NaN,NaN,10.100000,0.372442,195.560000,0.000000,0.000000,0.000000,0.000000,0.000000,0.500000,0.500000,0.000000,0.000000,0.000000,0.000000,0.000000,0.000000,0.000015,0.000015,0.000015,0.000015,0.138000,0.138000
0.150000,0.000,0,-0.000440,180.000000,0.000000,0.981239,0.000000,0.000000,-0.029938,-9.826184,0.000000,0.000000,0.000000,0.000000,0.060000,0.060000,0.070000,0.070000,0.000000,0.000000,0.000000,0.000000,0.000000,0.000000,0.000000,0.000000,0.000000,0.000000,0.000000,0.000000,0.000000,0.000000,0.000000,0.000000,0.000000,0.000000,0.000000,0.000000,0.000000,0.000000,0.000000,0.000000,0.000000,0.000000,0.000000,0.000000,0.000000,0.000000,0.000000,0.000000,0.000000,0.000000,0.000000,0.000000,0.000000,0.000000,0.000000,0.000000,0.000000,0.000000,0.000000,0.000000,0.030000,0.040000,0.000000,0.000000,0.223305,0.003897,0.000000,0.000000,3.800344,0.000000,0.000000,0.000000,0.000000,0.000000,-0.000514,0.000000,NaN,NaN,NaN,NaN,NaN,NaN,NaN,NaN,0.000015,0.000015,NaN,NaN,10.100000,0.372442,195.560000,0.000000,0.000000,0.000000,0.000000,0.000000,0.500000,0.500000,0.000000,0.000000,0.000000,0.000000,0.000000,0.000000,0.000015,0.000015,0.000015,0.000015,0.138000,0.138000
0.160000,0.000,0,-0.000440,180.000000,0.000000,0.981239,0.000000,0.000000,-0.034089,-9.828568,0.000000,0.000000,0.000000,0.000000,0.060000,0.060000,0.070000,0.070000,0.000000,0.000000,0.000000,0.000000,0.000000,0.000000,0.000000,0.000000,0.000000,0.000000,0.000000,0.000000,0.000000,0.000000,0.000000,0.000000,0.000000,0.000000,0.000000,0.000000,0.000000,0.000000,0.000000,0.000000,0.000000,0.000000,0.000000,0.000000,0.000000,0.000000,0.000000,0.000000,0.000000,0.000000,0.000000,0.000000,0.000000,0.000000,0.000000,0.000000,0.000000,0.000000,0.000000,0.000000,0.030000,0.040000,0.000000,0.000000,0.222893,0.003890,0.000000,0.000000,3.800344,0.000000,0.000000,0.000000,0.000000,0.000000,-0.000769,0.000000,NaN,NaN,NaN,NaN,NaN,NaN,NaN,NaN,0.000015,0.000015,NaN,NaN,10.100000,0.342783,195.560000,0.000000,0.000000,0.000000,0.000000,0.000000,0.500000,0.500000,0.000000,0.000000,0.000000,0.000000,0.000000,0.000000,0.000015,0.000015,0.000015,0.000015,0.158000,0.158000
0.170000,0.000,0,-0.000440,180.000000,0.000000,0.981239,0.000000,0.000000,-0.038503,-9.830954,0.000000,0.000000,0.000000,0.000000,0.060000,0.060000,0.070000,0.070000,0.000000,0.000000,0.000000,0.000000,0.000000,0.000000,0.000000,0.000000,0.000000,0.000000,0.000000,0.000000,0.000000,0.000000,0.000000,0.000000,0.000000,0.000000,0.000000,0.000000,0.000000,0.000000,0.000000,0.000000,0.000000,0.000000,0.000000,0.000000,0.000000,0.000000,0.000000,0.000000,0.000000,0.000000,0.000000,0.000000,0.000000,0.000000,0.000000,0.000000,0.000000,0.000000,0.000000,0.000000,0.030000,0.040000,0.000000,0.000000,0.222405,0.003882,0.000000,0.000000,3.800344,0.000000,0.000000,0.000000,0.000000,0.000000,-0.000769,0.000000,NaN,NaN,NaN,NaN,NaN,NaN,NaN,NaN,0.000015,0.000015,NaN,NaN,10.100000,0.342783,195.560000,0.000000,0.000000,0.000000,0.000000,0.000000,0.500000,0.500000,0.000000,0.000000,0.000000,0.000000,0.000000,0.000000,0.000015,0.000015,0.000015,0.000015,0.158000,0.158000
0.180000,0.000,0,-0.000440,180.000000,0.000000,0.981239,0.000000,0.000000,-0.043178,-9.833457,0.000000,0.000000,0.000000,0.000000,0.060000,0.060000,0.070000,0.070000,0.000000,0.000000,0.000000,0.000000,0.000000,0.000000,0.000000,0.000000,0.000000,0.000000,0.000000,0.000000,0.000000,0.000000,0.000000,0.000000,0.000000,0.000000,0.000000,0.000000,0.000000,0.000000,0.000000,0.000000,0.000000,0.000000,0.000000,0.000000,0.000000,0.000000,0.000000,0.000000,0.000000,0.000000,0.000000,0.000000,0.000000,0.000000,0.000000,0.000000,0.000000,0.000000,0.000000,0.000000,0.030000,0.040000,0.000000,0.000000,0.221809,0.003871,0.000000,0.000000,3.800344,0.000000,0.000000,0.000000,0.000000,0.000000,-0.001098,0.000000,NaN,NaN,NaN,NaN,NaN,NaN,NaN,NaN,0.000031,0.000031,NaN,NaN,10.100000,0.309185,195.560000,0.000000,0.000000,0.000000,0.000000,0.000000,0.500000,0.500000,0.000000,0.000000,0.000000,0.000000,0.000000,0.000000,0.000031,0.000031,0.000031,0.000031,0.177999,0.177999
0.190000,0.000,0,-0.000440,180.000000,0.000000,0.981239,0.000000,0.000000,-0.048112,-9.836200,0.000000,0.000000,0.000000,0.000000,0.060000,0.060000,0.070000,0.070000,0.000000,0.000000,0.000000,0.000000,0.000000,0.000000,0.000000,0.000000,0.000000,0.000000,0.000000,0.000000,0.000000,0.000000,0.000000,0.000000,0.000000,0.000000,0.000000,0.000000,0.000000,0.000000,0.000000,0.000000,0.000000,0.000000,0.000000,0.000000,0.000000,0.000000,0.000000,0.000000,0.000000,0.000000,0.000000,0.000000,0.000000,0.000000,0.000000,0.000000,0.000000,0.000000,0.000000,0.000000,0.030000,0.040000,0.000000,0.000000,0.221115,0.003859,0.000000,0.000000,3.800344,0.000000,0.000000,0.000000,0.000000,0.000000,-0.001098,0.000000,NaN,NaN,NaN,NaN,NaN,NaN,NaN,NaN,0.000031,0.000031,NaN,NaN,10.100000,0.309185,195.560000,0.000000,0.000000,0.000000,0.000000,0.000000,0.500000,0.500000,0.000000,0.000000,0.000000,0.000000,0.000000,0.000000,0.000031,0.000031,0.000031,0.000031,0.177999,0.177999
0.200000,0.000,0,-0.003469,180.000000,0.000000,1.963949,0.000000,0.000000,-0.053305,-9.839062,0.000000,0.000000,0.000000,0.000000,0.060000,0.060000,0.070000,0.070000,0.000000,0.000000,0.000000,0.000000,0.000000,0.000000,0.000000,0.000000,0.000000,0.000000,0.000000,0.000000,0.000000,0.000000,0.000000,0.000000,0.000000,0.000000,0.000000,0.000000,0.000000,0.000000,0.000000,0.000000,0.000000,0.000000,0.000000,0.000000,0.000000,0.000000,0.000000,0.000000,0.000000,0.000000,0.000000,0.000000,0.000000,0.000000,0.000000,0.000000,0.000000,0.000000,0.000000,0.000000,0.030000,0.040000,0.000000,0.000000,0.220306,0.003845,0.000000,0.000000,3.800344,0.000000,0.000000,0.000000,0.000000,0.000000,-0.001508,0.000000,NaN,NaN,NaN,NaN,NaN,NaN,NaN,NaN,0.000046,0.000046,NaN,NaN,10.100000,0.271644,195.560000,0.000000,0.000000,0.000000,0.000000,0.000000,0.500000,0.500000,0.000000,0.000000,0.000000,0.000000,0.000000,0.000000,0.000046,0.000046,0.000046,0.000046,0.197999,0.197999
0.210000,0.000,0,-0.003469,180.000000,0.000000,1.963949,0.000000,0.000000,-0.058753,-9.842044,0.000000,0.000000,0.000000,0.000000,0.060000,0.060000,0.070000,0.070000,0.000000,0.000000,0.000000,0.000000,0.000000,0.000000,0.000000,0.000000,0.000000,0.000000,0.000000,0.000000,0.000000,0.000000,0.000000,0.000000,0.000000,0.000000,0.000000,0.000000,0.000000,0.000000,0.000000,0.000000,0.000000,0.000000,0.000000,0.000000,0.000000,0.000000,0.000000,0.000000,0.000000,0.000000,0.000000,0.000000,0.000000,0.000000,0.000000,0.000000,0.000000,0.000000,0.000000,0.000000,0.030000,0.040000,0.000000,0.000000,0.219353,0.003828,0.000000,0.000000,3.800344,0.000000,0.000000,0.000000,0.000000,0.000000,-0.001508,0.000000,NaN,NaN,NaN,NaN,NaN,NaN,NaN,NaN,0.000046,0.000046,NaN,NaN,10.100000,0.271644,195.560000,0.000000,0.000000,0.000000,0.000000,0.000000,0.500000,0.500000,0.000000,0.000000,0.000000,0.000000,0.000000,0.000000,0.000046,0.000046,0.000046,0.000046,0.197999,0.197999
0.220000,0.000,0,-0.003469,180.000000,0.000000,1.963949,0.000000,0.000000,-0.064455,-9.845145,0.000000,0.000000,0.000000,0.000000,0.060000,0.060000,0.070000,0.070000,0.000000,0.000000,0.000000,0.000000,0.000000,0.000000,0.000000,0.000000,0.000000,0.000000,0.000000,0.000000,0.000000,0.000000,0.000000,0.000000,0.000000,0.000000,0.000000,0.000000,0.000000,0.000000,0.000000,0.000000,0.000000,0.000000,0.000000,0.000000,0.000000,0.000000,0.000000,0.000000,0.000000,0.000000,0.000000,0.000000,0.000000,0.000000,0.000000,0.000000,0.000000,0.000000,0.000000,0.000000,0.030000,0.040000,0.000000,0.000000,0.218269,0.003810,0.000000,0.000000,3.800344,0.000000,0.000000,0.000000,0.000000,0.000000,-0.002010,0.000000,NaN,NaN,NaN,NaN,NaN,NaN,NaN,NaN,0.000183,0.000183,NaN,NaN,10.100000,0.230155,195.560200,0.000000,0.000000,0.000000,0.000000,0.000000,0.500000,0.500000,0.000000,0.000000,0.000000,0.000000,0.000000,0.000000,0.000168,0.000168,0.000168,0.000168,0.217996,0.217996
0.230000,0.000,0,-0.003469,180.000000,0.000000,1.963949,0.000000,0.000000,-0.070409,-9.848485,0.000000,0.000000,0.000000,0.000000,0.060000,0.060000,0.070000,0.070000,0.000000,0.000000,0.000000,0.000000,0.000000,0.000000,0.000000,0.000000,0.000000,0.000000,0.000000,0.000000,0.000000,0.000000,0.000000,0.000000,0.000000,0.000000,0.000000,0.000000,0.000000,0.000000,0.000000,0.000000,0.000000,0.000000,0.000000,0.000000,0.000000,0.000000,0.000000,0.000000,0.000000,0.000000,0.000000,0.000000,0.000000,0.000000,0.000000,0.000000,0.000000,0.000000,0.000000,0.000000,0.030000,0.040000,0.000000,0.000000,0.217018,0.003788,0.000000,0.000000,3.800344,0.000000,0.000000,0.000000,0.000000,0.000000,-0.002010,0.000000,NaN,NaN,NaN,NaN,NaN,NaN,NaN,NaN,0.000183,0.000183,NaN,NaN,10.100000,0.230155,195.560200,0.000000,0.000000,0.000000,0.000000,0.000000,0.500000,0.500000,0.000000,0.000000,0.000000,0.000000,0.000000,0.000000,0.000168,0.000168,0.000168,0.000168,0.217996,0.217996
0.240000,0.000,0,-0.003469,180.000000,0.000000,1.963949,0.000000,0.000000,-0.076613,-9.851945,0.000000,0.000000,0.000000,0.000000,0.060000,0.060000,0.070000,0.070000,0.000000,0.000000,0.000000,0.000000,0.000000,0.000000,0.000000,0.000000,0.000000,0.000000,0.000000,0.000000,0.000000,0.000000,0.000000,0.000000,0.000000,0.000000,0.000000,0.000000,0.000000,0.000000,0.000000,0.000000,0.000000,0.000000,0.000000,0.000000,0.000000,0.000000,0.000000,0.000000,0.000000,0.000000,0.000000,0.000000,0.000000,0.000000,0.000000,0.000000,0.000000,0.000000,0.000000,0.000000,0.030000,0.040000,0.000000,0.000000,0.215591,0.003763,0.000000,0.000000,3.800344,0.000000,0.000000,0.000000,0.000000,0.000000,-0.002613,0.000000,NaN,NaN,NaN,NaN,NaN,NaN,NaN,NaN,0.000366,0.000366,NaN,NaN,10.100000,0.184715,195.560400,0.000000,0.000000,0.000000,0.000000,0.000000,0.500000,0.500000,0.000000,0.000000,0.000000,0.000000,0.000000,0.000000,0.000336,0.000336,0.000336,0.000336,0.237992,0.237991
0.250000,0.000,0,-0.003469,180.000000,0.000000,1.963949,0.000000,0.000000,-0.083065,-9.855524,0.000000,0.000000,0.000000,0.000000,0.060000,0.060000,0.070000,0.070000,0.000000,0.000000,0.000000,0.000000,0.000000,0.000000,0.000000,0.000000,0.000000,0.000000,0.000000,0.000000,0.000000,0.000000,0.000000,0.000000,0.000000,0.000000,0.000000,0.000000,0.000000,0.000000,0.000000,0.000000,0.000000,0.000000,0.000000,0.000000,0.000000,0.000000,0.000000,0.000000,0.000000,0.000000,0.000000,0.000000,0.000000,0.000000,0.000000,0.000000,0.000000,0.000000,0.000000,0.000000,0.030000,0.040000,0.000000,0.000000,0.213982,0.003735,0.000000,0.000000,3.800344,0.000000,0.000000,0.000000,0.000000,0.000000,-0.002613,0.000000,NaN,NaN,NaN,NaN,NaN,NaN,NaN,NaN,0.000366,0.000366,NaN,NaN,10.100000,0.184715,195.560400,0.000000,0.000000,0.000000,0.000000,0.000000,0.500000,0.500000,0.000000,0.000000,0.000000,0.000000,0.000000,0.000000,0.000336,0.000336,0.000336,0.000336,0.237992,0.237991
0.260000,0.001,0,-0.003469,180.000000,0.000000,1.963949,0.000000,0.000000,-0.089761,-9.859344,0.000000,0.000000,0.000000,0.000000,0.060000,0.060000,0.070000,0.070000,0.000000,0.000000,0.000000,0.000000,0.000000,0.000000,0.000000,0.000000,0.000000,0.000000,0.000000,0.000000,0.000000,0.000000,0.000000,0.000000,0.000000,0.000000,0.000000,0.000000,0.000000,0.000000,0.000000,0.000000,0.000000,0.000000,0.000000,0.000000,0.000000,0.000000,0.000000,0.000000,0.000000,0.000000,0.000000,0.000000,0.000000,0.000000,0.000000,0.000000,0.000000,0.000000,0.000000,0.000000,0.030000,0.040000,0.000000,0.000000,0.212166,0.003703,0.000000,0.000000,3.800344,0.000000,0.000000,0.000000,0.000000,0.000000,-0.003326,0.000000,NaN,NaN,NaN,NaN,NaN,NaN,NaN,NaN,0.000549,0.000549,NaN,NaN,10.100000,0.135316,195.560600,0.000000,0.000000,0.000000,0.000000,0.000000,0.500000,0.500000,0.000000,0.000000,0.000000,0.000000,0.000000,0.000000,0.000534,0.000534,0.000534,0.000534,0.257987,0.257986
0.270000,0.001,0,-0.003469,180.000000,0.000000,1.963949,0.000000,0.000000,-0.096700,-9.863401,0.000000,0.000000,0.000000,0.000000,0.060000,0.060000,0.070000,0.070000,0.000000,0.000000,0.000000,0.000000,0.000000,0.000000,0.000000,0.000000,0.000000,0.000000,0.000000,0.000000,0.000000,0.000000,0.000000,0.000000,0.000000,0.000000,0.000000,0.000000,0.000000,0.000000,0.000000,0.000000,0.000000,0.000000,0.000000,0.000000,0.000000,0.000000,0.000000,0.000000,0.000000,0.000000,0.000000,0.000000,0.000000,0.000000,0.000000,0.000000,0.000000,0.000000,0.000000,0.000000,0.030000,0.040000,0.000000,0.000000,0.210121,0.003667,0.000000,0.000000,3.800344,0.000000,0.000000,0.000000,0.000000,0.000000,-0.003326,0.000000,NaN,NaN,NaN,NaN,NaN,NaN,NaN,NaN,0.000549,0.000549,NaN,NaN,10.100000,0.135316,195.560600,0.000000,0.000000,0.000000,0.000000,0.000000,0.500000,0.500000,0.000000,0.000000,0.000000,0.000000,0.000000,0.000000,0.000534,0.000534,0.000534,0.000534,0.257987,0.257986
0.280000,0.001,0,-0.003469,180.000000,0.000000,1.963949,0.000000,0.000000,-0.103879,-9.867460,0.000000,0.000000,0.000000,0.000000,0.060000,0.060000,0.070000,0.070000,0.000000,0.000000,0.000000,0.000000,0.000000,0.000000,0.000000,0.000000,0.000000,0.000000,0.000000,0.000000,0.000000,0.000000,0.000000,0.000000,0.000000,0.000000,0.000000,0.000000,0.000000,0.000000,0.000000,0.000000,0.000000,0.000000,0.000000,0.000000,0.000000,0.000000,0.000000,0.000000,0.000000,0.000000,0.000000,0.000000,0.000000,0.000000,0.000000,0.000000,0.000000,0.000000,0.000000,0.000000,0.030000,0.040000,0.000000,0.000000,0.207840,0.003628,0.000000,0.000000,3.800344,0.000000,0.000000,0.000000,0.000000,0.000000,-0.004159,0.000000,NaN,NaN,NaN,NaN,NaN,NaN,NaN,NaN,0.000732,0.000732,NaN,NaN,10.100000,0.081954,195.560800,0.000000,0.000000,0.000000,0.000000,0.000000,0.500000,0.500000,0.000000,0.000000,0.000000,0.000000,0.000000,0.000000,0.000717,0.000717,0.000717,0.000717,0.277983,0.277982
0.290000,0.001,0,-0.003469,180.000000,0.000000,1.963949,0.000000,0.000000,-0.111296,-9.871640,0.000000,0.000000,0.000000,0.000000,0.060000,0.060000,0.070000,0.070000,0.000000,0.000000,0.000000,0.000000,0.000000,0.000000,0.000000,0.000000,0.000000,0.000000,0.000000,0.000000,0.000000,0.000000,0.000000,0.000000,0.000000,0.000000,0.000000,0.000000,0.000000,0.000000,0.000000,0.000000,0.000000,0.000000,0.000000,0.000000,0.000000,0.000000,0.000000,0.000000,0.000000,0.000000,0.000000,0.000000,0.000000,0.000000,0.000000,0.000000,0.000000,0.000000,0.000000,0.000000,0.030000,0.040000,0.000000,0.000000,0.205292,0.003583,0.000000,0.000000,3.800344,0.000000,0.000000,0.000000,0.000000,0.000000,-0.004159,0.000000,NaN,NaN,NaN,NaN,NaN,NaN,NaN,NaN,0.000732,0.000732,NaN,NaN,10.100000,0.081954,195.560800,0.000000,0.000000,0.000000,0.000000,0.000000,0.500000,0.500000,0.000000,0.000000,0.000000,0.000000,0.000000,0.000000,0.000717,0.000717,0.000717,0.000717,0.277983,0.277982
0.300000,0.001,0,-0.010495,180.000000,0.000000,2.934018,0.000000,0.000000,0.129712,-2.674045,0.000000,0.000000,10111.420000,10111.420000,0.060000,0.060000,0.061584,0.061584,0.000000,0.000000,0.008416,0.008416,0.000000,0.000000,2.889067,2.889067,0.000000,0.000000,1430.756000,1430.756000,0.000000,0.000000,8667.199000,8667.199000,0.000000,0.000000,-0.029815,-0.029815,0.000000,0.000000,6.989420,6.989420,0.000000,0.000000,0.000000,0.000000,0.000000,0.000000,0.000000,0.000000,0.000000,0.000000,0.000000,0.000000,0.000000,0.000000,105.889000,105.889000,0.000000,0.000000,0.000000,0.000000,0.030000,0.031584,0.000000,0.000000,0.010239,0.000179,0.000000,0.000000,3.800344,0.000000,0.000000,0.000000,0.000000,0.000000,-0.030494,0.000000,NaN,NaN,0.001012,0.001012,NaN,NaN,0.000000,0.000000,0.000992,0.000992,NaN,NaN,10.100000,0.024588,195.561100,0.000000,-7.717000,0.000000,0.000000,0.000000,0.500000,0.000000,0.000000,0.000000,0.000000,0.000000,0.000000,4.198000,0.000946,0.000946,0.000946,0.000946,0.297977,0.297976
0.310000,0.002,0,-0.010495,180.000000,0.000000,2.934018,0.000000,0.000000,0.259071,27.609950,13661.420000,13661.420000,14143.930000,14143.930000,0.030658,0.030658,0.033991,0.033991,0.029342,0.029342,0.036009,0.036009,2.904713,2.904713,2.660021,2.660021,4988.059000,4988.059000,6121.442000,6121.442000,8714.132000,8714.132000,7980.057000,7980.057000,-0.062075,-0.062075,-0.062076,-0.062076,0.000000,0.000000,0.528047,0.528047,0.000000,0.000000,0.000000,0.000000,0.000000,0.000000,0.000000,0.000000,0.000357,-0.000357,0.000000,0.000000,7.773476,7.773476,9.533755,9.533755,-124.451700,124.451700,0.000000,0.000000,0.000658,0.003992,0.000000,0.000000,0.000000,0.000000,0.000000,0.000000,3.800344,0.000000,0.000000,0.000000,0.000000,0.000000,-0.030494,0.000000,NaN,NaN,0.001012,0.001012,NaN,NaN,0.000000,0.000000,0.000992,0.000992,NaN,NaN,10.100000,0.024588,195.561100,0.000000,-7.717000,0.000000,0.000000,0.000000,0.500000,0.000000,0.000000,0.000000,0.000000,0.000000,0.000000,4.198000,0.000946,0.000946,0.000946,0.000946,0.297977,0.297976
0.320000,0.002,0,-0.010495,180.000000,0.000000,2.934018,0.000000,0.000000,0.233621,42.311460,21216.140000,21216.140000,17445.730000,17445.730000,0.003520,0.003520,0.009198,0.009198,0.056480,0.056480,0.060802,0.060802,2.549037,2.549037,2.358839,2.358839,9601.579000,9601.579000,10336.250000,10336.250000,7647.092000,7647.092000,7076.499000,7076.499000,-0.044796,-0.044796,-0.044797,-0.044797,0.000000,0.000000,-4.986832,-4.986832,0.000000,0.000000,0.000000,0.000000,0.000000,0.000000,0.000000,0.000000,0.000258,-0.000258,0.000000,0.000000,-52.907120,-52.907120,-69.530750,-69.530750,-139.474900,139.474900,0.000000,0.000000,-0.026480,-0.020802,0.000000,0.000000,0.000000,0.000000,0.000000,0.000000,3.800344,0.000000,0.000000,0.000000,0.000000,0.000000,-0.074584,0.000000,0.000000,0.000000,-0.000576,-0.000576,0.195675,-0.195675,0.000000,0.000000,0.002121,0.002121,NaN,NaN,10.100000,-0.031222,195.562200,0.000000,-7.449000,0.000000,0.000000,0.000000,0.500000,0.000000,0.000000,0.000000,0.000000,0.000000,0.000000,-3.332000,0.002014,0.002014,0.002014,0.002014,0.317951,0.317948
0.330000,0.005,0,-0.010495,180.000000,0.000000,2.934018,0.000000,0.003507,-0.666982,26.727330,15288.540000,15288.360000,11786.250000,11786.070000,0.000846,0.000846,-0.000078,-0.000078,0.059154,0.059154,0.070078,0.070078,-0.216514,-0.216574,-0.031635,-0.031695,10056.150000,10056.120000,11900.000000,11900.000000,-649.541500,-649.720300,-94.905490,-95.084300,0.030405,0.030402,0.030405,0.030403,0.000000,0.000000,7.305099,7.312098,0.000000,0.000000,0.000000,0.000000,0.000000,0.000000,0.000000,0.000000,-0.000147,0.000203,0.000024,0.000024,-32.415580,-32.397230,-8.064627,-8.025235,57.303890,-79.124890,-7.140334,-7.140226,-0.029154,-0.030078,0.000000,0.000000,0.000000,0.000000,0.000000,0.000000,3.800344,0.000000,0.000000,0.000000,0.000000,0.000000,-0.074584,0.000000,0.000000,0.000000,-0.000576,-0.000576,0.195675,-0.195675,0.000000,0.000000,0.002121,0.002121,NaN,NaN,10.100000,-0.031222,195.562200,0.000000,-7.449000,0.000000,0.000000,0.000000,0.500000,0.000000,0.000000,0.000000,0.000000,0.000000,0.000000,-3.332000,0.002014,0.002014,0.002014,0.002014,0.317951,0.317948
0.340000,0.005,0,-0.010495,180.000000,0.000000,2.934018,0.000000,-29.382600,-0.246038,22.020670,12116.060000,13237.460000,10338.110000,11520.950000,0.005214,0.004591,0.001718,0.001096,0.054786,0.055409,0.068282,0.068905,-0.721738,-0.316858,-0.429302,-0.024423,9296.571000,9436.744000,11607.890000,11713.750000,-2165.211000,-950.573900,-1287.906000,-73.268930,0.045806,0.052418,0.046982,0.051243,0.000000,0.000000,-9.688567,1.778408,0.000000,0.000000,0.000000,0.000000,0.000000,0.000000,0.000000,0.000000,-0.204523,-0.203958,-0.196495,-0.196495,20.611980,-50.551030,-21.092970,-35.213610,10847.440000,11797.320000,9356.392000,10346.250000,-0.025097,-0.028593,-0.034264,-0.034264,0.000000,0.000000,0.000000,0.000000,3.800344,0.000000,0.000000,-11.466980,-0.006613,-0.004261,0.114689,0.289199,0.000000,0.000000,0.000076,-0.000871,-20.769640,-21.442480,-19.702860,-20.412570,0.005049,0.005049,NaN,NaN,10.100320,-0.024257,195.560400,0.000000,9.711000,0.000000,0.000000,0.000000,0.500000,0.000000,0.000000,0.000000,0.000000,0.000000,0.000000,-1.731000,0.004900,0.004900,0.004900,0.004900,0.337881,0.337874
0.350000,0.007,0,-0.010495,180.000000,0.000000,2.934018,0.000000,24.552830,-0.022311,16.053780,9350.385000,9491.023000,9880.542000,9631.577000,0.011912,0.010844,0.005386,0.004318,0.048088,0.049156,0.064614,0.065682,-0.636876,-0.798762,-0.341699,-0.503585,8149.249000,8382.826000,10984.340000,11165.970000,-1910.620000,-2396.277000,-1025.092000,-1510.749000,0.048632,0.049029,0.048241,0.049422,0.000000,0.000000,2.755518,-6.622486,0.000000,0.000000,0.000000,0.000000,0.000000,0.000000,0.000000,0.000000,0.067915,0.068477,0.070346,0.070346,4.809356,16.571870,22.124760,-13.633070,-8536.221000,-8652.662000,-8975.742000,-8769.143000,-0.018622,-0.025148,-0.048457,-0.048457,0.000000,0.000000,0.000000,0.000000,3.800344,0.000000,0.000000,-11.466980,-0.006613,-0.004261,0.114689,0.289199,0.000000,0.000000,0.000076,-0.000871,-20.769640,-21.442480,-19.702860,-20.412570,0.005049,0.005049,NaN,NaN,10.100320,-0.024257,195.560400,0.000000,9.711000,0.000000,0.000000,0.000000,0.500000,0.000000,0.000000,0.000000,0.000000,0.000000,0.000000,-1.731000,0.004900,0.004900,0.004900,0.004900,0.337881,0.337874
0.360000,0.008,0,-0.010495,180.000000,0.000000,2.934018,0.000000,-19.413390,0.035812,9.747632,5765.673000,6728.687000,7962.462000,8651.687000,0.019942,0.018378,0.010987,0.009423,0.040058,0.041622,0.059013,0.060577,-0.883996,-0.724927,-0.687584,-0.528440,6778.490000,7108.248000,10032.170000,10298.060000,-2651.971000,-2174.765000,-2062.739000,-1585.309000,0.029967,0.026230,0.030504,0.025693,0.000000,0.000000,6.184259,-6.431264,0.000000,0.000000,0.000000,0.000000,0.000000,0.000000,0.000000,0.000000,-0.093642,-0.093318,-0.102232,-0.102232,12.520720,56.489850,20.614200,40.973900,5586.708000,6379.563000,7392.200000,7959.253000,-0.010840,-0.019795,-0.062557,-0.062557,0.000000,0.000000,0.000000,0.000000,3.857850,0.000000,0.000000,12.615520,0.003736,0.004811,0.077043,0.113664,0.000000,0.000000,-0.000337,0.000851,-16.959410,-17.537210,-18.277480,-18.691020,0.007584,0.007584,NaN,NaN,10.101020,-0.009384,195.559500,0.000000,4.628000,0.000000,0.000000,0.000000,0.500000,0.000000,0.000000,0.000000,0.000000,0.000000,0.000000,0.995000,0.007419,0.007419,0.007419,0.007419,0.357819,0.357810
0.370000,0.008,0,-0.010495,180.000000,0.000000,2.934018,0.000000,14.528670,0.154254,4.014637,3704.011000,3576.229000,6824.711000,6500.398000,0.027674,0.026781,0.017707,0.016814,0.032326,0.033219,0.052293,0.053186,-0.708252,-0.887185,-0.676349,-0.855356,5480.875000,5662.008000,8889.687000,9041.535000,-2124.740000,-2661.535000,-2029.030000,-2566.049000,-0.009175,-0.002973,-0.009528,-0.002619,0.000000,0.000000,2.578503,4.584578,0.000000,0.000000,0.000000,0.000000,0.000000,0.000000,0.000000,0.000000,0.061552,0.061483,0.074083,0.074083,86.228800,7.291700,99.291020,15.281930,-3843.132000,-3730.873000,-6458.393000,-6192.051000,-0.002772,-0.012739,-0.039565,-0.039565,0.000000,0.000000,0.000000,0.000000,3.857850,0.000000,0.000000,12.615520,0.003736,0.004811,0.077043,0.113664,0.000000,0.000000,-0.000337,0.000851,-16.959410,-17.537210,-18.277480,-18.691020,0.007584,0.007584,NaN,NaN,10.101020,-0.009384,195.559500,0.000000,4.628000,0.000000,0.000000,0.000000,0.500000,0.000000,0.000000,0.000000,0.000000,0.000000,0.000000,0.995000,0.007419,0.007419,0.007419,0.007419,0.357819,0.357810
0.380000,0.009,0,-0.010495,180.000000,0.000000,2.934018,0.000000,-10.370310,0.205366,-0.481127,1946.312000,2181.616000,4824.595000,5047.145000,0.035128,0.034529,0.025934,0.025335,0.024872,0.025471,0.044066,0.044665,-0.752911,-0.707537,-0.899926,-0.854567,4220.688000,4337.675000,7491.174000,7593.063000,-2258.718000,-2122.597000,-2699.760000,-2563.683000,-0.039748,-0.046919,-0.039527,-0.047142,0.000000,0.000000,5.607580,0.860481,0.000000,0.000000,0.000000,0.000000,0.000000,0.000000,0.000000,0.000000,-0.038360,-0.038859,-0.052458,-0.052458,-1.401586,88.607720,14.228280,94.544680,1903.260000,2161.076000,4802.796000,4989.463000,0.004829,-0.004366,-0.034264,-0.034264,0.000000,0.000000,0.000000,0.000000,3.857850,0.000000,0.000000,4.747099,0.007171,0.007615,-0.057657,0.032443,0.000000,0.000000,-0.001583,0.003289,-12.620580,-13.094260,-16.394760,-16.528290,0.008920,0.008920,NaN,NaN,10.100970,0.006431,195.559700,0.000000,-9.227000,0.000000,0.000000,0.000000,0.500000,0.000000,0.000000,0.000000,0.000000,0.000000,0.000000,2.325000,0.008810,0.008810,0.008810,0.008810,0.377785,0.377774
0.390000,0.010,0,-0.010495,180.000000,0.000000,2.934018,0.000000,5.986265,0.160955,-3.997385,1263.992000,1035.316000,3368.532000,3135.597000,0.041640,0.041591,0.034790,0.034741,0.018360,0.018409,0.035210,0.035259,-0.597298,-0.687972,-0.883788,-0.974491,3120.701000,3129.931000,5985.656000,5993.980000,-1791.888000,-2063.907000,-2651.354000,-2923.463000,-0.076742,-0.069190,-0.076848,-0.069087,0.000000,0.000000,1.144895,3.603116,0.000000,0.000000,0.000000,0.000000,0.000000,0.000000,0.000000,0.000000,0.018604,0.017765,0.032299,0.032299,81.774840,-16.707050,87.123570,-6.231511,-599.459100,-468.858000,-2773.521000,-2581.742000,0.011616,0.004766,0.000000,0.000000,0.000000,0.000000,0.000000,0.000000,3.857850,0.000000,0.000000,4.747099,0.007171,0.007615,-0.057657,0.032443,0.000000,0.000000,-0.001583,0.003289,-12.620580,-13.094260,-16.394760,-16.528290,0.008920,0.008920,NaN,NaN,10.100970,0.006431,195.559700,0.000000,-9.227000,0.000000,0.000000,0.000000,0.500000,0.000000,0.000000,0.000000,0.000000,0.000000,0.000000,2.325000,0.008810,0.008810,0.008810,0.008810,0.377785,0.377774
0.400000,0.010,0,-0.006864,-116.317400,-0.015668,0.716691,-0.000498,0.071638,0.087944,-7.067728,501.547600,366.056300,1770.600000,1637.565000,0.047328,0.047596,0.043934,0.044201,0.012672,0.012404,0.026066,0.025799,-0.528410,-0.561312,-0.906885,-0.939786,2155.950000,2107.087000,4431.294000,4385.793000,-1585.229000,-1683.934000,-2720.651000,-2819.357000,-0.093639,-0.092908,-0.093624,-0.092927,0.000000,0.000000,13.822920,-10.931260,0.000000,0.000000,0.000000,0.000000,0.000000,0.000000,0.000000,0.000000,-0.002360,-0.003433,-0.001629,-0.001629,20.310760,20.835690,47.133320,-15.567930,30.177710,32.037540,73.520210,67.995980,0.017462,0.014067,0.019782,0.019782,0.000000,0.000000,0.000000,0.000000,3.857850,0.000000,0.000000,24.754170,-0.000730,-0.000697,-0.148416,-0.023499,0.000000,0.000000,0.004379,-0.002831,-0.657538,-0.939899,-0.526116,-0.518663,0.010330,0.010330,NaN,NaN,10.100960,0.018894,195.561200,0.000000,-18.267000,0.000000,0.000000,0.000000,0.500000,0.000000,0.000000,0.000000,0.000000,0.000000,0.000000,1.057000,0.010162,0.010162,0.010162,0.010162,0.397752,0.397740
0.410000,0.011,0,-0.006864,-116.317400,-0.015668,0.716691,-0.000498,0.084164,0.029924,-9.532446,0.000000,0.000000,445.492900,296.380900,0.052031,0.052564,0.052723,0.053256,0.007969,0.007436,0.017277,0.016744,-0.431389,-0.453383,-0.853673,-0.875667,1356.846000,1262.144000,2937.056000,2846.458000,-1282.454000,-1195.761000,-2561.017000,-2627.000000,-0.104475,-0.103098,-0.104439,-0.103138,0.000000,0.000000,27.894450,-27.022120,0.000000,0.000000,0.000000,0.000000,0.000000,0.000000,0.000000,0.000000,-0.006056,-0.007250,-0.004287,-0.004287,8.028388,7.485571,92.981510,-82.563450,0.000000,0.000000,48.684120,32.388990,0.022298,0.022990,0.019782,0.019782,0.000000,0.000000,0.000000,0.000000,3.857850,0.000000,0.000000,24.754170,-0.000730,-0.000697,-0.148416,-0.023499,0.000000,0.000000,0.004379,-0.002831,-0.657538,-0.939899,-0.526116,-0.518663,0.010330,0.010330,NaN,NaN,10.100960,0.018894,195.561200,0.000000,-18.267000,0.000000,0.000000,0.000000,0.500000,0.000000,0.000000,0.000000,0.000000,0.000000,0.000000,1.057000,0.010162,0.010162,0.010162,0.010162,0.397752,0.397740
0.420000,0.012,0,-0.006864,-116.317400,-0.015668,0.716691,-0.000498,-0.003639,0.007491,-10.313810,0.000000,0.000000,0.000000,0.000000,0.055765,0.056486,0.060683,0.061404,0.004235,0.003514,0.009317,0.008596,-0.334173,-0.352263,-0.753820,-0.771940,721.473600,596.186600,1583.839000,1461.339000,-648.208900,-529.494300,-1653.456000,-1537.132000,-0.104757,-0.103592,-0.104714,-0.104596,0.000000,0.000000,3.134087,-3.169078,0.000000,0.000000,0.000000,0.000000,0.000000,0.000000,0.000000,0.000957,-0.007222,-0.008420,-0.005865,-0.005865,-1.123618,-0.961921,9.105643,-10.791440,0.000000,0.000000,0.000000,0.000000,0.026125,0.031044,0.034264,0.034264,0.000000,0.000000,0.000000,0.000000,3.857850,0.000000,0.000000,6.303165,-0.001165,-0.000118,-0.164571,-0.012922,0.000000,0.000000,0.112971,-0.126056,0.000000,0.000000,0.000000,0.000000,0.012302,0.012302,NaN,NaN,10.101100,0.027182,195.563100,0.000000,-19.976000,0.000000,0.000000,0.000000,0.500000,0.000000,0.000000,0.000000,0.000000,0.000000,0.000000,-0.032000,0.012103,0.012103,0.012103,0.012103,0.417705,0.417690
0.430000,0.013,0,-0.006864,-116.317400,-0.015668,0.716691,-0.000498,-0.005872,0.026107,-10.219840,0.000000,0.000000,0.000000,0.000000,0.058517,0.059413,0.067584,0.068480,0.001483,0.000587,0.002416,0.001520,-0.236094,-0.253350,-0.647739,-0.665054,252.827400,99.457570,410.787000,258.340100,-181.094400,-34.010190,-479.217700,-332.678000,-0.103758,-0.102719,-0.103714,-0.103594,0.000000,0.000000,2.640855,-2.842849,0.000000,0.000000,0.000000,0.000000,0.000000,0.000000,0.000000,0.000828,-0.007377,-0.008564,-0.006246,-0.006246,-1.346185,-1.191343,7.455324,-10.791260,0.000000,0.000000,0.000000,0.000000,0.028965,0.038032,0.034264,0.034264,0.000000,0.000000,0.000000,0.000000,3.857850,0.000000,0.000000,6.303165,-0.001165,-0.000118,-0.164571,-0.012922,0.000000,0.000000,0.112971,-0.126056,0.000000,0.000000,0.000000,0.000000,0.012302,0.012302,NaN,NaN,10.101100,0.027182,195.563100,0.000000,-19.976000,0.000000,0.000000,0.000000,0.500000,0.000000,0.000000,0.000000,0.000000,0.000000,0.000000,-0.032000,0.012103,0.012103,0.012103,0.012103,0.417705,0.417690
0.440000,0.014,0,-0.006864,-116.317400,-0.015668,0.716691,-0.000498,-0.007727,0.048890,-9.810784,0.000000,0.000000,0.000000,0.000000,0.060000,0.060000,0.070000,0.070000,0.000000,0.000000,0.000000,0.000000,0.000000,0.000000,0.000000,0.000000,0.000000,0.000000,0.000000,0.000000,0.000000,0.000000,0.000000,0.000000,-0.103280,-0.102719,-0.103409,-0.103409,0.000000,0.000000,-0.000002,-0.000002,0.000000,0.000000,0.000000,0.000000,0.103280,0.102719,0.103409,0.103409,0.000000,0.000000,0.000000,0.000000,0.000000,0.000000,0.000000,0.000000,0.000000,0.000000,0.000000,0.000000,0.030000,0.040000,0.000000,0.000000,-0.070862,-0.001237,0.000000,0.000000,3.857850,0.000000,0.000000,0.000000,-0.000561,0.000000,-0.160140,-0.015495,NaN,NaN,NaN,NaN,NaN,NaN,NaN,NaN,0.014292,0.014292,NaN,NaN,10.101250,0.031473,195.565100,0.000000,-19.749000,0.000000,0.000000,0.000000,0.500000,0.500000,0.000000,0.000000,0.000000,0.000000,0.000000,0.000000,0.014093,0.014093,0.014093,0.014093,0.437656,0.437639
0.450000,0.015,0,-0.006864,-116.317400,-0.015668,0.716691,-0.000498,-0.009246,0.065432,-9.810247,0.000000,0.000000,0.000000,0.000000,0.060000,0.060000,0.070000,0.070000,0.000000,0.000000,0.000000,0.000000,0.000000,0.000000,0.000000,0.000000,0.000000,0.000000,0.000000,0.000000,0.000000,0.000000,0.000000,0.000000,-0.103280,-0.102719,-0.103409,-0.103409,0.000000,0.000000,-0.000002,-0.000002,0.000000,0.000000,0.000000,0.000000,0.103280,0.102719,0.103409,0.103409,0.000000,0.000000,0.000000,0.000000,0.000000,0.000000,0.000000,0.000000,0.000000,0.000000,0.000000,0.000000,0.030000,0.040000,0.000000,0.000000,-0.162613,-0.002838,0.000000,0.000000,3.857850,0.000000,0.000000,0.000000,-0.000561,0.000000,-0.160140,-0.015495,NaN,NaN,NaN,NaN,NaN,NaN,NaN,NaN,0.014292,0.014292,NaN,NaN,10.101250,0.031473,195.565100,0.000000,-19.749000,0.000000,0.000000,0.000000,0.500000,0.500000,0.000000,0.000000,0.000000,0.000000,0.000000,0.000000,0.014093,0.014093,0.014093,0.014093,0.437656,0.437639
0.460000,0.016,0,-0.006864,-116.317400,-0.015668,0.716691,-0.000498,-0.010766,0.081699,-9.809825,0.000000,0.000000,0.000000,0.000000,0.060000,0.060000,0.070000,0.070000,0.000000,0.000000,0.000000,0.000000,0.000000,0.000000,0.000000,0.000000,0.000000,0.000000,0.000000,0.000000,0.000000,0.000000,0.000000,0.000000,-0.103280,-0.102719,-0.103409,-0.103409,0.000000,0.000000,-0.000002,-0.000002,0.000000,0.000000,0.000000,0.000000,0.103280,0.102719,0.103409,0.103409,0.000000,0.000000,0.000000,0.000000,0.000000,0.000000,0.000000,0.000000,0.000000,0.000000,0.000000,0.000000,0.030000,0.040000,0.000000,0.000000,-0.254372,-0.004440,0.000000,0.000000,3.857850,0.000000,0.000000,0.000000,-0.000561,0.000000,-0.160147,-0.015495,NaN,NaN,NaN,NaN,NaN,NaN,NaN,NaN,0.016264,0.016264,NaN,NaN,10.101370,0.031845,195.567100,0.000000,-19.749000,0.000000,0.000000,0.000000,0.500000,0.500000,0.000000,0.000000,0.000000,0.000000,0.000000,0.000000,0.016066,0.016066,0.016066,0.016066,0.457608,0.457588
0.470000,0.017,0,-0.006864,-116.317400,-0.015668,0.716691,-0.000498,-0.012285,0.097691,-9.809528,0.000000,0.000000,0.000000,0.000000,0.060000,0.060000,0.070000,0.070000,0.000000,0.000000,0.000000,0.000000,0.000000,0.000000,0.000000,0.000000,0.000000,0.000000,0.000000,0.000000,0.000000,0.000000,0.000000,0.000000,-0.103280,-0.102719,-0.103409,-0.103409,0.000000,0.000000,-0.000002,-0.000002,0.000000,0.000000,0.000000,0.000000,0.103280,0.102719,0.103409,0.103409,0.000000,0.000000,0.000000,0.000000,0.000000,0.000000,0.000000,0.000000,0.000000,0.000000,0.000000,0.000000,0.030000,0.040000,0.000000,0.000000,-0.346138,-0.006041,0.000000,0.000000,3.857850,0.000000,0.000000,0.000000,-0.000561,0.000000,-0.160147,-0.015495,NaN,NaN,NaN,NaN,NaN,NaN,NaN,NaN,0.016264,0.016264,NaN,NaN,10.101370,0.031845,195.567100,0.000000,-19.749000,0.000000,0.000000,0.000000,0.500000,0.500000,0.000000,0.000000,0.000000,0.000000,0.000000,0.000000,0.016066,0.016066,0.016066,0.016066,0.457608,0.457588
0.480000,0.018,0,-0.006864,-116.317400,-0.015668,0.716691,-0.000498,0.253993,0.107882,-9.135989,1004.936000,990.547500,0.000000,0.000000,0.057639,0.059366,0.070000,0.070000,0.002361,0.000634,0.000000,0.000000,0.220835,0.317110,0.000000,0.000000,403.452500,107.262400,0.000000,0.000000,662.461100,951.265400,0.000000,0.000000,-0.097935,-0.100147,-0.103409,-0.103409,0.000000,0.000000,-0.000002,-0.000002,0.000000,0.000000,0.000000,0.000000,0.000000,0.000000,0.103409,0.103409,-0.019714,-0.020853,0.000000,0.000000,-11.737060,-16.070410,0.000000,0.000000,505.027700,526.564500,0.000000,0.000000,0.028502,0.040000,0.071326,0.000000,-0.401802,-0.007013,0.000000,0.000000,3.857850,0.000000,0.000000,0.000000,0.002212,0.000000,-0.151927,0.015599,0.000000,0.000000,NaN,NaN,-5.842865,-6.169968,NaN,NaN,0.018243,0.018243,NaN,NaN,10.101580,0.028380,195.569000,0.000000,-19.749000,0.000000,0.000000,0.000000,0.500000,0.500000,0.000000,0.000000,0.000000,0.000000,0.000000,0.000000,0.018041,0.018041,0.018041,0.018041,0.477560,0.477537
0.490000,0.019,0,-0.006864,-116.317400,-0.015668,0.716691,-0.000498,0.178368,0.104317,-7.842349,1639.636000,1362.402000,0.000000,0.000000,0.055021,0.056692,0.070000,0.070000,0.004979,0.003308,0.000000,0.000000,0.280678,0.285626,0.000000,0.000000,850.458100,559.579500,0.000000,0.000000,841.964200,856.804600,0.000000,0.000000,-0.078399,-0.087767,-0.103409,-0.103409,0.000000,0.000000,-0.000002,-0.000002,0.000000,0.000000,0.000000,0.000000,0.000000,0.000000,0.103409,0.103409,-0.002798,-0.003754,0.000000,0.000000,-26.022290,-21.189010,0.000000,0.000000,116.947300,130.393400,0.000000,0.000000,0.025856,0.040000,0.065611,0.000000,-0.420883,-0.007346,0.000000,0.000000,3.857850,0.000000,0.000000,0.000000,0.002212,0.000000,-0.151927,0.015599,0.000000,0.000000,NaN,NaN,-5.842865,-6.169968,NaN,NaN,0.018243,0.018243,NaN,NaN,10.101580,0.028380,195.569000,0.000000,-19.749000,0.000000,0.000000,0.000000,0.500000,0.500000,0.000000,0.000000,0.000000,0.000000,0.000000,0.000000,0.018041,0.018041,0.018041,0.018041,0.477560,0.477537
0.500000,0.020,0,-0.004386,-132.546500,-0.008302,0.216283,0.008858,0.122805,0.098563,-7.012131,2234.258000,1982.693000,0.000000,0.000000,0.052053,0.053640,0.070000,0.070000,0.007947,0.006360,0.000000,0.000000,0.304073,0.315115,0.000000,0.000000,1357.156000,1076.108000,0.000000,0.000000,912.130200,945.252200,0.000000,0.000000,-0.053288,-0.065669,-0.103409,-0.103409,0.000000,0.000000,-0.000002,-0.000002,0.000000,0.000000,0.000000,0.000000,0.000000,0.000000,0.103409,0.103409,-0.001442,-0.002127,0.000000,0.000000,-35.043130,-31.628440,0.000000,0.000000,82.151190,107.509000,0.000000,0.000000,0.022846,0.040000,0.065611,0.000000,-0.412491,-0.007199,0.000000,0.000000,3.792188,0.000000,0.000000,0.000000,0.012381,0.000000,-0.086769,0.007824,0.000000,0.000000,NaN,NaN,-0.488593,-0.702448,NaN,NaN,0.019852,0.019852,NaN,NaN,10.101660,0.022414,195.570600,0.000000,-19.749000,0.000000,0.000000,0.000000,0.500000,0.500000,0.000000,0.000000,0.000000,0.000000,0.000000,0.000000,0.019730,0.019730,0.019730,0.019730,0.497519,0.497494
0.510000,0.020,0,-0.004386,-132.546500,-0.008302,0.216283,0.008858,0.100476,0.087853,-6.242852,2779.820000,2565.859000,0.000000,0.000000,0.048993,0.050432,0.070000,0.070000,0.011007,0.009568,0.000000,0.000000,0.304326,0.321537,0.000000,0.000000,1878.920000,1619.427000,0.000000,0.000000,912.882900,964.509800,0.000000,0.000000,-0.021111,-0.035926,-0.103409,-0.103409,0.000000,0.000000,-0.000002,-0.000002,0.000000,0.000000,0.000000,0.000000,0.000000,0.000000,0.103409,0.103409,-0.000970,-0.001298,0.000000,0.000000,-43.501700,-40.705020,0.000000,0.000000,68.731070,84.923280,0.000000,0.000000,0.019713,0.040000,0.059347,0.000000,-0.374649,-0.006539,0.000000,0.000000,3.792188,0.000000,0.000000,0.000000,0.012381,0.000000,-0.086769,0.007824,0.000000,0.000000,NaN,NaN,-0.488593,-0.702448,NaN,NaN,0.019852,0.019852,NaN,NaN,10.101660,0.022414,195.570600,0.000000,-19.749000,0.000000,0.000000,0.000000,0.500000,0.500000,0.000000,0.000000,0.000000,0.000000,0.000000,0.000000,0.019730,0.019730,0.019730,0.019730,0.497519,0.497494
0.520000,0.020,0,-0.004386,-132.546500,-0.008302,0.216283,0.008858,0.072269,0.032195,-5.576780,3244.549000,3076.832000,0.000000,0.000000,0.046060,0.047295,0.070000,0.070000,0.013940,0.012705,0.000000,0.000000,0.283599,0.305951,0.000000,0.000000,2378.139000,2151.726000,0.000000,0.000000,850.707200,917.755400,0.000000,0.000000,0.016840,0.000261,-0.103409,-0.103409,0.000000,0.000000,-0.000002,-0.000002,0.000000,0.000000,0.000000,0.000000,0.000000,0.000000,0.103409,0.103409,-0.000841,-0.000742,0.000000,0.000000,-49.365060,-47.947220,0.000000,0.000000,69.546440,58.220090,0.000000,0.000000,0.016678,0.040000,0.052339,0.000000,-0.305641,-0.005334,0.000000,0.000000,3.792188,0.000000,0.000000,0.000000,0.016579,0.000000,0.027203,0.015955,0.000000,0.000000,NaN,NaN,-0.312662,-0.272023,NaN,NaN,0.020464,0.020464,NaN,NaN,10.101680,0.015996,195.571100,0.000000,-19.749000,0.000000,0.000000,0.000000,0.500000,0.500000,0.000000,0.000000,0.000000,0.000000,0.000000,0.000000,0.020463,0.020463,0.020463,0.020463,0.517501,0.517475
0.530000,0.021,0,-0.004386,-132.546500,-0.008302,0.216283,0.008858,0.056496,-0.034049,-5.041769,3612.060000,3496.234000,0.000000,0.000000,0.043433,0.044422,0.070000,0.070000,0.016567,0.015578,0.000000,0.000000,0.246987,0.273064,0.000000,0.000000,2824.305000,2640.321000,0.000000,0.000000,740.889600,819.113300,0.000000,0.000000,0.058609,0.040656,-0.103409,-0.103409,0.000000,0.000000,-0.000002,-0.000002,0.000000,0.000000,0.000000,0.000000,0.000000,0.000000,0.103409,0.103409,-0.000687,-0.000116,0.000000,0.000000,-54.049090,-52.513340,0.000000,0.000000,63.296200,10.318890,0.000000,0.000000,0.013928,0.040000,0.048457,0.019782,-0.204125,-0.003563,0.000000,0.000000,3.792188,0.000000,0.000000,0.000000,0.016579,0.000000,0.027203,0.015955,0.000000,0.000000,NaN,NaN,-0.312662,-0.272023,NaN,NaN,0.020464,0.020464,NaN,NaN,10.101680,0.015996,195.571100,0.000000,-19.749000,0.000000,0.000000,0.000000,0.500000,0.500000,0.000000,0.000000,0.000000,0.000000,0.000000,0.000000,0.020463,0.020463,0.020463,0.020463,0.517501,0.517475
0.540000,0.021,0,-0.004386,-132.546500,-0.008302,0.216283,0.008858,0.026108,-0.059704,-4.658478,3864.284000,3803.805000,0.000000,0.000000,0.041256,0.041969,0.070000,0.070000,0.018744,0.018031,0.000000,0.000000,0.196904,0.225201,0.000000,0.000000,3192.931000,3058.634000,0.000000,0.000000,590.666700,675.552200,0.000000,0.000000,0.103399,0.084636,-0.103409,-0.103409,0.000000,0.000000,-0.000002,-0.000002,0.000000,0.000000,0.000000,0.000000,0.000000,0.000000,0.103409,0.103409,-0.000726,0.000357,0.000000,0.000000,-57.027190,-56.308480,0.000000,0.000000,71.496720,-34.606860,0.000000,0.000000,0.011612,0.040000,0.034264,0.019782,-0.069038,-0.001205,0.000000,0.000000,3.792188,0.000000,0.000000,0.000000,0.018763,0.000000,0.176684,0.020203,0.000000,0.000000,NaN,NaN,-0.283954,0.138965,NaN,NaN,0.021379,0.021379,NaN,NaN,10.101680,0.010728,195.570000,0.000000,-19.749000,0.000000,0.000000,0.000000,0.500000,0.500000,0.000000,0.000000,0.000000,0.000000,0.000000,0.000000,0.021196,0.021196,0.021196,0.021196,0.537483,0.537457
0.550000,0.022,0,-0.004386,-132.546500,-0.008302,0.216283,0.008858,-0.713579,-0.078055,-0.449359,4116.000000,4047.696000,2987.431000,2930.216000,0.039491,0.040012,0.065396,0.065917,0.020509,0.019988,0.004604,0.004083,0.174299,0.186190,0.768632,0.780433,3491.662000,3392.552000,782.653000,694.091900,522.869600,558.541100,2305.776000,2341.179000,0.120364,0.120920,0.120403,0.120884,0.000000,0.000000,-139.613200,176.103900,0.000000,0.000000,0.000000,0.000000,0.000000,0.000000,0.000000,0.000000,-0.007252,-0.005864,-0.005684,-0.005684,14.130460,-39.356490,-451.803200,548.210100,760.966100,605.020300,432.844000,424.554100,0.009752,0.035656,0.019782,0.019782,0.000000,0.000000,0.000000,0.000000,3.792188,0.000000,0.000000,0.000000,0.018763,0.000000,0.176684,0.020203,0.000000,0.000000,NaN,NaN,-0.283954,0.138965,NaN,NaN,0.021379,0.021379,NaN,NaN,10.101680,0.010728,195.570000,0.000000,-19.749000,0.000000,0.000000,0.000000,0.500000,0.500000,0.000000,0.000000,0.000000,0.000000,0.000000,0.000000,0.021196,0.021196,0.021196,0.021196,0.537483,0.537457
0.560000,0.024,0,-0.004386,-132.546500,-0.008302,0.216283,0.008858,9.857283,2.467470,1.737823,4513.583000,4077.996000,4552.607000,4126.622000,0.037750,0.038417,0.057460,0.058126,0.022250,0.021583,0.012540,0.011874,0.213370,0.095889,0.850424,0.732899,3789.850000,3661.873000,2131.805000,2018.448000,640.090000,287.658300,2551.196000,2198.630000,0.143111,0.145188,0.142770,0.145534,0.000000,0.000000,475.801400,734.221600,0.000000,0.000000,0.000000,0.000000,0.000000,0.000000,0.000000,0.000000,0.058845,0.060504,0.064701,0.064701,-37.725350,-40.695720,1551.707000,2403.274000,-4540.131000,-4167.878000,-4573.203000,-4209.660000,0.008083,0.027793,0.019782,0.019782,0.000000,0.000000,1.000000,0.000000,3.836742,0.000000,0.000000,-258.420200,-0.002078,-0.002764,0.249723,-0.084044,0.000000,0.000000,0.064109,0.104566,16.208150,15.946800,16.231570,15.975970,0.023729,0.023729,NaN,NaN,10.101600,0.007156,195.567500,0.000000,28.473000,0.000000,0.656000,0.656000,0.000000,0.000000,0.000000,0.886000,0.000000,203.905000,0.000000,200.834000,0.023460,0.023460,0.023460,0.023460,0.557428,0.557399
