TIME,DISTANCE,MARKERS,SPEED,SPEEDANGLE,SPEEDLAT,VELOCITY,YAWRATE,ACCELERATIONLAT,ACCELERATIONLONG,ACCELERATIONVERT,SUSPENSIONLOADFL,SUSPENSIONLOADFR,SUSPENSIONLOADRL,SUSPENSIONLOADRR,SUSPENSIONTRAVELFL,SUSPENSIONTRAVELFR,SUSPENSIONTRAVELRL,SUSPENSIONTRAVELRR,SUSPENSIONCONTACTDEPTHFL,SUSPENSIONCONTACTDEPTHFR,SUSPENSIONCONTACTDEPTHRL,SUSPENSIONCONTACTDEPTHRR,SUSPENSIONCONTACTSPEEDFL,SUSPENSIONCONTACTSPEEDFR,SUSPENSIONCONTACTSPEEDRL,SUSPENSIONCONTACTSPEEDRR,SUSPENSIONSPRINGFORCEFL,SUSPENSIONSPRINGFORCEFR,SUSPENSIONSPRINGFORCERL,SUSPENSIONSPRINGFORCERR,SUSPENSIONDAMPERFORCEFL,SUSPENSIONDAMPERFORCEFR,SUSPENSIONDAMPERFORCERL,SUSPENSIONDAMPERFORCERR,WHEELSPINFL,WHEELSPINFR,WHEELSPINRL,WHEELSPINRR,WHEELSHAFTTORQUEFL,WHEELSHAFTTORQUEFR,WHEELSHAFTTORQUERL,WHEELSHAFTTORQUERR,WHEELBRAKETORQUEFL,WHEELBRAKETORQUEFR,WHEELBRAKETORQUERL,WHEELBRAKETORQUERR,TIRESLIPLONGFL,TIRESLIPLONGFR,TIRESLIPLONGRL,TIRESLIPLONGRR,TIRESLIPLATFL,TIRESLIPLATFR,TIRESLIPLATRL,TIRESLIPLATRR,TIREFORCELONGFL,TIREFORCELONGFR,TIREFORCELONGRL,TIREFORCELONGRR,TIREFORCELATFL,TIREFORCELATFR,TIREFORCELATRL,TIREFORCELATRR,RIDEHEIGHTFRONT,RIDEHEIGHTREAR,ROLLANGLEFRONT,ROLLANGLEREAR,GROUNDSLOPE,GROUNDGRADE,GEAR,STEERINGANGLE,THROTTLE,BRAKEPRESSURE,TORQUEDIFFFRONT,TORQUEDIFFREAR,SPEEDDIFFFRONT,SPEEDDIFFREAR,PITCHRATE,ROLLRATE,SLIPRATIOFL,SLIPRATIOFR,SLIPRATIORL,SLIPRATIORR,SLIPANGLEFL,SLIPANGLEFR,SLIPANGLERL,SLIPANGLERR,LAPDISTANCE,TOTALDISTANCE,FORCEFEEDBACKFORCERATIO,FORCEFEEDBACKDAMPERRATIO,POSITIONX,POSITIONY,POSITIONZ,MOTORRPMFRONT,MOTORRPMREAR,POWERELECTRICALFRONT,POWERELECTRICALREAR,POWERELECTRICALTOTAL,POWERBALANCE,WHEELTORQUEBALANCE,EFFICIENCYFRONT,EFFICIENCYREAR,TORQUEMECHANICALFRONT,TORQUEMECHANICALREAR,TORQUEROTORFRONT,TORQUEROTORREAR,919SPEED,IDRSPEED,919TRAVELEDDISTANCE,IDRTRAVELEDDISTANCE,919TIMEDIFF,IDRTIMEDIFF
0.000000,0.000,0,0.000000,0.000000,0.000000,0.000000,0.000000,0.000000,0.000000,0.000000,0.000000,0.000000,0.000000,0.000000,0.060000,0.060000,0.070000,0.070000,0.000000,0.000000,0.000000,0.000000,0.000000,0.000000,0.000000,0.000000,0.000000,0.000000,0.000000,0.000000,0.000000,0.000000,0.000000,0.000000,0.000000,0.000000,0.000000,0.000000,0.000000,0.000000,0.000000,0.000000,0.000000,0.000000,0.000000,0.000000,0.000000,0.000000,0.000000,0.000000,0.000000,0.000000,0.000000,0.000000,0.000000,0.000000,0.000000,0.000000,0.000000,0.000000,0.000000,0.000000,0.030000,0.040000,0.000000,0.000000,0.224686,0.003922,0.000000,0.000000,1.000000,0.000000,0.000000,0.000000,0.000000,0.000000,0.000000,0.000000,NaN,NaN,NaN,NaN,NaN,NaN,NaN,NaN,0.000000,0.000000,NaN,NaN,10.100000,0.470000,195.560000,0.000000,0.000000,0.000000,0.000000,0.000000,0.500000,0.500000,0.000000,0.000000,0.000000,0.000000,0.000000,0.000000,0.000000,0.000000,0.000000,0.000000,0.000000,0.000000
0.100000,0.000,0,0.000000,0.000000,0.000000,0.981000,0.000000,0.000000,0.000000,-9.810000,0.000000,0.000000,0.000000,0.000000,0.060000,0.060000,0.070000,0.070000,0.000000,0.000000,0.000000,0.000000,0.000000,0.000000,0.000000,0.000000,0.000000,0.000000,0.000000,0.000000,0.000000,0.000000,0.000000,0.000000,0.000000,0.000000,0.000000,0.000000,0.000000,0.000000,0.000000,0.000000,0.000000,0.000000,0.000000,0.000000,0.000000,0.000000,0.000000,0.000000,0.000000,0.000000,0.000000,0.000000,0.000000,0.000000,0.000000,0.000000,0.000000,0.000000,0.000000,0.000000,0.030000,0.040000,0.000000,0.000000,0.224686,0.003922,0.000000,0.000000,1.000000,0.000000,0.000000,0.000000,0.000000,0.000000,0.000000,0.000000,NaN,NaN,NaN,NaN,NaN,NaN,NaN,NaN,0.000000,0.000000,NaN,NaN,10.100000,0.371900,195.560000,0.000000,0.000000,0.000000,0.000000,0.000000,0.500000,0.500000,0.000000,0.000000,0.000000,0.000000,0.000000,0.000000,0.000000,0.000000,0.000000,0.000000,0.000000,0.000000
0.200000,0.000,0,-0.001263,180.000000,0.000000,1.962747,0.000000,0.000000,-0.013195,-9.817469,0.000000,0.000000,0.000000,0.000000,0.060000,0.060000,0.070000,0.070000,0.000000,0.000000,0.000000,0.000000,0.000000,0.000000,0.000000,0.000000,0.000000,0.000000,0.000000,0.000000,0.000000,0.000000,0.000000,0.000000,0.000000,0.000000,0.000000,0.000000,0.000000,0.000000,0.000000,0.000000,0.000000,0.000000,0.000000,0.000000,0.000000,0.000000,0.000000,0.000000,0.000000,0.000000,0.000000,0.000000,0.000000,0.000000,0.000000,0.000000,0.000000,0.000000,0.000000,0.000000,0.030000,0.040000,0.000000,0.000000,0.221420,0.003865,0.000000,0.000000,1.000000,0.000000,0.000000,0.000000,0.000000,0.000000,-0.000571,0.000000,NaN,NaN,NaN,NaN,NaN,NaN,NaN,NaN,0.000000,0.000000,NaN,NaN,10.100000,0.175554,195.560200,0.000000,0.000000,0.000000,0.000000,0.000000,0.500000,0.500000,0.000000,0.000000,0.000000,0.000000,0.000000,0.000000,0.000000,0.000000,0.000000,0.000000,0.100000,0.100000
0.300000,0.000,0,-0.005873,180.000000,0.000000,2.946713,0.000000,0.000000,-0.051711,-9.839598,0.000000,0.000000,0.000000,0.000000,0.060000,0.060000,0.070000,0.070000,0.000000,0.000000,0.000000,0.000000,0.000000,0.000000,0.000000,0.000000,0.000000,0.000000,0.000000,0.000000,0.000000,0.000000,0.000000,0.000000,0.000000,0.000000,0.000000,0.000000,0.000000,0.000000,0.000000,0.000000,0.000000,0.000000,0.000000,0.000000,0.000000,0.000000,0.000000,0.000000,0.000000,0.000000,0.000000,0.000000,0.000000,0.000000,0.000000,0.000000,0.000000,0.000000,0.000000,0.000000,0.030000,0.040000,0.000000,0.000000,0.205010,0.003578,0.000000,0.000000,1.000000,0.000000,0.000000,0.000000,0.000000,0.000000,-0.002863,0.000000,NaN,NaN,NaN,NaN,NaN,NaN,NaN,NaN,0.000168,0.000168,NaN,NaN,10.100000,-0.119474,195.561000,0.000000,0.000000,0.000000,0.000000,0.000000,0.500000,0.500000,0.000000,0.000000,0.000000,0.000000,0.000000,0.000000,0.000000,0.000000,0.000000,0.000000,0.200000,0.200000
0.400000,0.001,0,-0.018964,-180.000000,0.000000,0.018964,0.000000,0.000000,-0.120799,29.467110,12000.000000,12000.000000,14000.000000,14000.000000,0.000000,0.000000,0.000000,0.000000,0.060000,0.060000,0.070000,0.070000,0.600002,0.600002,0.700001,0.700001,10200.000000,10200.000000,11900.000000,11900.000000,1800.005000,1800.005000,2100.002000,2100.002000,-0.018964,-0.018964,-0.018964,-0.018964,0.000000,0.000000,0.289898,0.289898,0.000000,0.000000,0.000000,0.000000,0.000000,0.000000,0.000000,0.000000,0.000109,-0.000109,0.000000,0.000000,2.370478,2.370478,3.336842,3.336842,-0.667765,0.668074,0.000180,0.000180,-0.030000,-0.030000,0.000000,0.000000,0.000000,0.000000,0.000000,0.000000,1.000000,0.000000,0.000000,0.000000,0.000000,0.000000,0.000000,0.000000,0.000000,0.000000,0.000038,0.000038,0.001286,-0.001286,0.000000,0.000000,0.001022,0.001022,NaN,NaN,10.100000,-0.029999,195.562700,0.000000,-5.767000,0.000000,0.000000,0.000000,0.500000,0.000000,0.000000,0.000000,0.000000,0.000000,0.000000,0.193000,0.000168,0.000168,0.000168,0.000168,0.299996,0.299996
0.500000,0.003,0,0.261625,0.000000,0.000000,3.285675,0.000000,0.000002,2.805349,32.738140,13440.640000,13440.640000,14860.450000,14860.450000,0.092233,0.092233,-0.098964,-0.098964,-0.032233,-0.032233,0.168964,0.168964,-0.922328,-0.922329,0.989638,0.989637,0.000000,0.000000,11900.000000,11900.000000,-2759.195000,-2759.197000,2960.557000,2960.555000,0.413069,0.413069,0.413076,0.413076,0.000000,0.000000,-6.683709,-6.683709,0.000000,0.000000,0.000000,0.000000,0.000000,0.000000,0.000000,0.000000,-0.002371,0.002372,0.000000,0.000000,-54.004110,-54.004110,-76.337890,-76.337890,16.246960,-16.251690,-0.002898,-0.002898,0.062232,-0.128963,0.000000,0.000000,0.000000,0.000000,0.000000,0.000000,1.000000,0.000000,0.000000,0.000000,0.000000,0.000000,0.750492,-0.000001,0.000000,0.000000,-0.000807,-0.000807,-0.029269,0.029278,0.000005,0.000005,0.002686,0.002686,NaN,NaN,10.100000,0.393864,195.522700,0.000000,127.200000,0.000000,0.000000,0.000000,0.500000,0.000000,0.000000,0.000000,0.000000,0.000000,0.000000,-4.466000,0.001022,0.001022,0.001022,0.001022,0.399975,0.399974
0.600000,0.043,0,-0.004253,-179.980200,-0.000002,2.323220,0.000000,-0.000002,-0.936404,-9.612417,0.000000,0.000000,0.000000,0.000000,0.060000,0.060000,0.070000,0.070000,0.000000,0.000000,0.000000,0.000000,0.000000,0.000000,0.000000,0.000000,0.000000,0.000000,0.000000,0.000000,0.000000,0.000000,0.000000,0.000000,0.413069,0.413069,0.400938,0.400938,0.000000,0.000000,-0.455189,-0.455189,0.000000,0.000000,0.000000,0.000000,-0.413069,-0.413069,-0.400938,-0.400938,0.000000,0.000000,0.000000,0.000000,0.000000,0.000000,0.000000,0.000000,0.000000,0.000000,0.000000,0.000000,0.030000,0.040000,0.000000,0.000000,1.516571,0.026475,0.000000,0.000000,1.000000,0.000000,0.000000,0.000000,0.000000,0.000000,-0.525016,0.000006,NaN,NaN,NaN,NaN,NaN,NaN,NaN,NaN,0.042679,0.042679,NaN,NaN,10.100000,0.559142,195.554500,0.000000,76.573000,0.000000,0.000000,0.000000,0.500000,0.000000,0.000000,0.000000,0.000000,0.000000,0.000000,-0.796000,0.002686,0.002686,0.002686,0.002686,0.499935,0.499931
0.700000,0.074,0,-0.104702,-180.000000,-0.000002,1.338747,0.000000,0.000011,0.222083,-9.851051,0.000000,0.000000,0.000000,0.000000,0.060000,0.060000,0.070000,0.070000,0.000000,0.000000,0.000000,0.000000,0.000000,0.000000,0.000000,0.000000,0.000000,0.000000,0.000000,0.000000,0.000000,0.000000,0.000000,0.000000,0.413069,0.413069,0.337243,0.337243,0.000000,0.000000,-2.388535,-2.388535,0.000000,0.000000,0.000000,0.000000,-0.413069,-0.413069,-0.337243,-0.337243,0.000000,0.000000,0.000000,0.000000,0.000000,0.000000,0.000000,0.000000,0.000000,0.000000,0.000000,0.000000,0.030000,0.040000,0.000000,0.000000,-1.510010,-0.026361,0.000000,0.000000,1.000000,0.000000,0.000000,0.000000,0.000000,0.000000,-0.528236,0.000006,NaN,NaN,NaN,NaN,NaN,NaN,NaN,NaN,0.074493,0.074493,NaN,NaN,10.100000,0.626955,195.590800,0.000000,64.408000,0.000000,0.000000,0.000000,0.500000,0.000000,0.000000,0.000000,0.000000,0.000000,0.000000,-0.796000,0.042679,0.042679,0.042679,0.042679,0.598959,0.598906
0.800000,0.111,0,-0.096121,-180.000000,-0.000001,0.361146,0.000000,0.000017,0.790453,-9.791188,0.000000,0.000000,0.000000,0.000000,0.060000,0.060000,0.070000,0.070000,0.000000,0.000000,0.000000,0.000000,0.000000,0.000000,0.000000,0.000000,0.000000,0.000000,0.000000,0.000000,0.000000,0.000000,0.000000,0.000000,0.413069,0.413069,0.273549,0.273549,0.000000,0.000000,-2.388535,-2.388535,0.000000,0.000000,0.000000,0.000000,-0.413069,-0.413069,-0.273549,-0.273549,0.000000,0.000000,0.000000,0.000000,0.000000,0.000000,0.000000,0.000000,0.000000,0.000000,0.000000,0.000000,0.030000,0.040000,0.000000,0.000000,-4.542679,-0.079451,0.000000,0.000000,1.000000,0.000000,0.000000,0.000000,0.000000,0.000000,-0.529305,0.000006,NaN,NaN,NaN,NaN,NaN,NaN,NaN,NaN,0.110764,0.110764,NaN,NaN,10.100000,0.598077,195.630800,0.000000,52.244000,0.000000,0.000000,0.000000,0.500000,0.000000,0.000000,0.000000,0.000000,0.000000,0.000000,-0.796000,0.074493,0.074493,0.074493,0.074493,0.698183,0.698090
0.900000,0.151,0,0.018559,-180.000000,0.000001,0.629761,0.000000,0.000023,1.329651,-9.720325,0.000000,0.000000,0.000000,0.000000,0.060000,0.060000,0.070000,0.070000,0.000000,0.000000,0.000000,0.000000,0.000000,0.000000,0.000000,0.000000,0.000000,0.000000,0.000000,0.000000,0.000000,0.000000,0.000000,0.000000,0.413069,0.413069,0.209855,0.209855,0.000000,0.000000,-2.388535,-2.388535,0.000000,0.000000,0.000000,0.000000,-0.413069,-0.413069,-0.209855,-0.209855,0.000000,0.000000,0.000000,0.000000,0.000000,0.000000,0.000000,0.000000,0.000000,0.000000,0.000000,0.000000,0.029998,0.040000,0.000000,0.000000,-7.575821,-0.132999,0.000000,0.000000,1.000000,0.000000,0.000000,0.000000,0.000000,0.000000,-0.529383,0.000006,NaN,NaN,NaN,NaN,NaN,NaN,NaN,NaN,0.150787,0.150787,NaN,NaN,10.100000,0.472936,195.674200,0.000000,40.079000,0.000000,0.000000,0.000000,0.500000,0.000000,0.000000,0.000000,0.000000,0.000000,0.000000,-0.796000,0.110764,0.110764,0.110764,0.110764,0.797299,0.797160
1.000000,0.194,0,0.235716,-180.000000,0.000004,1.608830,0.000000,0.000029,1.838601,-9.638461,0.000000,0.000000,0.000000,0.000000,0.060000,0.060000,0.070000,0.070000,0.000000,0.000000,0.000000,0.000000,0.000000,0.000000,0.000000,0.000000,0.000000,0.000000,0.000000,0.000000,0.000000,0.000000,0.000000,0.000000,0.413069,0.413069,0.146161,0.146161,0.000000,0.000000,-2.388535,-2.388535,0.000000,0.000000,0.000000,0.000000,-0.413069,-0.413069,-0.146161,-0.146161,0.000000,0.000000,0.000000,0.000000,0.000000,0.000000,0.000000,0.000000,0.000000,0.000000,0.000000,0.000000,0.030001,0.040000,0.000000,0.000000,-10.610330,-0.187332,0.000000,0.000000,1.000000,0.000000,0.000000,0.000000,0.000000,0.000000,-0.529620,0.000006,NaN,NaN,NaN,NaN,NaN,NaN,NaN,NaN,0.194183,0.194183,NaN,NaN,10.100000,0.251676,195.720900,0.000000,27.914000,0.000000,0.000000,0.000000,0.500000,0.000000,0.000000,0.000000,0.000000,0.000000,0.000000,-0.796000,0.150787,0.150787,0.150787,0.150787,0.896322,0.896134
1.100000,0.241,0,0.551590,-180.000000,0.000008,2.590654,0.000000,0.000035,2.317135,-9.545431,0.000000,0.000000,0.000000,0.000000,0.060000,0.060000,0.070000,0.070000,0.000000,0.000000,0.000000,0.000000,0.000000,0.000000,0.000000,0.000000,0.000000,0.000000,0.000000,0.000000,0.000000,0.000000,0.000000,0.000000,0.413069,0.413069,0.082466,0.082466,0.000000,0.000000,-2.388535,-2.388535,0.000000,0.000000,0.000000,0.000000,-0.413069,-0.413069,-0.082466,-0.082466,0.000000,0.000000,0.000000,0.000000,0.000000,0.000000,0.000000,0.000000,0.000000,0.000000,0.000000,0.000000,0.030002,0.039998,0.000000,0.000000,-13.653700,-0.242918,0.000000,0.000000,1.000000,0.000000,0.000000,0.000000,0.000000,0.000000,-0.531161,0.000006,NaN,NaN,NaN,NaN,NaN,NaN,NaN,NaN,0.240921,0.240921,NaN,NaN,10.100000,-0.065775,195.771400,0.000000,15.749000,0.000000,0.000000,0.000000,0.500000,0.000000,0.000000,0.000000,0.000000,0.000000,0.000000,-0.796000,0.194183,0.194183,0.194183,0.194183,0.995264,0.995021
1.200000,0.291,0,0.097680,180.000000,0.000000,2.048000,-0.000001,0.000007,0.059275,5.433601,6034.496000,6034.503000,0.000000,0.000000,0.189182,0.189181,0.070000,0.070000,-0.129182,-0.129181,0.000000,0.000000,-1.291815,-1.291813,0.000000,0.000000,0.000000,0.000000,0.000000,0.000000,-3867.736000,-3867.729000,0.000000,0.000000,1.229085,1.229086,0.018772,0.018772,0.000000,0.000000,-2.388535,-2.388535,0.000000,0.000000,0.000000,0.000000,0.000000,0.000000,-0.018772,-0.018772,-0.007062,0.007061,0.000000,0.000000,-102.002000,-102.002100,0.000000,0.000000,21.727910,-21.723630,0.000000,0.000000,0.159181,0.040000,0.000000,0.000000,-6.411018,-0.112363,0.000000,0.000000,1.000000,0.000000,0.000000,0.000000,-0.000001,0.000000,1.596435,0.000001,0.000000,0.000000,NaN,NaN,-0.329215,0.329149,NaN,NaN,0.291351,0.291351,NaN,NaN,10.100000,-0.052841,195.638500,0.000000,3.585000,0.000000,0.000000,0.000000,0.500000,0.000000,0.000000,0.000000,0.000000,0.000000,0.000000,-0.796000,0.240921,0.240921,0.240921,0.240921,1.094124,1.093823
1.300000,0.424,0,-0.581271,180.000000,-0.000006,2.190854,-0.000003,-0.000002,-0.905350,-1.240007,6560.628000,6560.503000,0.000000,0.000000,0.312982,0.312986,0.070000,0.070000,-0.252982,-0.252986,0.000000,0.000000,-1.238008,-1.238051,0.000000,0.000000,0.000000,0.000000,0.000000,0.000000,-3619.082000,-3619.207000,0.000000,0.000000,1.602359,1.602363,-0.013075,-0.013075,0.000000,0.000000,-1.194268,-1.194268,0.000000,0.000000,0.000000,0.000000,0.000000,0.000000,0.013075,0.013075,-0.008957,0.009020,0.000000,0.000000,-46.659320,-46.659600,0.000000,0.000000,29.960900,-30.170510,0.000000,0.000000,0.282987,0.039999,0.000000,0.000000,7.087250,0.124331,0.000000,0.000000,1.000000,0.000000,0.000000,0.000000,-0.000003,0.000000,2.896850,-0.000029,0.000000,0.000000,NaN,NaN,-0.320283,0.322529,NaN,NaN,0.424164,0.424164,NaN,NaN,10.100000,0.101104,195.516100,0.000000,-2.497000,0.000000,0.000000,0.000000,0.500000,0.000000,0.000000,0.000000,0.000000,0.000000,0.000000,0.000000,0.291351,0.291351,0.291351,0.291351,1.192894,1.192530
1.400000,0.547,0,-0.006406,-0.132704,-0.000308,0.104957,0.000000,-0.063104,-0.548596,22.950710,0.000000,0.000000,15468.850000,15579.520000,0.060000,0.060000,-0.059367,-0.063064,0.000000,0.000000,0.129367,0.133064,0.000000,0.000000,1.293674,1.330642,0.000000,0.000000,11900.000000,11900.000000,0.000000,0.000000,3873.045000,3983.721000,1.602359,1.602363,-0.000021,-0.000021,0.000000,0.000000,-0.199560,-0.199560,0.000000,0.000000,0.000000,0.000000,-1.602359,-1.602363,0.000000,0.000000,0.000000,0.000000,0.000000,0.000000,0.000000,0.000000,-2.297020,-2.297020,0.000000,0.000000,-0.000413,-0.000416,0.030000,-0.091216,0.000000,-0.300666,-6.486633,-0.113699,0.000000,0.000000,1.000000,0.000000,0.000000,0.000000,-0.000003,0.000000,-0.000854,-0.000006,NaN,NaN,-0.000025,-0.000025,NaN,NaN,0.000001,0.000001,0.546631,0.546631,NaN,NaN,10.106280,-0.238279,195.656400,0.000000,1.472000,0.000000,0.000000,0.000000,0.500000,0.000000,0.000000,0.000000,0.000000,0.000000,0.000000,-0.133000,0.424164,0.424164,0.424164,0.424164,1.289655,1.289124
1.500000,0.687,0,-0.321001,2.618232,0.001526,2.587486,-0.001337,0.015269,-3.069410,24.634860,19680.630000,19680.880000,7433.486000,7323.875000,-0.259731,-0.259739,0.090109,0.090101,0.319731,0.319739,-0.020109,-0.020101,3.197305,3.197389,-1.494762,-1.531646,10200.000000,10200.000000,0.000000,0.000000,9501.591000,9501.840000,-4442.059000,-4551.670000,-0.582664,-0.580673,-0.582615,-0.580742,0.000000,0.000000,7.335260,7.194847,0.000000,0.000000,0.000000,0.000000,0.000000,0.000000,0.000000,0.000000,-0.007150,-0.013784,-0.007056,-0.007056,273.127900,272.879400,101.293100,100.591000,59.107630,113.989500,26.740920,26.346730,-0.289733,0.060106,0.000000,0.000000,0.000000,0.000000,0.000000,0.000000,1.000000,0.000000,0.000000,0.140413,-0.001991,-0.001872,-1.391869,0.017156,0.000000,0.000000,0.001529,0.001519,-0.104620,-0.201688,-0.069025,-0.068646,0.687106,0.687106,NaN,NaN,10.104140,-0.025102,195.700400,0.000000,-172.902000,0.000000,0.000000,0.000000,0.500000,0.000000,0.000000,0.000000,0.000000,0.000000,0.000000,5.646000,0.546631,0.546631,0.546631,0.546631,1.386667,1.385984
1.600000,0.731,0,1.558910,4.822474,0.007036,4.241295,0.011293,0.116614,6.910803,15.067970,0.000000,0.000000,0.000000,0.000000,0.511091,0.508213,0.070000,0.070000,-0.451091,-0.448213,0.000000,0.000000,-7.708212,-7.679523,0.000000,0.000000,0.000000,0.000000,0.000000,0.000000,-14800.750000,-14801.900000,0.000000,0.000000,-0.496345,-0.494355,-0.647642,-0.647642,0.000000,0.000000,-2.438546,-2.508750,0.000000,0.000000,0.000000,0.000000,3.973270,3.955329,0.647642,0.647642,-0.005963,0.031843,0.000000,0.000000,-10.789930,-10.789720,0.000000,0.000000,0.000000,0.000000,0.000000,0.000000,0.479650,0.039996,-0.139882,0.019782,7.431557,0.130437,0.000000,0.000000,1.000000,0.000000,0.000000,0.070205,-0.001990,0.000000,4.663901,0.043018,-1.155167,-1.155307,NaN,NaN,-0.098269,0.527147,NaN,NaN,0.731164,0.731164,NaN,NaN,10.102930,0.998406,195.478000,0.000000,-123.690000,0.000000,0.000000,0.000000,0.500000,0.000000,0.000000,0.000000,0.000000,0.000000,0.000000,0.000000,0.687106,0.687106,0.687106,0.687106,1.483241,1.482382
1.700000,0.954,0,1.428807,0.702208,0.004279,1.592289,-0.001276,0.159619,-10.431660,-27.436530,0.000000,0.000000,0.000000,0.000000,0.060000,0.060000,0.070000,0.070000,0.000000,0.000000,0.000000,0.000000,0.000000,0.000000,0.000000,0.000000,0.000000,0.000000,0.000000,0.000000,0.000000,0.000000,0.000000,0.000000,-0.496345,-0.494355,-0.647642,-0.647642,0.000000,0.000000,0.000000,0.000000,0.000000,0.000000,0.000000,0.000000,0.496345,0.494355,0.647642,0.647642,0.000000,0.000000,0.000000,0.000000,0.000000,0.000000,0.000000,0.000000,0.000000,0.000000,0.000000,0.000000,0.030000,0.039999,0.000000,0.000000,33.163320,0.653468,0.000000,0.000000,1.000000,0.000000,0.000000,0.000000,-0.001990,0.000000,2.458155,0.055808,NaN,NaN,NaN,NaN,NaN,NaN,NaN,NaN,0.953580,0.953580,NaN,NaN,10.101930,1.470789,195.406600,0.000000,-123.690000,0.000000,0.000000,0.000000,0.500000,0.500000,0.000000,0.000000,0.000000,0.000000,0.000000,0.000000,0.731164,0.731164,0.731164,0.731164,1.582167,1.581252
1.800000,1.025,0,0.835220,0.421044,0.011348,0.900212,-0.001286,0.106898,-7.216112,-6.698025,0.000000,0.000000,0.000000,0.000000,0.060000,0.060000,0.070000,0.070000,0.000000,0.000000,0.000000,0.000000,0.000000,0.000000,0.000000,0.000000,0.000000,0.000000,0.000000,0.000000,0.000000,0.000000,0.000000,0.000000,-0.496345,-0.494355,-0.647642,-0.647642,0.000000,0.000000,0.000000,0.000000,0.000000,0.000000,0.000000,0.000000,0.496345,0.494355,0.647642,0.647642,0.000000,0.000000,0.000000,0.000000,0.000000,0.000000,0.000000,0.000000,0.000000,0.000000,0.000000,0.000000,0.029998,0.040008,0.000000,0.000000,47.238600,1.081362,0.000000,0.000000,1.000000,0.000000,0.000000,0.000000,-0.001990,0.000000,2.456662,0.055801,NaN,NaN,NaN,NaN,NaN,NaN,NaN,NaN,1.024952,1.024952,NaN,NaN,10.099080,1.831908,195.416800,0.000000,-123.690000,0.000000,0.000000,0.000000,0.500000,0.500000,0.000000,0.000000,0.000000,0.000000,0.000000,0.000000,0.953580,0.953580,0.953580,0.953580,1.676742,1.675549
1.900000,1.035,0,0.928935,5.432530,0.013969,1.076745,0.022653,0.086104,1.069458,9.112968,0.000000,0.000000,10678.610000,10816.920000,0.060000,0.060000,-0.060832,-0.067884,0.000000,0.000000,0.130832,0.137884,0.000000,0.000000,1.308320,1.378838,0.000000,0.000000,11900.000000,11900.000000,0.000000,0.000000,2565.964000,2704.269000,-0.496345,-0.494355,0.179276,0.759233,0.000000,0.000000,-22.938240,-20.559370,0.000000,0.000000,0.000000,0.000000,0.496345,0.494355,0.611676,0.000000,0.000000,0.000000,-0.022244,-0.022302,0.000000,0.000000,-179.824200,-244.390700,0.000000,0.000000,121.102300,122.993700,0.029991,-0.094351,0.000000,-0.336300,46.400990,1.050140,0.000000,0.000000,1.000000,0.000000,0.000000,-2.378876,-0.001990,-0.579957,0.445064,0.022457,NaN,NaN,0.000000,-0.008645,NaN,NaN,-1.610877,-0.252015,1.035477,1.035477,NaN,NaN,10.087190,1.987725,195.421200,0.000000,308.988000,0.000000,0.000000,0.000000,0.500000,0.000000,0.000000,0.000000,0.000000,0.000000,0.000000,-14.499000,1.024952,1.024952,1.024952,1.024952,1.775001,1.773719
2.000000,1.048,0,0.151075,161.137700,0.041189,0.328123,0.140680,0.178812,-7.660254,-2.753573,0.000000,0.000000,0.000000,0.000000,0.060000,0.060000,0.070000,0.070000,0.000000,0.000000,0.000000,0.000000,0.000000,0.000000,0.000000,0.000000,0.000000,0.000000,0.000000,0.000000,0.000000,0.000000,0.000000,0.000000,-0.496345,-0.494355,0.639670,0.639670,0.000000,0.000000,17.264810,-4.483597,0.000000,0.000000,0.000000,0.000000,0.496345,0.494355,-0.639670,-0.639670,0.000000,0.000000,0.000000,0.000000,0.000000,0.000000,0.000000,0.000000,0.000000,0.000000,0.000000,0.000000,0.030005,0.040014,0.000000,0.000000,48.172390,1.117355,0.000000,0.000000,1.000000,0.000000,0.000000,21.748400,-0.001990,0.000000,-0.214904,-0.112189,NaN,NaN,NaN,NaN,NaN,NaN,NaN,NaN,1.048165,1.048165,NaN,NaN,10.072250,1.991612,195.420600,0.000000,122.168000,0.000000,0.000000,0.000000,0.500000,0.000000,0.000000,0.000000,0.000000,0.000000,0.000000,-0.796000,1.035477,1.035477,1.035477,1.035477,1.874744,1.873449
2.100000,1.063,0,-0.569452,161.049500,0.029077,0.686130,0.140680,-0.172433,-7.143651,-6.723682,0.000000,0.000000,0.000000,0.000000,0.060000,0.060000,0.070000,0.070000,0.000000,0.000000,0.000000,0.000000,0.000000,0.000000,0.000000,0.000000,0.000000,0.000000,0.000000,0.000000,0.000000,0.000000,0.000000,0.000000,-0.496345,-0.494355,0.575976,0.575976,0.000000,0.000000,-2.388535,-2.388535,0.000000,0.000000,0.000000,0.000000,0.496345,0.494355,-0.575976,-0.575976,0.000000,0.000000,0.000000,0.000000,0.000000,0.000000,0.000000,0.000000,0.000000,0.000000,0.000000,0.000000,0.029997,0.039998,0.000000,0.000000,46.947410,1.070397,0.000000,0.000000,1.000000,0.000000,0.000000,0.000000,-0.001990,0.000000,-0.214968,-0.112188,NaN,NaN,NaN,NaN,NaN,NaN,NaN,NaN,1.063123,1.063123,NaN,NaN,10.056840,1.897252,195.420600,0.000000,110.003000,0.000000,0.000000,0.000000,0.500000,0.000000,0.000000,0.000000,0.000000,0.000000,0.000000,-0.796000,1.048165,1.048165,1.048165,1.048165,1.974435,1.973124
2.200000,1.079,0,-1.261458,160.954200,-0.006546,1.661684,0.140685,-0.290232,-7.003363,-6.873841,0.000000,0.000000,0.000000,0.000000,0.060000,0.060000,0.070000,0.070000,0.000000,0.000000,0.000000,0.000000,0.000000,0.000000,0.000000,0.000000,0.000000,0.000000,0.000000,0.000000,0.000000,0.000000,0.000000,0.000000,-0.496345,-0.494355,0.512282,0.512282,0.000000,0.000000,-2.388535,-2.388535,0.000000,0.000000,0.000000,0.000000,0.496345,0.494355,-0.512282,-0.512282,0.000000,0.000000,0.000000,0.000000,0.000000,0.000000,0.000000,0.000000,0.000000,0.000000,0.000000,0.000000,0.030003,0.039993,0.000000,0.000000,45.721940,1.025523,0.000000,0.000000,1.000000,0.000000,0.000000,0.000000,-0.001990,0.000000,-0.215248,-0.112180,NaN,NaN,NaN,NaN,NaN,NaN,NaN,NaN,1.078530,1.078530,NaN,NaN,10.040980,1.704581,195.421500,0.000000,97.838000,0.000000,0.000000,0.000000,0.500000,0.000000,0.000000,0.000000,0.000000,0.000000,0.000000,-0.796000,1.063123,1.063123,1.063123,1.063123,2.074070,2.072741
2.300000,1.094,0,-1.036365,162.695400,0.023731,1.528014,0.214139,0.010238,0.749812,1.125557,0.000000,0.000000,8920.063000,8501.843000,0.060000,0.060000,0.045169,0.062881,0.000000,0.000000,0.024831,0.007119,0.000000,0.000000,0.248308,0.071193,0.000000,0.000000,3322.527000,952.607800,0.000000,0.000000,586.328200,168.107300,-0.496345,-0.494355,-0.725111,-0.425045,0.000000,0.000000,12.776450,35.280470,0.000000,0.000000,0.000000,0.000000,0.496345,0.494355,-0.372540,-0.972659,0.000000,0.000000,0.179127,0.181299,0.000000,0.000000,201.243100,238.748200,0.000000,0.000000,-777.547400,-695.931500,0.030000,0.024025,0.000000,0.725507,37.937450,0.779529,0.000000,0.000000,1.000000,0.000000,0.000000,-22.504020,-0.001990,-0.300066,-0.921191,-0.203273,NaN,NaN,0.000000,0.000000,NaN,NaN,9.268462,7.390685,1.094415,1.094415,NaN,NaN,10.055170,1.399126,195.395800,0.000000,-439.875000,0.000000,0.000000,0.000000,0.500000,0.000000,0.000000,0.000000,0.000000,0.000000,0.000000,16.815000,1.078530,1.078530,1.078530,1.078530,2.173694,2.172345
2.400000,1.124,0,-0.648623,-152.538900,-0.020801,1.225448,-0.179455,-1.104047,1.428811,2.644548,0.000000,0.000000,8336.350000,9985.467000,0.060000,0.060000,0.083594,0.039792,0.000000,0.000000,-0.013594,0.030208,0.000000,0.000000,-0.384252,0.230891,0.000000,0.000000,0.000000,4589.129000,0.000000,0.000000,-1030.130000,618.987700,-0.496345,-0.494355,-1.756527,-1.857769,0.000000,0.000000,18.919740,0.074477,0.000000,0.000000,0.000000,0.000000,0.496345,0.494355,-0.605613,-0.253113,0.000000,0.000000,-0.466804,-0.466185,0.000000,0.000000,204.628600,210.730500,0.000000,0.000000,1868.754000,2184.506000,0.030000,0.031692,0.000000,-1.939468,26.656270,0.501992,0.000000,0.000000,1.000000,0.000000,0.000000,18.845260,-0.001990,0.101242,-1.978647,0.534985,NaN,NaN,0.000000,0.000000,NaN,NaN,-11.178690,-12.453770,1.123716,1.123716,NaN,NaN,10.069770,1.006930,195.368600,0.000000,-628.814000,0.000000,0.000000,0.000000,0.500000,0.000000,0.000000,0.000000,0.000000,0.000000,0.000000,10.734000,1.094415,1.094415,1.094415,1.094415,2.273307,2.271938
2.500000,1.155,0,-0.150375,105.895900,0.088915,0.837355,0.553166,3.281579,1.011840,3.563170,0.000000,0.000000,7642.959000,138.598600,0.060000,0.060000,0.185087,0.395912,0.000000,0.000000,-0.115087,-0.325912,0.000000,0.000000,-1.014923,-3.561204,0.000000,0.000000,0.000000,0.000000,0.000000,0.000000,-2991.167000,-10495.530000,-0.496345,-0.494355,-2.268108,-3.274947,0.000000,0.000000,21.744540,-20.456810,0.000000,0.000000,0.000000,0.000000,0.496345,0.494355,-0.694163,-0.462176,0.000000,0.000000,1.445191,1.459515,0.000000,0.000000,150.717900,108.957900,0.000000,0.000000,-5185.944000,-97.981220,0.029999,0.260500,0.000000,8.655260,12.525200,0.222156,0.000000,0.000000,1.000000,0.000000,0.000000,42.201350,-0.001990,1.006839,-3.554830,-1.719453,NaN,NaN,0.000000,-0.315984,NaN,NaN,26.006170,21.332890,1.154618,1.154618,NaN,NaN,9.943443,0.457216,195.442300,0.000000,-641.623000,0.000000,0.000000,0.000000,0.500000,0.000000,0.000000,0.000000,0.000000,0.000000,0.000000,4.612000,1.123716,1.123716,1.123716,1.123716,2.372592,2.371187
2.600000,1.301,0,0.385623,-7.609399,0.655007,2.673835,0.164839,2.469418,3.454996,-18.334310,0.000000,0.000000,0.000000,0.000000,0.060000,0.060000,0.070000,0.070000,0.000000,0.000000,0.000000,0.000000,0.000000,0.000000,0.000000,0.000000,0.000000,0.000000,0.000000,0.000000,0.000000,0.000000,0.000000,0.000000,-0.496345,-0.494355,-2.891376,-2.891376,0.000000,0.000000,-23.372560,14.383910,0.000000,0.000000,0.000000,0.000000,0.496345,0.494355,2.891376,2.891376,0.000000,0.000000,0.000000,0.000000,0.000000,0.000000,0.000000,0.000000,0.000000,0.000000,0.000000,0.000000,0.030001,0.040000,0.000000,0.000000,-6.646530,-0.116527,0.000000,0.000000,1.000000,0.000000,0.000000,-37.756470,-0.001990,0.000000,-2.142036,4.133606,NaN,NaN,NaN,NaN,NaN,NaN,NaN,NaN,1.300862,1.300862,NaN,NaN,10.154230,-0.087788,195.555600,0.000000,-552.212000,0.000000,0.000000,0.000000,0.500000,0.000000,0.000000,0.000000,0.000000,0.000000,0.000000,0.000000,1.154618,1.154618,1.154618,1.154618,2.471839,2.470394
2.700000,1.540,0,-0.384509,-120.332900,-1.327890,1.592249,-1.158740,-3.055858,-7.934301,16.466000,0.000000,12121.640000,0.000000,0.000000,0.060000,-0.024378,0.070000,0.070000,0.000000,0.084378,0.000000,0.000000,0.000000,0.843785,0.000000,0.000000,0.000000,12000.000000,0.000000,0.000000,0.000000,2318.454000,0.000000,0.000000,-0.496345,0.100790,-2.891376,-2.891376,0.000000,0.000000,0.000000,0.000000,0.000000,0.000000,0.000000,0.000000,0.496345,0.000000,2.891376,2.891376,0.000000,-0.670585,0.000000,0.000000,0.000000,-74.393110,0.000000,0.000000,0.000000,4144.279000,0.000000,0.000000,-0.012189,0.040002,-6.253039,0.000000,-7.946030,-0.139580,0.000000,0.000000,1.000000,0.000000,0.000000,0.000000,-0.597135,0.000000,-0.082952,-3.126591,NaN,0.000000,NaN,NaN,NaN,-81.452340,NaN,NaN,1.540157,1.540157,NaN,NaN,9.767160,-0.295366,195.562800,0.000000,-552.212000,0.000000,0.000000,0.000000,0.500000,0.500000,0.000000,0.000000,0.000000,0.000000,0.000000,0.000000,1.300862,1.300862,1.300862,1.300862,2.568272,2.566645
2.800000,1.927,0,0.021962,-88.448450,-0.644456,1.672170,-0.196800,4.478691,5.443350,25.768620,15943.150000,15785.330000,18993.080000,0.000000,-0.217852,-0.000776,-0.202608,0.070000,0.277852,0.060776,0.272608,0.000000,2.778516,-0.236025,2.726077,0.000000,10200.000000,10200.000000,11900.000000,0.000000,8249.633000,-700.776400,8093.935000,0.000000,-0.011450,0.291447,0.008588,-0.582488,0.000000,0.000000,-130.914000,86.583310,0.000000,0.000000,0.000000,0.000000,0.000000,0.000000,0.000000,0.582488,-0.399299,-0.392220,0.107072,0.000000,-60.611820,-23.832120,-798.875200,0.000000,3245.687000,3156.581000,-772.408100,0.000000,-0.139314,-0.096304,8.299051,12.179520,0.994972,0.017367,0.000000,0.000000,1.000000,0.000000,0.000000,-217.497300,-0.302897,0.591075,0.149852,-1.757151,0.000000,0.000000,-0.014520,NaN,-5.328491,-53.385040,1.547955,NaN,1.927290,1.927290,NaN,NaN,10.048890,-0.008137,195.503700,0.000000,-111.246000,0.000000,0.000000,0.000000,0.500000,0.000000,0.000000,0.000000,0.000000,0.000000,0.000000,-14.776000,1.540157,1.540157,1.540157,1.540157,2.662435,2.660509
2.900000,2.215,0,-0.072218,-96.982170,-3.365502,3.395572,0.408769,-17.352780,-0.546893,8.168442,11260.660000,0.000000,8270.380000,0.000000,0.295273,0.060000,0.174462,0.070000,-0.235273,0.000000,-0.104462,0.000000,-5.131248,0.000000,-3.770693,0.000000,0.000000,0.000000,0.000000,0.000000,-4772.361000,0.000000,-3506.965000,0.000000,-0.091704,0.291447,0.004741,-0.369873,0.000000,0.000000,-15.055260,7.973057,0.000000,0.000000,0.000000,0.000000,0.000000,-0.291447,0.000000,0.369873,-7.778003,0.000000,-8.819616,0.000000,10.031690,0.000000,-282.497800,0.000000,9003.755000,0.000000,6216.000000,0.000000,0.147636,0.092231,-31.221740,-17.010850,0.066963,0.001169,0.000000,0.000000,1.000000,0.000000,0.000000,-23.028320,-0.383151,0.374614,0.869204,13.967010,0.000000,NaN,-3.169325,NaN,-89.324500,NaN,-89.969200,NaN,2.215153,2.215153,NaN,NaN,10.660330,0.708771,195.460600,0.000000,-70.640000,0.000000,0.000000,0.000000,0.500000,0.000000,0.000000,0.000000,0.000000,0.000000,0.000000,7.286000,1.927290,1.927290,1.927290,1.927290,2.752993,2.750582
3.000000,2.828,0,-0.242560,138.540700,-1.685910,2.188930,0.551924,6.270705,0.381418,10.951910,0.000000,0.000000,0.000000,0.000000,0.060000,0.060000,0.070000,0.070000,0.000000,0.000000,0.000000,0.000000,0.000000,0.000000,0.000000,0.000000,0.000000,0.000000,0.000000,0.000000,0.000000,0.000000,0.000000,0.000000,-0.091704,0.291447,-0.220743,-0.220743,0.000000,0.000000,-8.455666,5.592372,0.000000,0.000000,0.000000,0.000000,0.091704,-0.291447,0.220743,0.220743,0.000000,0.000000,0.000000,0.000000,0.000000,0.000000,0.000000,0.000000,0.000000,0.000000,0.000000,0.000000,0.029999,0.040001,0.000000,0.000000,-3.314461,-0.057913,0.000000,0.000000,1.000000,0.000000,0.000000,-14.048040,-0.383151,0.000000,0.442054,9.502189,NaN,NaN,NaN,NaN,NaN,NaN,NaN,NaN,2.828105,2.828105,NaN,NaN,10.548350,1.361446,195.451900,0.000000,-42.158000,0.000000,0.000000,0.000000,0.500000,0.000000,0.000000,0.000000,0.000000,0.000000,0.000000,0.000000,2.215153,2.215153,2.215153,2.215153,2.845972,2.843201
3.100000,2.940,0,-0.135849,-107.112600,-1.415717,1.634075,0.459119,2.702785,0.884918,5.731940,0.000000,0.000000,0.000000,0.000000,0.060000,0.060000,0.070000,0.070000,0.000000,0.000000,0.000000,0.000000,0.000000,0.000000,0.000000,0.000000,0.000000,0.000000,0.000000,0.000000,0.000000,0.000000,0.000000,0.000000,-0.091704,0.291447,-0.220743,-0.220743,0.000000,0.000000,0.000000,0.000000,0.000000,0.000000,0.000000,0.000000,0.091704,-0.291447,0.220743,0.220743,0.000000,0.000000,0.000000,0.000000,0.000000,0.000000,0.000000,0.000000,0.000000,0.000000,0.000000,0.000000,0.030000,0.040003,0.000000,0.000000,-2.834618,-0.049514,0.000000,0.000000,1.000000,0.000000,0.000000,0.000000,-0.383151,0.000000,0.154905,1.228041,NaN,NaN,NaN,NaN,NaN,NaN,NaN,NaN,2.940416,2.940416,NaN,NaN,10.548230,1.564992,195.463500,0.000000,-42.158000,0.000000,0.000000,0.000000,0.500000,0.500000,0.000000,0.000000,0.000000,0.000000,0.000000,0.000000,2.828105,2.828105,2.828105,2.828105,2.931022,2.927485
3.200000,2.952,0,-0.079084,-103.223300,-0.661213,0.700479,0.403492,7.638437,0.481996,5.721522,0.000000,0.000000,0.000000,0.000000,0.060000,0.060000,0.070000,0.070000,0.000000,0.000000,0.000000,0.000000,0.000000,0.000000,0.000000,0.000000,0.000000,0.000000,0.000000,0.000000,0.000000,0.000000,0.000000,0.000000,-0.091704,0.291447,-0.220743,-0.220743,0.000000,0.000000,0.000000,0.000000,0.000000,0.000000,0.000000,0.000000,0.091704,-0.291447,0.220743,0.220743,0.000000,0.000000,0.000000,0.000000,0.000000,0.000000,0.000000,0.000000,0.000000,0.000000,0.000000,0.000000,0.030000,0.039997,0.000000,0.000000,-2.673996,-0.046704,0.000000,0.000000,1.000000,0.000000,0.000000,0.000000,-0.383151,0.000000,0.080440,0.682276,NaN,NaN,NaN,NaN,NaN,NaN,NaN,NaN,2.951968,2.951968,NaN,NaN,10.507000,1.641485,195.465100,0.000000,-42.158000,0.000000,0.000000,0.000000,0.500000,0.500000,0.000000,0.000000,0.000000,0.000000,0.000000,0.000000,2.940416,2.940416,2.940416,2.940416,3.028283,3.024605
3.300000,2.993,0,0.030697,-81.148510,0.042421,0.250156,0.260152,7.034585,0.924052,4.679793,0.000000,0.000000,0.000000,0.000000,0.060000,0.060000,0.070000,0.070000,0.000000,0.000000,0.000000,0.000000,0.000000,0.000000,0.000000,0.000000,0.000000,0.000000,0.000000,0.000000,0.000000,0.000000,0.000000,0.000000,-0.091704,0.291447,-0.220743,-0.220743,0.000000,0.000000,0.000000,0.000000,0.000000,0.000000,0.000000,0.000000,0.091704,-0.291447,0.220743,0.220743,0.000000,0.000000,0.000000,0.000000,0.000000,0.000000,0.000000,0.000000,0.000000,0.000000,0.000000,0.000000,0.030000,0.040001,0.000000,0.000000,-1.384293,-0.024165,0.000000,0.000000,1.000000,0.000000,0.000000,0.000000,-0.383151,0.000000,-0.025444,-0.182637,NaN,NaN,NaN,NaN,NaN,NaN,NaN,NaN,2.993221,2.993221,NaN,NaN,10.484790,1.666071,195.483100,0.000000,-42.158000,0.000000,0.000000,0.000000,0.500000,0.500000,0.000000,0.000000,0.000000,0.000000,0.000000,0.000000,2.951968,2.951968,2.951968,2.951968,3.128001,3.124309
3.400000,3.022,0,0.042792,82.044790,0.376329,0.395194,0.051443,3.185234,0.133339,-3.543952,0.000000,0.000000,0.000000,0.000000,0.060000,0.060000,0.070000,0.070000,0.000000,0.000000,0.000000,0.000000,0.000000,0.000000,0.000000,0.000000,0.000000,0.000000,0.000000,0.000000,0.000000,0.000000,0.000000,0.000000,-0.091704,0.291447,-0.220743,-0.220743,0.000000,0.000000,0.000000,0.000000,0.000000,0.000000,0.000000,0.000000,0.091704,-0.291447,0.220743,0.220743,0.000000,0.000000,0.000000,0.000000,0.000000,0.000000,0.000000,0.000000,0.000000,0.000000,0.000000,0.000000,0.029999,0.039999,0.019782,0.000000,-0.353226,-0.006165,0.000000,0.000000,1.000000,0.000000,0.000000,0.000000,-0.383151,0.000000,-0.034666,-0.282925,NaN,NaN,NaN,NaN,NaN,NaN,NaN,NaN,3.021810,3.021810,NaN,NaN,10.487740,1.569736,195.480700,0.000000,-42.158000,0.000000,0.000000,0.000000,0.500000,0.500000,0.000000,0.000000,0.000000,0.000000,0.000000,0.000000,2.993221,2.993221,2.993221,2.993221,3.226995,3.223251
3.500000,3.026,0,-0.006203,90.736980,0.678665,0.796344,0.000000,3.147380,-0.475984,-2.681818,0.000000,0.000000,0.000000,0.000000,0.060000,0.060000,0.070000,0.070000,0.000000,0.000000,0.000000,0.000000,0.000000,0.000000,0.000000,0.000000,0.000000,0.000000,0.000000,0.000000,0.000000,0.000000,0.000000,0.000000,-0.091704,0.291447,-0.220743,-0.220743,0.000000,0.000000,0.000000,0.000000,0.000000,0.000000,0.000000,0.000000,0.091704,-0.291447,0.220743,0.220743,0.000000,0.000000,0.000000,0.000000,0.000000,0.000000,0.000000,0.000000,0.000000,0.000000,0.000000,0.000000,0.029998,0.039999,0.000000,0.000000,-0.461479,-0.008055,0.000000,0.000000,1.000000,0.000000,0.000000,0.000000,-0.383151,0.000000,-0.082794,-0.530134,NaN,NaN,NaN,NaN,NaN,NaN,NaN,NaN,3.025564,3.025564,NaN,NaN,10.548990,1.419838,195.466700,0.000000,-42.158000,0.000000,0.000000,0.000000,0.500000,0.500000,0.000000,0.000000,0.000000,0.000000,0.000000,0.000000,3.021811,3.021810,3.021811,3.021810,3.326297,3.322518
3.600000,3.088,0,-0.010301,90.686210,0.986578,1.258401,0.000000,3.767827,-0.028919,-2.689978,0.000000,0.000000,0.000000,0.000000,0.060000,0.060000,0.070000,0.070000,0.000000,0.000000,0.000000,0.000000,0.000000,0.000000,0.000000,0.000000,0.000000,0.000000,0.000000,0.000000,0.000000,0.000000,0.000000,0.000000,-0.091704,0.291447,-0.220743,-0.220743,0.000000,0.000000,0.000000,0.000000,0.000000,0.000000,0.000000,0.000000,0.091704,-0.291447,0.220743,0.220743,0.000000,0.000000,0.000000,0.000000,0.000000,0.000000,0.000000,0.000000,0.000000,0.000000,0.000000,0.000000,0.029997,0.039999,0.000000,0.000000,-0.272911,-0.004763,0.000000,0.000000,1.000000,0.000000,0.000000,0.000000,-0.383151,0.000000,-0.140473,-0.893643,NaN,NaN,NaN,NaN,NaN,NaN,NaN,NaN,3.088404,3.088404,NaN,NaN,10.658550,1.224475,195.451700,0.000000,-42.158000,0.000000,0.000000,0.000000,0.500000,0.500000,0.000000,0.000000,0.000000,0.000000,0.000000,0.000000,3.025564,3.025564,3.025564,3.025564,3.426206,3.422421
3.700000,3.199,0,-0.012771,90.693920,1.558141,1.825872,-0.004926,6.635122,-0.014562,-0.668360,0.000000,0.000000,0.000000,0.000000,0.060000,0.060000,0.070000,0.070000,0.000000,0.000000,0.000000,0.000000,0.000000,0.000000,0.000000,0.000000,0.000000,0.000000,0.000000,0.000000,0.000000,0.000000,0.000000,0.000000,-0.091704,0.291447,-0.220743,-0.220743,0.000000,0.000000,0.000000,0.000000,0.000000,0.000000,0.000000,0.000000,0.091704,-0.291447,0.220743,0.220743,0.000000,0.000000,0.000000,0.000000,0.000000,0.000000,0.000000,0.000000,0.000000,0.000000,0.000000,0.000000,0.030002,0.040003,0.000000,0.000000,-0.161842,-0.002825,0.000000,0.000000,1.000000,0.000000,0.000000,0.000000,-0.383151,0.000000,-0.244451,-1.537264,NaN,NaN,NaN,NaN,NaN,NaN,NaN,NaN,3.198992,3.198992,NaN,NaN,10.786160,1.011435,195.432300,0.000000,-42.158000,0.000000,0.000000,0.000000,0.500000,0.500000,0.000000,0.000000,0.000000,0.000000,0.000000,0.000000,3.088404,3.088404,3.088404,3.088404,3.524673,3.520810
3.800000,3.328,0,-0.016139,90.517880,1.600901,2.309297,-0.006939,2.367938,-0.014193,-4.506538,0.000000,0.000000,0.000000,0.000000,0.060000,0.060000,0.070000,0.070000,0.000000,0.000000,0.000000,0.000000,0.000000,0.000000,0.000000,0.000000,0.000000,0.000000,0.000000,0.000000,0.000000,0.000000,0.000000,0.000000,-0.091704,0.291447,-0.220743,-0.220743,0.000000,0.000000,0.000000,0.000000,0.000000,0.000000,0.000000,0.000000,0.091704,-0.291447,0.220743,0.220743,0.000000,0.000000,0.000000,0.000000,0.000000,0.000000,0.000000,0.000000,0.000000,0.000000,0.000000,0.000000,0.029998,0.039999,0.000000,0.000000,0.010231,0.000179,0.000000,0.000000,1.000000,0.000000,0.000000,0.000000,-0.383151,0.000000,-0.368606,-2.298356,NaN,NaN,NaN,NaN,NaN,NaN,NaN,NaN,3.328065,3.328065,NaN,NaN,10.939300,0.708635,195.409500,0.000000,-42.158000,0.000000,0.000000,0.000000,0.500000,0.500000,0.000000,0.000000,0.000000,0.000000,0.000000,0.000000,3.198992,3.198992,3.198992,3.198992,3.621976,3.617975
3.900000,3.483,0,0.000872,-89.966800,-0.299410,2.027891,0.000000,-13.570860,0.182622,0.471063,0.000000,0.000000,0.000000,0.000000,0.060000,0.060000,0.070000,0.070000,0.000000,0.000000,0.000000,0.000000,0.000000,0.000000,0.000000,0.000000,0.000000,0.000000,0.000000,0.000000,0.000000,0.000000,0.000000,0.000000,-0.091704,0.291447,-0.220743,-0.220743,0.000000,0.000000,0.000000,0.000000,0.000000,0.000000,0.000000,0.000000,0.091704,-0.291447,0.220743,0.220743,0.000000,0.000000,0.000000,0.000000,0.000000,0.000000,0.000000,0.000000,0.000000,0.000000,0.000000,0.000000,0.030000,0.040000,0.000000,0.000000,0.138557,0.002418,0.000000,0.000000,1.000000,0.000000,0.000000,0.000000,-0.383151,0.000000,-0.490276,-2.902521,NaN,NaN,NaN,NaN,NaN,NaN,NaN,NaN,3.482885,3.482885,NaN,NaN,11.119260,0.507115,195.379900,0.000000,-42.158000,0.000000,0.000000,0.000000,0.500000,0.500000,0.000000,0.000000,0.000000,0.000000,0.000000,0.000000,3.328065,3.328065,3.328065,3.328065,3.718828,3.714665
4.000000,3.665,0,0.001350,-89.978660,-1.160666,1.682727,0.000000,-3.939564,-0.002339,6.589944,0.000000,0.000000,0.000000,0.000000,0.060000,0.060000,0.070000,0.070000,0.000000,0.000000,0.000000,0.000000,0.000000,0.000000,0.000000,0.000000,0.000000,0.000000,0.000000,0.000000,0.000000,0.000000,0.000000,0.000000,-0.091704,0.291447,-0.220743,-0.220743,0.000000,0.000000,0.000000,0.000000,0.000000,0.000000,0.000000,0.000000,0.091704,-0.291447,0.220743,0.220743,0.000000,0.000000,0.000000,0.000000,0.000000,0.000000,0.000000,0.000000,0.000000,0.000000,0.000000,0.000000,0.030000,0.040002,0.000000,0.000000,0.200043,0.003491,0.000000,0.000000,1.000000,0.000000,0.000000,0.000000,-0.383151,0.000000,-0.418032,-2.483591,NaN,NaN,NaN,NaN,NaN,NaN,NaN,NaN,3.665263,3.665263,NaN,NaN,11.224130,0.462183,195.362400,0.000000,-42.158000,0.000000,0.000000,0.000000,0.500000,0.500000,0.000000,0.000000,0.000000,0.000000,0.000000,0.000000,3.482885,3.482885,3.482885,3.482885,3.815052,3.810695
4.100000,3.772,0,0.006830,-89.745330,-1.169677,1.545713,0.043376,2.403189,-0.047589,-0.921235,0.000000,8559.107000,0.000000,9421.218000,0.060000,-0.130190,0.070000,-0.123399,0.000000,0.190190,0.000000,0.193399,0.000000,1.901900,0.000000,1.933993,0.000000,12000.000000,0.000000,11900.000000,0.000000,3767.934000,0.000000,3831.515000,-0.091704,-0.064178,-0.096642,-0.064872,0.000000,0.000000,4.653789,-7.036529,0.000000,0.000000,0.000000,0.000000,0.091704,0.000000,0.096642,0.000000,0.000000,-0.128033,0.000000,-0.238080,0.000000,44.453110,0.000000,-42.938960,0.000000,558.707200,0.000000,1143.571000,-0.065094,-0.056700,-8.000253,-8.171376,0.077423,0.001351,0.000000,0.000000,1.000000,0.000000,0.000000,11.690320,-0.027526,-0.031770,-0.371284,-1.752139,NaN,0.000000,NaN,-0.001496,NaN,-1.556820,NaN,-3.013953,3.771588,3.771588,NaN,NaN,11.306630,0.405851,195.351300,0.000000,-18.457000,0.000000,0.000000,0.000000,0.500000,0.000000,0.000000,0.000000,0.000000,0.000000,0.000000,-0.794000,3.665263,3.665263,3.665263,3.665263,3.910603,3.906019
4.200000,3.855,0,0.044733,-88.613030,-0.966631,1.348428,-0.027996,5.488290,0.114077,6.365962,0.000000,0.000000,0.000000,0.000000,0.060000,0.284044,0.070000,0.224006,0.000000,-0.224044,0.000000,-0.154006,0.000000,-4.142343,0.000000,-3.474049,0.000000,0.000000,0.000000,0.000000,0.000000,-11886.850000,0.000000,-7858.531000,-0.091704,-0.061323,-0.082657,-0.082343,0.000000,0.000000,0.524420,-0.792924,0.000000,0.000000,0.000000,0.000000,0.091704,0.178329,0.082657,0.233044,0.000000,6.001458,0.000000,6.072066,0.000000,-0.356812,0.000000,-0.459284,0.000000,0.000000,0.000000,0.000000,0.142022,0.117003,14.879460,10.791800,0.763634,0.013329,0.000000,0.000000,1.000000,0.000000,0.000000,1.317344,-0.030380,-0.000315,-1.174582,-9.025274,NaN,-0.249974,NaN,-0.355968,NaN,88.883090,NaN,88.578290,3.854828,3.854828,NaN,NaN,10.974430,0.333088,195.390900,0.000000,-15.786000,0.000000,0.000000,0.000000,0.500000,0.000000,0.000000,0.000000,0.000000,0.000000,0.000000,0.093000,3.771588,3.771588,3.771588,3.771588,4.008010,4.003293
4.300000,4.189,0,0.069457,-86.135480,-1.660890,1.701669,-0.052105,-15.382600,0.357939,-17.061470,0.000000,0.000000,0.000000,0.000000,0.060000,0.060000,0.070000,0.070000,0.000000,0.000000,0.000000,0.000000,0.000000,0.000000,0.000000,0.000000,0.000000,0.000000,0.000000,0.000000,0.000000,0.000000,0.000000,0.000000,-0.091704,-0.061323,-0.082532,-0.082532,0.000000,0.000000,0.004702,-0.007109,0.000000,0.000000,0.000000,0.000000,0.091704,0.061323,0.082532,0.082532,0.000000,0.000000,0.000000,0.000000,0.000000,0.000000,0.000000,0.000000,0.000000,0.000000,0.000000,0.000000,0.029999,0.040000,0.000000,0.000000,-0.076080,-0.001328,0.000000,0.000000,1.000000,0.000000,0.000000,0.011811,-0.030380,0.000000,-1.238077,-6.975981,NaN,NaN,NaN,NaN,NaN,NaN,NaN,NaN,4.189370,4.189370,NaN,NaN,10.731840,0.314086,195.430600,0.000000,-15.762000,0.000000,0.000000,0.000000,0.500000,0.000000,0.000000,0.000000,0.000000,0.000000,0.000000,0.000000,3.854828,3.854828,3.854828,3.854828,4.105980,4.101159
4.400000,4.435,0,-0.020192,-91.128140,-0.181287,0.998006,0.000000,15.150180,-0.914694,10.958550,14530.110000,0.000000,15591.220000,0.000000,-0.334211,0.060000,-0.315387,0.070000,0.394211,0.000000,0.385387,0.000000,3.942107,0.000000,3.853868,0.000000,12000.000000,0.000000,11900.000000,0.000000,7196.923000,0.000000,7035.827000,0.000000,-0.001290,-0.061323,-0.000720,-0.017395,0.000000,0.000000,-3.693253,2.442628,0.000000,0.000000,0.000000,0.000000,0.000000,0.061323,0.000000,0.017395,-0.060226,0.000000,-0.060235,0.000000,-11.301700,0.000000,-22.537310,0.000000,446.154600,0.000000,478.809000,0.000000,-0.167106,-0.152694,15.848730,15.462260,-0.101502,-0.001772,0.000000,0.000000,1.000000,0.000000,0.000000,-6.135880,0.060033,0.016675,-0.140334,-1.223604,0.000000,NaN,-0.000569,NaN,-0.970272,NaN,-1.007138,NaN,4.435201,4.435201,NaN,NaN,10.782110,0.370103,195.423300,0.000000,-3.322000,0.000000,0.000000,0.000000,0.500000,0.000000,0.000000,0.000000,0.000000,0.000000,0.000000,-0.416000,4.189370,4.189370,4.189370,4.189370,4.197821,4.192580
4.500000,4.486,0,-0.011128,-91.516200,-1.615842,2.021290,0.054985,-7.138743,0.090067,7.876171,0.000000,0.000000,0.000000,0.000000,0.225276,0.060000,0.161653,0.070000,-0.165276,0.000000,-0.091653,0.000000,-5.594862,0.000000,-4.770395,0.000000,0.000000,0.000000,0.000000,0.000000,-10953.930000,0.000000,-7241.763000,0.000000,-0.000380,-0.061323,-0.041439,-0.041625,0.000000,0.000000,-1.586259,-0.908625,0.000000,0.000000,0.000000,0.000000,0.078364,0.061323,0.164246,0.041625,-8.314229,0.000000,-8.453824,0.000000,-0.113737,0.000000,-0.197736,0.000000,0.000000,0.000000,0.000000,0.000000,0.112638,0.085827,-10.309240,-6.273293,0.807488,0.014094,0.000000,0.000000,1.000000,0.000000,0.000000,-0.677634,0.060943,0.000187,1.612340,9.336332,-0.110016,NaN,-0.218109,NaN,-89.462610,NaN,-89.167730,NaN,4.486009,4.486009,NaN,NaN,11.374830,0.315296,195.329700,0.000000,-7.949000,0.000000,0.000000,0.000000,0.500000,0.000000,0.000000,0.000000,0.000000,0.000000,0.000000,-0.687000,4.435201,4.435201,4.435201,4.435201,4.291824,4.286277
4.600000,5.086,0,-0.056961,-91.879390,-0.625741,1.865747,0.111363,13.934680,0.134479,-16.980140,0.000000,0.000000,0.000000,0.000000,0.060000,0.060000,0.070000,0.070000,0.000000,0.000000,0.000000,0.000000,0.000000,0.000000,0.000000,0.000000,0.000000,0.000000,0.000000,0.000000,0.000000,0.000000,0.000000,0.000000,-0.000380,-0.061323,-0.041551,-0.041551,0.000000,0.000000,-0.004213,0.002787,0.000000,0.000000,0.000000,0.000000,0.000380,0.061323,0.041551,0.041551,0.000000,0.000000,0.000000,0.000000,0.000000,0.000000,0.000000,0.000000,0.000000,0.000000,0.000000,0.000000,0.030001,0.039999,0.000000,0.000000,0.415924,0.007259,0.000000,0.000000,1.000000,0.000000,0.000000,-0.007000,0.060943,0.000000,0.883640,6.682137,NaN,NaN,NaN,NaN,NaN,NaN,NaN,NaN,5.086069,5.086069,NaN,NaN,11.850290,0.329752,195.264000,0.000000,-7.935000,0.000000,0.000000,0.000000,0.500000,0.000000,0.000000,0.000000,0.000000,0.000000,0.000000,0.000000,4.486009,4.486009,4.486009,4.486009,4.390585,4.384974
4.700000,5.566,0,-0.089122,-94.763870,-0.916444,1.144744,0.294464,1.306342,-0.073439,8.618947,0.000000,8418.939000,0.000000,9735.054000,0.060000,0.036098,0.070000,0.045334,0.000000,0.023902,0.000000,0.024666,0.000000,0.239023,0.000000,0.246656,0.000000,3918.268000,0.000000,3777.812000,0.000000,646.041700,0.000000,666.672800,-0.000380,-0.318856,-0.286641,0.021191,0.000000,0.000000,-9.190879,13.896610,0.000000,0.000000,0.000000,0.000000,0.000380,0.000000,0.286641,-0.370575,0.000000,0.226030,0.000000,-0.522150,0.000000,32.191580,0.000000,38.479270,0.000000,-970.192300,0.000000,2591.598000,0.018049,0.027668,-1.632188,-1.593113,-0.469391,-0.008193,0.000000,0.000000,1.000000,0.000000,0.000000,-23.087490,0.318476,-0.307832,-0.457876,-1.209745,NaN,0.000000,NaN,0.000000,NaN,2.411535,NaN,-56.212500,5.566057,5.566057,NaN,NaN,11.798620,0.212575,195.284700,0.000000,-54.744000,0.000000,0.000000,0.000000,0.500000,0.000000,0.000000,0.000000,0.000000,0.000000,0.000000,1.568000,5.086069,5.086069,5.086069,5.086069,4.475949,4.469588
4.800000,5.622,0,-0.106002,-95.422020,-0.772115,1.008489,-0.229129,3.336777,-0.120273,3.592747,0.000000,3855.018000,0.000000,1521.911000,0.060000,0.256985,0.070000,0.385099,0.000000,-0.196985,0.000000,-0.315099,0.000000,-2.208877,0.000000,-3.397645,0.000000,0.000000,0.000000,0.000000,0.000000,-5980.694000,0.000000,-9199.372000,-0.000380,-0.374332,-0.389585,-0.106372,0.000000,0.000000,-3.860381,5.836895,0.000000,0.000000,0.000000,0.000000,0.000380,0.000000,0.389585,-0.248294,0.000000,5.338861,0.000000,5.925380,0.000000,6.934517,0.000000,46.982040,0.000000,-3555.475000,0.000000,-1576.667000,0.128494,0.197550,14.147350,23.351580,-1.470123,-0.025664,0.000000,0.000000,1.000000,0.000000,0.000000,-9.697276,0.373952,-0.283213,-2.137266,-8.644311,NaN,0.000000,NaN,0.000000,NaN,85.989300,NaN,86.574640,5.621712,5.621712,NaN,NaN,11.413950,0.193403,195.393500,0.000000,-74.405000,0.000000,0.000000,0.000000,0.500000,0.000000,0.000000,0.000000,0.000000,0.000000,0.000000,1.050000,5.566057,5.566057,5.566057,5.566057,4.564243,4.557281
4.900000,6.021,0,-0.171958,-96.638730,-1.253406,1.295929,-0.310234,-5.318043,-1.306395,-9.840801,10180.080000,0.000000,5884.636000,0.000000,0.022601,0.060000,-0.143821,0.070000,0.037399,0.000000,0.213821,0.000000,0.373991,0.000000,2.138209,0.000000,6128.558000,0.000000,11900.000000,0.000000,974.335800,0.000000,5570.539000,0.000000,0.597243,-0.374332,-0.460435,0.440327,0.000000,0.000000,-36.435520,20.501210,0.000000,0.000000,0.000000,0.000000,0.000000,0.374332,1.084357,-0.440327,-0.216188,0.000000,0.579911,0.000000,-74.702830,0.000000,-126.688400,0.000000,1122.059000,0.000000,-1739.863000,0.000000,0.011301,-0.066911,3.586213,9.304849,2.113831,0.036910,0.000000,0.000000,1.000000,0.000000,0.000000,-56.936720,0.971575,-0.900762,0.806855,-1.643636,0.000000,NaN,0.000000,NaN,-19.899050,NaN,42.906270,NaN,6.021492,6.021492,NaN,NaN,11.506210,0.290165,195.316900,0.000000,84.096000,0.000000,0.000000,0.000000,0.500000,0.000000,0.000000,0.000000,0.000000,0.000000,0.000000,-4.589000,5.621712,5.621712,5.621712,5.621712,4.662885,4.655854
5.000000,6.141,0,-0.221519,-100.260900,-1.128954,1.221517,-0.397780,-5.099837,0.391457,6.978320,351.645500,0.000000,3475.260000,0.000000,0.404100,0.060000,0.099952,0.070000,-0.344100,0.000000,-0.029952,0.000000,-3.814992,0.000000,-2.437730,0.000000,0.000000,0.000000,0.000000,0.000000,-10733.940000,0.000000,-6858.844000,0.000000,0.413521,-0.374332,-0.050391,0.285394,0.000000,0.000000,2.784716,-5.809998,0.000000,0.000000,0.000000,0.000000,-0.306409,0.374332,0.164983,-0.285394,-7.523799,0.000000,-6.506051,0.000000,22.965250,0.000000,-71.878360,0.000000,393.739900,0.000000,3199.319000,0.000000,0.202050,0.054978,-22.975640,-3.642929,3.658157,0.063934,0.000000,0.000000,1.000000,0.000000,0.000000,8.594713,0.787853,-0.335785,2.170799,8.161957,0.540334,NaN,0.000000,NaN,-89.184370,NaN,-88.990940,NaN,6.141418,6.141418,NaN,NaN,12.015460,0.313485,195.209900,0.000000,54.506000,0.000000,0.000000,0.000000,0.500000,0.000000,0.000000,0.000000,0.000000,0.000000,0.000000,-1.359000,6.021492,6.021492,6.021492,6.021492,4.753134,4.745603
5.100000,6.662,0,0.041374,-90.235770,-1.085332,1.773476,0.091605,0.942670,2.745321,-11.868400,0.000000,0.000000,0.000000,9276.363000,0.060000,0.060000,0.070000,0.133426,0.000000,0.000000,0.000000,-0.063426,0.000000,0.000000,0.000000,-0.634260,0.000000,0.000000,0.000000,0.000000,0.000000,0.000000,0.000000,-1884.329000,0.413521,-0.374332,-0.694351,0.288316,0.000000,0.000000,-24.148500,36.959610,0.000000,0.000000,0.000000,0.000000,-0.413521,0.374332,0.694351,-1.151108,0.000000,0.000000,0.000000,-0.982630,0.000000,0.000000,0.000000,143.523400,0.000000,0.000000,0.000000,4610.038000,0.030000,0.071713,0.000000,5.798565,-1.241982,-0.021680,0.000000,0.000000,1.000000,0.000000,0.000000,-61.108110,0.787853,-0.982666,-1.236775,-0.266927,NaN,NaN,NaN,0.000000,NaN,NaN,NaN,-48.715430,6.661783,6.661783,NaN,NaN,12.031950,-0.023490,195.296600,0.000000,-132.611000,0.000000,0.000000,0.000000,0.500000,0.000000,0.000000,0.000000,0.000000,0.000000,0.000000,4.211000,6.141418,6.141418,6.141418,6.141418,4.850209,4.842528
5.200000,6.750,0,0.096183,-92.190440,-1.330856,1.380183,-0.708136,3.726260,-0.219706,-1.261547,0.000000,8289.336000,0.000000,6166.717000,0.060000,0.182634,0.070000,0.422009,0.000000,-0.122634,0.000000,-0.352009,0.000000,-1.226341,0.000000,-2.885828,0.000000,0.000000,0.000000,0.000000,0.000000,-1811.756000,0.000000,-4263.428000,0.413521,-1.190467,-1.490235,0.000728,0.000000,0.000000,-29.845660,45.126630,0.000000,0.000000,0.000000,0.000000,-0.413521,0.000000,1.490235,-1.499115,0.000000,4.831912,0.000000,6.615272,0.000000,102.016900,0.000000,223.337800,0.000000,-6475.935000,0.000000,-4758.339000,0.091320,0.216008,12.290580,43.487520,-3.824829,-0.066855,0.000000,0.000000,1.000000,0.000000,0.000000,-74.972290,1.603987,-1.490963,-3.817357,-11.205320,NaN,0.000000,NaN,0.000000,NaN,76.159350,NaN,77.237620,6.750007,6.750007,NaN,NaN,11.550160,0.034868,195.460400,0.000000,-284.613000,0.000000,0.000000,0.000000,0.500000,0.000000,0.000000,0.000000,0.000000,0.000000,0.000000,6.345000,6.661782,6.661783,6.661782,6.661783,4.937517,4.929185
5.300000,7.259,0,-0.453983,-130.997800,-0.125132,0.685600,0.469942,11.004830,-5.227810,-1.326178,0.000000,0.000000,10560.620000,0.000000,0.060000,0.060000,-0.463170,0.070000,0.000000,0.000000,0.533170,0.000000,0.000000,0.000000,5.331703,0.000000,0.000000,0.000000,11900.000000,0.000000,0.000000,0.000000,4700.397000,0.000000,0.413521,-1.190467,-1.132409,0.024058,0.000000,0.000000,-29.949310,0.874878,0.000000,0.000000,0.000000,0.000000,-0.413521,1.190467,1.392181,-0.024058,0.000000,0.000000,-1.443495,0.000000,0.000000,0.000000,-218.751400,0.000000,0.000000,0.000000,6330.688000,0.000000,0.029998,-0.226584,0.000000,20.174490,-8.899818,-0.156593,0.000000,0.000000,1.000000,0.000000,0.000000,-30.824190,1.603987,-1.156467,0.180470,0.403709,NaN,NaN,0.000000,NaN,NaN,NaN,-79.798220,NaN,7.258866,7.258866,NaN,NaN,11.568470,0.225530,195.454800,0.000000,4.594000,0.000000,0.000000,0.000000,0.500000,0.000000,0.000000,0.000000,0.000000,0.000000,0.000000,-5.892000,6.750007,6.750007,6.750007,6.750007,5.035366,5.026923
5.400000,7.278,0,-0.115552,-126.062600,-0.032612,0.196233,0.072654,-0.027933,3.495410,-3.476248,0.000000,0.000000,2155.462000,0.000000,0.060000,0.060000,-0.239374,0.070000,0.000000,0.000000,0.309374,0.000000,0.000000,0.000000,-2.237967,0.000000,0.000000,0.000000,10508.900000,0.000000,0.000000,0.000000,-1341.530000,0.000000,0.413521,-1.190467,-0.072813,0.123713,0.000000,0.000000,-8.650451,3.737070,0.000000,0.000000,0.000000,0.000000,-0.413521,1.190467,0.000000,-0.123713,0.000000,0.000000,-0.220922,0.000000,0.000000,0.000000,-200.808800,0.000000,0.000000,0.000000,242.780400,0.000000,0.030007,-0.114686,0.000000,12.177530,-2.548653,-0.044512,0.000000,0.000000,1.000000,0.000000,0.000000,-12.387520,1.603987,-0.196526,-0.009344,-0.075083,NaN,NaN,-0.016696,NaN,NaN,NaN,-2.474294,NaN,7.277998,7.277998,NaN,NaN,11.600320,0.563957,195.485900,0.000000,23.627000,0.000000,0.000000,0.000000,0.500000,0.000000,0.000000,0.000000,0.000000,0.000000,0.000000,-2.314000,7.258866,7.258866,7.258866,7.258866,5.122955,5.113875
5.500000,7.323,0,-0.053949,-101.604200,-0.060061,0.270915,0.000040,-0.405168,0.618657,1.014044,4717.906000,0.000000,1766.037000,0.000000,-0.595440,0.060000,-0.089750,0.070000,0.655440,0.000000,0.159750,0.000000,6.554396,0.000000,-1.496237,0.000000,12000.000000,0.000000,3701.168000,0.000000,2679.806000,0.000000,-611.746100,0.000000,0.001748,-1.190467,0.001225,0.281075,0.000000,0.000000,-14.922400,5.901060,0.000000,0.000000,0.000000,0.000000,0.000000,1.190467,0.000000,-0.281075,0.012206,0.000000,0.012166,0.000000,51.471530,0.000000,-49.741340,0.000000,-29.360840,0.000000,-10.954280,0.000000,-0.297724,-0.039876,24.214730,6.401839,-0.390923,-0.006823,0.000000,0.000000,1.000000,0.000000,0.000000,-20.823460,1.192215,-0.279850,-0.049611,-0.368383,0.000000,NaN,-0.003640,NaN,0.242063,NaN,0.147591,NaN,7.322524,7.322524,NaN,NaN,11.641860,0.662651,195.487800,0.000000,53.681000,0.000000,0.000000,0.000000,0.500000,0.000000,0.000000,0.000000,0.000000,0.000000,0.000000,-1.067000,7.277997,7.277998,7.277997,7.277998,5.222488,5.213385
5.600000,7.364,0,-0.222310,-117.811900,-0.259400,0.525337,-0.288921,-2.144494,-1.754865,1.360613,1473.556000,0.000000,0.000000,0.000000,-0.197468,0.060000,0.070000,0.070000,0.257468,0.000000,0.000000,0.000000,-3.979721,0.000000,0.000000,0.000000,4224.938000,0.000000,0.000000,0.000000,-979.584300,0.000000,0.000000,0.000000,-0.047521,-1.190467,0.105976,0.105976,0.000000,0.000000,3.928134,-6.566226,0.000000,0.000000,0.000000,0.000000,0.000000,1.190467,-0.105976,-0.105976,-0.353432,0.000000,0.000000,0.000000,6.158676,0.000000,0.000000,0.000000,265.525300,0.000000,0.000000,0.000000,-0.098737,0.040001,10.190460,0.000000,0.155548,0.002715,0.000000,0.000000,1.000000,0.000000,0.000000,10.494360,1.142946,0.000000,0.014013,-0.585553,0.000000,NaN,NaN,NaN,-4.932269,NaN,NaN,NaN,7.364103,7.364103,NaN,NaN,11.713410,0.693882,195.469500,0.000000,20.239000,0.000000,0.000000,0.000000,0.500000,0.000000,0.000000,0.000000,0.000000,0.000000,0.000000,-0.796000,7.322524,7.322524,7.322524,7.322524,5.321402,5.312243
