TIME,DISTANCE,MARKERS,SPEED,SPEEDANGLE,SPEEDLAT,VELOCITY,YAWRATE,ACCELERATIONLAT,ACCELERATIONLONG,ACCELERATIONVERT,SUSPENSIONLOADFL,SUSPENSIONLOADFR,SUSPENSIONLOADRL,SUSPENSIONLOADRR,SUSPENSIONTRAVELFL,SUSPENSIONTRAVELFR,SUSPENSIONTRAVELRL,SUSPENSIONTRAVELRR,SUSPENSIONCONTACTDEPTHFL,SUSPENSIONCONTACTDEPTHFR,SUSPENSIONCONTACTDEPTHRL,SUSPENSIONCONTACTDEPTHRR,SUSPENSIONCONTACTSPEEDFL,SUSPENSIONCONTACTSPEEDFR,SUSPENSIONCONTACTSPEEDRL,SUSPENSIONCONTACTSPEEDRR,SUSPENSIONSPRINGFORCEFL,SUSPENSIONSPRINGFORCEFR,SUSPENSIONSPRINGFORCERL,SUSPENSIONSPRINGFORCERR,SUSPENSIONDAMPERFORCEFL,SUSPENSIONDAMPERFORCEFR,SUSPENSIONDAMPERFORCERL,SUSPENSIONDAMPERFORCERR,WHEELSPINFL,WHEELSPINFR,WHEELSPINRL,WHEELSPINRR,WHEELSHAFTTORQUEFL,WHEELSHAFTTORQUEFR,WHEELSHAFTTORQUERL,WHEELSHAFTTORQUERR,WHEELBRAKETORQUEFL,WHEELBRAKETORQUEFR,WHEELBRAKETORQUERL,WHEELBRAKETORQUERR,TIRESLIPLONGFL,TIRESLIPLONGFR,TIRESLIPLONGRL,TIRESLIPLONGRR,TIRESLIPLATFL,TIRESLIPLATFR,TIRESLIPLATRL,TIRESLIPLATRR,TIREFORCELONGFL,TIREFORCELONGFR,TIREFORCELONGRL,TIREFORCELONGRR,TIREFORCELATFL,TIREFORCELATFR,TIREFORCELATRL,TIREFORCELATRR,RIDEHEIGHTFRONT,RIDEHEIGHTREAR,ROLLANGLEFRONT,ROLLANGLEREAR,GROUNDSLOPE,GROUNDGRADE,GEAR,STEERINGANGLE,THROTTLE,BRAKEPRESSURE,TORQUEDIFFFRONT,TORQUEDIFFREAR,SPEEDDIFFFRONT,SPEEDDIFFREAR,PITCHRATE,ROLLRATE,SLIPRATIOFL,SLIPRATIOFR,SLIPRATIORL,SLIPRATIORR,SLIPANGLEFL,SLIPANGLEFR,SLIPANGLERL,SLIPANGLERR,LAPDISTANCE,TOTALDISTANCE,FORCEFEEDBACKFORCERATIO,FORCEFEEDBACKDAMPERRATIO,POSITIONX,POSITIONY,POSITIONZ,MOTORRPMFRONT,MOTORRPMREAR,POWERELECTRICALFRONT,POWERELECTRICALREAR,POWERELECTRICALTOTAL,POWERBALANCE,WHEELTORQUEBALANCE,EFFICIENCYFRONT,EFFICIENCYREAR,TORQUEMECHANICALFRONT,TORQUEMECHANICALREAR,TORQUEROTORFRONT,TORQUEROTORREAR,919SPEED,IDRSPEED,919TRAVELEDDISTANCE,IDRTRAVELEDDISTANCE,919TIMEDIFF,IDRTIMEDIFF
0.000000,0.000,0,0.000000,0.000000,0.000000,0.000000,0.000000,0.000000,0.000000,0.000000,0.000000,0.000000,0.000000,0.000000,0.060000,0.060000,0.070000,0.070000,0.000000,0.000000,0.000000,0.000000,0.000000,0.000000,0.000000,0.000000,0.000000,0.000000,0.000000,0.000000,0.000000,0.000000,0.000000,0.000000,0.000000,0.000000,0.000000,0.000000,0.000000,0.000000,0.000000,0.000000,0.000000,0.000000,0.000000,0.000000,0.000000,0.000000,0.000000,0.000000,0.000000,0.000000,0.000000,0.000000,0.000000,0.000000,0.000000,0.000000,0.000000,0.000000,0.000000,0.000000,0.030000,0.040000,0.000000,0.000000,0.224686,0.003922,0.000000,0.000000,0.000000,0.000000,0.000000,0.000000,0.000000,0.000000,0.000000,0.000000,NaN,NaN,NaN,NaN,NaN,NaN,NaN,NaN,0.000000,0.000000,NaN,NaN,10.100000,0.470000,195.560000,0.000000,0.000000,0.000000,0.000000,0.000000,0.500000,0.500000,0.000000,0.000000,0.000000,0.000000,0.000000,0.000000,0.000000,0.000000,0.000000,0.000000,0.000000,0.000000
0.010000,0.000,0,0.000000,0.000000,0.000000,0.000000,0.000000,0.000000,-0.000088,-9.810049,0.000000,0.000000,0.000000,0.000000,0.060000,0.060000,0.070000,0.070000,0.000000,0.000000,0.000000,0.000000,0.000000,0.000000,0.000000,0.000000,0.000000,0.000000,0.000000,0.000000,0.000000,0.000000,0.000000,0.000000,0.000000,0.000000,0.000000,0.000000,0.000000,0.000000,0.000000,0.000000,0.000000,0.000000,0.000000,0.000000,0.000000,0.000000,0.000000,0.000000,0.000000,0.000000,0.000000,0.000000,0.000000,0.000000,0.000000,0.000000,0.000000,0.000000,0.000000,0.000000,0.030000,0.040000,0.000000,0.000000,0.224686,0.003922,0.000000,0.000000,0.000000,0.000000,0.000000,0.000000,0.000000,0.000000,0.000000,0.000000,NaN,NaN,NaN,NaN,NaN,NaN,NaN,NaN,0.000000,0.000000,NaN,NaN,10.100000,0.470000,195.560000,0.000000,0.000000,0.000000,0.000000,0.000000,0.500000,0.500000,0.000000,0.000000,0.000000,0.000000,0.000000,0.000000,0.000000,0.000000,0.000000,0.000000,0.000000,0.000000
0.020000,0.000,0,0.000000,0.000000,0.000000,0.000000,0.000000,0.000000,-0.000446,-9.810239,0.000000,0.000000,0.000000,0.000000,0.060000,0.060000,0.070000,0.070000,0.000000,0.000000,0.000000,0.000000,0.000000,0.000000,0.000000,0.000000,0.000000,0.000000,0.000000,0.000000,0.000000,0.000000,0.000000,0.000000,0.000000,0.000000,0.000000,0.000000,0.000000,0.000000,0.000000,0.000000,0.000000,0.000000,0.000000,0.000000,0.000000,0.000000,0.000000,0.000000,0.000000,0.000000,0.000000,0.000000,0.000000,0.000000,0.000000,0.000000,0.000000,0.000000,0.000000,0.000000,0.030000,0.040000,0.000000,0.000000,0.224686,0.003922,0.000000,0.000000,0.000000,0.000000,0.000000,0.000000,0.000000,0.000000,-0.000001,0.000000,NaN,NaN,NaN,NaN,NaN,NaN,NaN,NaN,0.000000,0.000000,NaN,NaN,10.100000,0.467842,195.560000,0.000000,0.000000,0.000000,0.000000,0.000000,0.500000,0.500000,0.000000,0.000000,0.000000,0.000000,0.000000,0.000000,0.000000,0.000000,0.000000,0.000000,0.018000,0.018000
0.030000,0.000,0,0.000000,0.000000,0.000000,0.000000,0.000000,0.000000,-0.001079,-9.810581,0.000000,0.000000,0.000000,0.000000,0.060000,0.060000,0.070000,0.070000,0.000000,0.000000,0.000000,0.000000,0.000000,0.000000,0.000000,0.000000,0.000000,0.000000,0.000000,0.000000,0.000000,0.000000,0.000000,0.000000,0.000000,0.000000,0.000000,0.000000,0.000000,0.000000,0.000000,0.000000,0.000000,0.000000,0.000000,0.000000,0.000000,0.000000,0.000000,0.000000,0.000000,0.000000,0.000000,0.000000,0.000000,0.000000,0.000000,0.000000,0.000000,0.000000,0.000000,0.000000,0.030000,0.040000,0.000000,0.000000,0.224686,0.003922,0.000000,0.000000,0.000000,0.000000,0.000000,0.000000,0.000000,0.000000,-0.000001,0.000000,NaN,NaN,NaN,NaN,NaN,NaN,NaN,NaN,0.000000,0.000000,NaN,NaN,10.100000,0.467842,195.560000,0.000000,0.000000,0.000000,0.000000,0.000000,0.500000,0.500000,0.000000,0.000000,0.000000,0.000000,0.000000,0.000000,0.000000,0.000000,0.000000,0.000000,0.018000,0.018000
0.040000,0.000,0,0.000000,0.000000,0.000000,0.000000,0.000000,0.000000,-0.001986,-9.811073,0.000000,0.000000,0.000000,0.000000,0.060000,0.060000,0.070000,0.070000,0.000000,0.000000,0.000000,0.000000,0.000000,0.000000,0.000000,0.000000,0.000000,0.000000,0.000000,0.000000,0.000000,0.000000,0.000000,0.000000,0.000000,0.000000,0.000000,0.000000,0.000000,0.000000,0.000000,0.000000,0.000000,0.000000,0.000000,0.000000,0.000000,0.000000,0.000000,0.000000,0.000000,0.000000,0.000000,0.000000,0.000000,0.000000,0.000000,0.000000,0.000000,0.000000,0.000000,0.000000,0.030000,0.040000,0.000000,0.000000,0.224686,0.003922,0.000000,0.000000,0.000000,0.000000,0.000000,0.000000,0.000000,0.000000,-0.000011,0.000000,NaN,NaN,NaN,NaN,NaN,NaN,NaN,NaN,0.000000,0.000000,NaN,NaN,10.100000,0.461759,195.560000,0.000000,0.000000,0.000000,0.000000,0.000000,0.500000,0.500000,0.000000,0.000000,0.000000,0.000000,0.000000,0.000000,0.000000,0.000000,0.000000,0.000000,0.038000,0.038000
0.050000,0.000,0,0.000000,0.000000,0.000000,0.000000,0.000000,0.000000,-0.003168,-9.811699,0.000000,0.000000,0.000000,0.000000,0.060000,0.060000,0.070000,0.070000,0.000000,0.000000,0.000000,0.000000,0.000000,0.000000,0.000000,0.000000,0.000000,0.000000,0.000000,0.000000,0.000000,0.000000,0.000000,0.000000,0.000000,0.000000,0.000000,0.000000,0.000000,0.000000,0.000000,0.000000,0.000000,0.000000,0.000000,0.000000,0.000000,0.000000,0.000000,0.000000,0.000000,0.000000,0.000000,0.000000,0.000000,0.000000,0.000000,0.000000,0.000000,0.000000,0.000000,0.000000,0.030000,0.040000,0.000000,0.000000,0.224670,0.003921,0.000000,0.000000,0.000000,0.000000,0.000000,0.000000,0.000000,0.000000,-0.000011,0.000000,NaN,NaN,NaN,NaN,NaN,NaN,NaN,NaN,0.000000,0.000000,NaN,NaN,10.100000,0.461759,195.560000,0.000000,0.000000,0.000000,0.000000,0.000000,0.500000,0.500000,0.000000,0.000000,0.000000,0.000000,0.000000,0.000000,0.000000,0.000000,0.000000,0.000000,0.038000,0.038000
0.060000,0.000,0,0.000000,0.000000,0.000000,0.000000,0.000000,0.000000,-0.004624,-9.812474,0.000000,0.000000,0.000000,0.000000,0.060000,0.060000,0.070000,0.070000,0.000000,0.000000,0.000000,0.000000,0.000000,0.000000,0.000000,0.000000,0.000000,0.000000,0.000000,0.000000,0.000000,0.000000,0.000000,0.000000,0.000000,0.000000,0.000000,0.000000,0.000000,0.000000,0.000000,0.000000,0.000000,0.000000,0.000000,0.000000,0.000000,0.000000,0.000000,0.000000,0.000000,0.000000,0.000000,0.000000,0.000000,0.000000,0.000000,0.000000,0.000000,0.000000,0.000000,0.000000,0.030000,0.040000,0.000000,0.000000,0.224655,0.003921,0.000000,0.000000,0.000000,0.000000,0.000000,0.000000,0.000000,0.000000,-0.000039,0.000000,NaN,NaN,NaN,NaN,NaN,NaN,NaN,NaN,0.000000,0.000000,NaN,NaN,10.100000,0.451752,195.560000,0.000000,0.000000,0.000000,0.000000,0.000000,0.500000,0.500000,0.000000,0.000000,0.000000,0.000000,0.000000,0.000000,0.000000,0.000000,0.000000,0.000000,0.058000,0.058000
0.070000,0.000,0,0.000000,0.000000,0.000000,0.000000,0.000000,0.000000,-0.006353,-9.813428,0.000000,0.000000,0.000000,0.000000,0.060000,0.060000,0.070000,0.070000,0.000000,0.000000,0.000000,0.000000,0.000000,0.000000,0.000000,0.000000,0.000000,0.000000,0.000000,0.000000,0.000000,0.000000,0.000000,0.000000,0.000000,0.000000,0.000000,0.000000,0.000000,0.000000,0.000000,0.000000,0.000000,0.000000,0.000000,0.000000,0.000000,0.000000,0.000000,0.000000,0.000000,0.000000,0.000000,0.000000,0.000000,0.000000,0.000000,0.000000,0.000000,0.000000,0.000000,0.000000,0.030000,0.040000,0.000000,0.000000,0.224625,0.003920,0.000000,0.000000,0.000000,0.000000,0.000000,0.000000,0.000000,0.000000,-0.000039,0.000000,NaN,NaN,NaN,NaN,NaN,NaN,NaN,NaN,0.000000,0.000000,NaN,NaN,10.100000,0.451752,195.560000,0.000000,0.000000,0.000000,0.000000,0.000000,0.500000,0.500000,0.000000,0.000000,0.000000,0.000000,0.000000,0.000000,0.000000,0.000000,0.000000,0.000000,0.058000,0.058000
0.080000,0.000,0,0.000000,0.000000,0.000000,0.000000,0.000000,0.000000,-0.008356,-9.814501,0.000000,0.000000,0.000000,0.000000,0.060000,0.060000,0.070000,0.070000,0.000000,0.000000,0.000000,0.000000,0.000000,0.000000,0.000000,0.000000,0.000000,0.000000,0.000000,0.000000,0.000000,0.000000,0.000000,0.000000,0.000000,0.000000,0.000000,0.000000,0.000000,0.000000,0.000000,0.000000,0.000000,0.000000,0.000000,0.000000,0.000000,0.000000,0.000000,0.000000,0.000000,0.000000,0.000000,0.000000,0.000000,0.000000,0.000000,0.000000,0.000000,0.000000,0.000000,0.000000,0.030000,0.040000,0.000000,0.000000,0.224579,0.003920,0.000000,0.000000,0.000000,0.000000,0.000000,0.000000,0.000000,0.000000,-0.000094,0.000000,NaN,NaN,NaN,NaN,NaN,NaN,NaN,NaN,0.000000,0.000000,NaN,NaN,10.100000,0.437818,195.560000,0.000000,0.000000,0.000000,0.000000,0.000000,0.500000,0.500000,0.000000,0.000000,0.000000,0.000000,0.000000,0.000000,0.000000,0.000000,0.000000,0.000000,0.078000,0.078000
0.090000,0.000,0,0.000000,0.000000,0.000000,0.000000,0.000000,0.000000,-0.010630,-9.815722,0.000000,0.000000,0.000000,0.000000,0.060000,0.060000,0.070000,0.070000,0.000000,0.000000,0.000000,0.000000,0.000000,0.000000,0.000000,0.000000,0.000000,0.000000,0.000000,0.000000,0.000000,0.000000,0.000000,0.000000,0.000000,0.000000,0.000000,0.000000,0.000000,0.000000,0.000000,0.000000,0.000000,0.000000,0.000000,0.000000,0.000000,0.000000,0.000000,0.000000,0.000000,0.000000,0.000000,0.000000,0.000000,0.000000,0.000000,0.000000,0.000000,0.000000,0.000000,0.000000,0.030000,0.040000,0.000000,0.000000,0.224510,0.003918,0.000000,0.000000,0.000000,0.000000,0.000000,0.000000,0.000000,0.000000,-0.000094,0.000000,NaN,NaN,NaN,NaN,NaN,NaN,NaN,NaN,0.000000,0.000000,NaN,NaN,10.100000,0.437818,195.560000,0.000000,0.000000,0.000000,0.000000,0.000000,0.500000,0.500000,0.000000,0.000000,0.000000,0.000000,0.000000,0.000000,0.000000,0.000000,0.000000,0.000000,0.078000,0.078000
0.100000,0.000,0,-0.000440,180.000000,0.000000,0.981239,0.000000,0.000000,-0.013176,-9.817123,0.000000,0.000000,0.000000,0.000000,0.060000,0.060000,0.070000,0.070000,0.000000,0.000000,0.000000,0.000000,0.000000,0.000000,0.000000,0.000000,0.000000,0.000000,0.000000,0.000000,0.000000,0.000000,0.000000,0.000000,0.000000,0.000000,0.000000,0.000000,0.000000,0.000000,0.000000,0.000000,0.000000,0.000000,0.000000,0.000000,0.000000,0.000000,0.000000,0.000000,0.000000,0.000000,0.000000,0.000000,0.000000,0.000000,0.000000,0.000000,0.000000,0.000000,0.000000,0.000000,0.030000,0.040000,0.000000,0.000000,0.224419,0.003917,0.000000,0.000000,0.000000,0.000000,0.000000,0.000000,0.000000,0.000000,-0.000185,0.000000,NaN,NaN,NaN,NaN,NaN,NaN,NaN,NaN,0.000000,0.000000,NaN,NaN,10.100000,0.419957,195.560000,0.000000,0.000000,0.000000,0.000000,0.000000,0.500000,0.500000,0.000000,0.000000,0.000000,0.000000,0.000000,0.000000,0.000000,0.000000,0.000000,0.000000,0.098000,0.098000
0.110000,0.000,0,-0.000440,180.000000,0.000000,0.981239,0.000000,0.000000,-0.015992,-9.818673,0.000000,0.000000,0.000000,0.000000,0.060000,0.060000,0.070000,0.070000,0.000000,0.000000,0.000000,0.000000,0.000000,0.000000,0.000000,0.000000,0.000000,0.000000,0.000000,0.000000,0.000000,0.000000,0.000000,0.000000,0.000000,0.000000,0.000000,0.000000,0.000000,0.000000,0.000000,0.000000,0.000000,0.000000,0.000000,0.000000,0.000000,0.000000,0.000000,0.000000,0.000000,0.000000,0.000000,0.000000,0.000000,0.000000,0.000000,0.000000,0.000000,0.000000,0.000000,0.000000,0.030000,0.040000,0.000000,0.000000,0.224289,0.003915,0.000000,0.000000,0.000000,0.000000,0.000000,0.000000,0.000000,0.000000,-0.000185,0.000000,NaN,NaN,NaN,NaN,NaN,NaN,NaN,NaN,0.000000,0.000000,NaN,NaN,10.100000,0.419957,195.560000,0.000000,0.000000,0.000000,0.000000,0.000000,0.500000,0.500000,0.000000,0.000000,0.000000,0.000000,0.000000,0.000000,0.000000,0.000000,0.000000,0.000000,0.098000,0.098000
0.120000,0.000,0,-0.000440,180.000000,0.000000,0.981239,0.000000,0.000000,-0.019077,-9.820342,0.000000,0.000000,0.000000,0.000000,0.060000,0.060000,0.070000,0.070000,0.000000,0.000000,0.000000,0.000000,0.000000,0.000000,0.000000,0.000000,0.000000,0.000000,0.000000,0.000000,0.000000,0.000000,0.000000,0.000000,0.000000,0.000000,0.000000,0.000000,0.000000,0.000000,0.000000,0.000000,0.000000,0.000000,0.000000,0.000000,0.000000,0.000000,0.000000,0.000000,0.000000,0.000000,0.000000,0.000000,0.000000,0.000000,0.000000,0.000000,0.000000,0.000000,0.000000,0.000000,0.030000,0.040000,0.000000,0.000000,0.224121,0.003912,0.000000,0.000000,0.000000,0.000000,0.000000,0.000000,0.000000,0.000000,-0.000322,0.000000,NaN,NaN,NaN,NaN,NaN,NaN,NaN,NaN,0.000000,0.000000,NaN,NaN,10.100000,0.398166,195.560000,0.000000,0.000000,0.000000,0.000000,0.000000,0.500000,0.500000,0.000000,0.000000,0.000000,0.000000,0.000000,0.000000,0.000000,0.000000,0.000000,0.000000,0.118000,0.118000
0.130000,0.000,0,-0.000440,180.000000,0.000000,0.981239,0.000000,0.000000,-0.022431,-9.822130,0.000000,0.000000,0.000000,0.000000,0.060000,0.060000,0.070000,0.070000,0.000000,0.000000,0.000000,0.000000,0.000000,0.000000,0.000000,0.000000,0.000000,0.000000,0.000000,0.000000,0.000000,0.000000,0.000000,0.000000,0.000000,0.000000,0.000000,0.000000,0.000000,0.000000,0.000000,0.000000,0.000000,0.000000,0.000000,0.000000,0.000000,0.000000,0.000000,0.000000,0.000000,0.000000,0.000000,0.000000,0.000000,0.000000,0.000000,0.000000,0.000000,0.000000,0.000000,0.000000,0.030000,0.040000,0.000000,0.000000,0.223908,0.003908,0.000000,0.000000,0.000000,0.000000,0.000000,0.000000,0.000000,0.000000,-0.000322,0.000000,NaN,NaN,NaN,NaN,NaN,NaN,NaN,NaN,0.000000,0.000000,NaN,NaN,10.100000,0.398166,195.560000,0.000000,0.000000,0.000000,0.000000,0.000000,0.500000,0.500000,0.000000,0.000000,0.000000,0.000000,0.000000,0.000000,0.000000,0.000000,0.000000,0.000000,0.118000,0.118000
0.140000,0.000,0,-0.000440,180.000000,0.000000,0.981239,0.000000,0.000000,-0.026052,-9.824158,0.000000,0.000000,0.000000,0.000000,0.060000,0.060000,0.070000,0.070000,0.000000,0.000000,0.000000,0.000000,0.000000,0.000000,0.000000,0.000000,0.000000,0.000000,0.000000,0.000000,0.000000,0.000000,0.000000,0.000000,0.000000,0.000000,0.000000,0.000000,0.000000,0.000000,0.000000,0.000000,0.000000,0.000000,0.000000,0.000000,0.000000,0.000000,0.000000,0.000000,0.000000,0.000000,0.000000,0.000000,0.000000,0.000000,0.000000,0.000000,0.000000,0.000000,0.000000,0.000000,0.030000,0.040000,0.000000,0.000000,0.223640,0.003903,0.000000,0.000000,0.000000,0.000000,0.000000,0.000000,0.000000,0.000000,-0.000514,0.000000,NaN,NaN,NaN,NaN,NaN,NaN,NaN,NaN,0.000015,0.000015,NaN,NaN,10.100000,0.372442,195.560000,0.000000,0.000000,0.000000,0.000000,0.000000,0.500000,0.500000,0.000000,0.000000,0.000000,0.000000,0.000000,0.000000,0.000015,0.000015,0.000015,0.000015,0.138000,0.138000
0.150000,0.000,0,-0.000440,180.000000,0.000000,0.981239,0.000000,0.000000,-0.029938,-9.826184,0.000000,0.000000,0.000000,0.000000,0.060000,0.060000,0.070000,0.070000,0.000000,0.000000,0.000000,0.000000,0.000000,0.000000,0.000000,0.000000,0.000000,0.000000,0.000000,0.000000,0.000000,0.000000,0.000000,0.000000,0.000000,0.000000,0.000000,0.000000,0.000000,0.000000,0.000000,0.000000,0.000000,0.000000,0.000000,0.000000,0.000000,0.000000,0.000000,0.000000,0.000000,0.000000,0.000000,0.000000,0.000000,0.000000,0.000000,0.000000,0.000000,0.000000,0.000000,0.000000,0.030000,0.040000,0.000000,0.000000,0.223305,0.003897,0.000000,0.000000,0.000000,0.000000,0.000000,0.000000,0.000000,0.000000,-0.000514,0.000000,NaN,NaN,NaN,NaN,NaN,NaN,NaN,NaN,0.000015,0.000015,NaN,NaN,10.100000,0.372442,195.560000,0.000000,0.000000,0.000000,0.000000,0.000000,0.500000,0.500000,0.000000,0.000000,0.000000,0.000000,0.000000,0.000000,0.000015,0.000015,0.000015,0.000015,0.138000,0.138000
0.160000,0.000,0,-0.000440,180.000000,0.000000,0.981239,0.000000,0.000000,-0.034089,-9.828568,0.000000,0.000000,0.000000,0.000000,0.060000,0.060000,0.070000,0.070000,0.000000,0.000000,0.000000,0.000000,0.000000,0.000000,0.000000,0.000000,0.000000,0.000000,0.000000,0.000000,0.000000,0.000000,0.000000,0.000000,0.000000,0.000000,0.000000,0.000000,0.000000,0.000000,0.000000,0.000000,0.000000,0.000000,0.000000,0.000000,0.000000,0.000000,0.000000,0.000000,0.000000,0.000000,0.000000,0.000000,0.000000,0.000000,0.000000,0.000000,0.000000,0.000000,0.000000,0.000000,0.030000,0.040000,0.000000,0.000000,0.222893,0.003890,0.000000,0.000000,0.000000,0.000000,0.000000,0.000000,0.000000,0.000000,-0.000769,0.000000,NaN,NaN,NaN,NaN,NaN,NaN,NaN,NaN,0.000015,0.000015,NaN,NaN,10.100000,0.342783,195.560000,0.000000,0.000000,0.000000,0.000000,0.000000,0.500000,0.500000,0.000000,0.000000,0.000000,0.000000,0.000000,0.000000,0.000015,0.000015,0.000015,0.000015,0.158000,0.158000
0.170000,0.000,0,-0.000440,180.000000,0.000000,0.981239,0.000000,0.000000,-0.038503,-9.830954,0.000000,0.000000,0.000000,0.000000,0.060000,0.060000,0.070000,0.070000,0.000000,0.000000,0.000000,0.000000,0.000000,0.000000,0.000000,0.000000,0.000000,0.000000,0.000000,0.000000,0.000000,0.000000,0.000000,0.000000,0.000000,0.000000,0.000000,0.000000,0.000000,0.000000,0.000000,0.000000,0.000000,0.000000,0.000000,0.000000,0.000000,0.000000,0.000000,0.000000,0.000000,0.000000,0.000000,0.000000,0.000000,0.000000,0.000000,0.000000,0.000000,0.000000,0.000000,0.000000,0.030000,0.040000,0.000000,0.000000,0.222405,0.003882,0.000000,0.000000,0.000000,0.000000,0.000000,0.000000,0.000000,0.000000,-0.000769,0.000000,NaN,NaN,NaN,NaN,NaN,NaN,NaN,NaN,0.000015,0.000015,NaN,NaN,10.100000,0.342783,195.560000,0.000000,0.000000,0.000000,0.000000,0.000000,0.500000,0.500000,0.000000,0.000000,0.000000,0.000000,0.000000,0.000000,0.000015,0.000015,0.000015,0.000015,0.158000,0.158000
0.180000,0.000,0,-0.000440,180.000000,0.000000,0.981239,0.000000,0.000000,-0.043178,-9.833457,0.000000,0.000000,0.000000,0.000000,0.060000,0.060000,0.070000,0.070000,0.000000,0.000000,0.000000,0.000000,0.000000,0.000000,0.000000,0.000000,0.000000,0.000000,0.000000,0.000000,0.000000,0.000000,0.000000,0.000000,0.000000,0.000000,0.000000,0.000000,0.000000,0.000000,0.000000,0.000000,0.000000,0.000000,0.000000,0.000000,0.000000,0.000000,0.000000,0.000000,0.000000,0.000000,0.000000,0.000000,0.000000,0.000000,0.000000,0.000000,0.000000,0.000000,0.000000,0.000000,0.030000,0.040000,0.000000,0.000000,0.221809,0.003871,0.000000,0.000000,0.000000,0.000000,0.000000,0.000000,0.000000,0.000000,-0.001098,0.000000,NaN,NaN,NaN,NaN,NaN,NaN,NaN,NaN,0.000031,0.000031,NaN,NaN,10.100000,0.309185,195.560000,0.000000,0.000000,0.000000,0.000000,0.000000,0.500000,0.500000,0.000000,0.000000,0.000000,0.000000,0.000000,0.000000,0.000031,0.000031,0.000031,0.000031,0.177999,0.177999
0.190000,0.000,0,-0.000440,180.000000,0.000000,0.981239,0.000000,0.000000,-0.048112,-9.836200,0.000000,0.000000,0.000000,0.000000,0.060000,0.060000,0.070000,0.070000,0.000000,0.000000,0.000000,0.000000,0.000000,0.000000,0.000000,0.000000,0.000000,0.000000,0.000000,0.000000,0.000000,0.000000,0.000000,0.000000,0.000000,0.000000,0.000000,0.000000,0.000000,0.000000,0.000000,0.000000,0.000000,0.000000,0.000000,0.000000,0.000000,0.000000,0.000000,0.000000,0.000000,0.000000,0.000000,0.000000,0.000000,0.000000,0.000000,0.000000,0.000000,0.000000,0.000000,0.000000,0.030000,0.040000,0.000000,0.000000,0.221115,0.003859,0.000000,0.000000,0.000000,0.000000,0.000000,0.000000,0.000000,0.000000,-0.001098,0.000000,NaN,NaN,NaN,NaN,NaN,NaN,NaN,NaN,0.000031,0.000031,NaN,NaN,10.100000,0.309185,195.560000,0.000000,0.000000,0.000000,0.000000,0.000000,0.500000,0.500000,0.000000,0.000000,0.000000,0.000000,0.000000,0.000000,0.000031,0.000031,0.000031,0.000031,0.177999,0.177999
0.200000,0.000,0,-0.003469,180.000000,0.000000,1.963949,0.000000,0.000000,-0.053305,-9.839062,0.000000,0.000000,0.000000,0.000000,0.060000,0.060000,0.070000,0.070000,0.000000,0.000000,0.000000,0.000000,0.000000,0.000000,0.000000,0.000000,0.000000,0.000000,0.000000,0.000000,0.000000,0.000000,0.000000,0.000000,0.000000,0.000000,0.000000,0.000000,0.000000,0.000000,0.000000,0.000000,0.000000,0.000000,0.000000,0.000000,0.000000,0.000000,0.000000,0.000000,0.000000,0.000000,0.000000,0.000000,0.000000,0.000000,0.000000,0.000000,0.000000,0.000000,0.000000,0.000000,0.030000,0.040000,0.000000,0.000000,0.220306,0.003845,0.000000,0.000000,0.000000,0.000000,0.000000,0.000000,0.000000,0.000000,-0.001508,0.000000,NaN,NaN,NaN,NaN,NaN,NaN,NaN,NaN,0.000046,0.000046,NaN,NaN,10.100000,0.271644,195.560000,0.000000,0.000000,0.000000,0.000000,0.000000,0.500000,0.500000,0.000000,0.000000,0.000000,0.000000,0.000000,0.000000,0.000046,0.000046,0.000046,0.000046,0.197999,0.197999
0.210000,0.000,0,-0.003469,180.000000,0.000000,1.963949,0.000000,0.000000,-0.058753,-9.842044,0.000000,0.000000,0.000000,0.000000,0.060000,0.060000,0.070000,0.070000,0.000000,0.000000,0.000000,0.000000,0.000000,0.000000,0.000000,0.000000,0.000000,0.000000,0.000000,0.000000,0.000000,0.000000,0.000000,0.000000,0.000000,0.000000,0.000000,0.000000,0.000000,0.000000,0.000000,0.000000,0.000000,0.000000,0.000000,0.000000,0.000000,0.000000,0.000000,0.000000,0.000000,0.000000,0.000000,0.000000,0.000000,0.000000,0.000000,0.000000,0.000000,0.000000,0.000000,0.000000,0.030000,0.040000,0.000000,0.000000,0.219353,0.003828,0.000000,0.000000,0.000000,0.000000,0.000000,0.000000,0.000000,0.000000,-0.001508,0.000000,NaN,NaN,NaN,NaN,NaN,NaN,NaN,NaN,0.000046,0.000046,NaN,NaN,10.100000,0.271644,195.560000,0.000000,0.000000,0.000000,0.000000,0.000000,0.500000,0.500000,0.000000,0.000000,0.000000,0.000000,0.000000,0.000000,0.000046,0.000046,0.000046,0.000046,0.197999,0.197999
0.220000,0.000,0,-0.003469,180.000000,0.000000,1.963949,0.000000,0.000000,-0.064455,-9.845145,0.000000,0.000000,0.000000,0.000000,0.060000,0.060000,0.070000,0.070000,0.000000,0.000000,0.000000,0.000000,0.000000,0.000000,0.000000,0.000000,0.000000,0.000000,0.000000,0.000000,0.000000,0.000000,0.000000,0.000000,0.000000,0.000000,0.000000,0.000000,0.000000,0.000000,0.000000,0.000000,0.000000,0.000000,0.000000,0.000000,0.000000,0.000000,0.000000,0.000000,0.000000,0.000000,0.000000,0.000000,0.000000,0.000000,0.000000,0.000000,0.000000,0.000000,0.000000,0.000000,0.030000,0.040000,0.000000,0.000000,0.218269,0.003810,0.000000,0.000000,0.000000,0.000000,0.000000,0.000000,0.000000,0.000000,-0.002010,0.000000,NaN,NaN,NaN,NaN,NaN,NaN,NaN,NaN,0.000183,0.000183,NaN,NaN,10.100000,0.230155,195.560200,0.000000,0.000000,0.000000,0.000000,0.000000,0.500000,0.500000,0.000000,0.000000,0.000000,0.000000,0.000000,0.000000,0.000168,0.000168,0.000168,0.000168,0.217996,0.217996
0.230000,0.000,0,-0.003469,180.000000,0.000000,1.963949,0.000000,0.000000,-0.070409,-9.848485,0.000000,0.000000,0.000000,0.000000,0.060000,0.060000,0.070000,0.070000,0.000000,0.000000,0.000000,0.000000,0.000000,0.000000,0.000000,0.000000,0.000000,0.000000,0.000000,0.000000,0.000000,0.000000,0.000000,0.000000,0.000000,0.000000,0.000000,0.000000,0.000000,0.000000,0.000000,0.000000,0.000000,0.000000,0.000000,0.000000,0.000000,0.000000,0.000000,0.000000,0.000000,0.000000,0.000000,0.000000,0.000000,0.000000,0.000000,0.000000,0.000000,0.000000,0.000000,0.000000,0.030000,0.040000,0.000000,0.000000,0.217018,0.003788,0.000000,0.000000,0.000000,0.000000,0.000000,0.000000,0.000000,0.000000,-0.002010,0.000000,NaN,NaN,NaN,NaN,NaN,NaN,NaN,NaN,0.000183,0.000183,NaN,NaN,10.100000,0.230155,195.560200,0.000000,0.000000,0.000000,0.000000,0.000000,0.500000,0.500000,0.000000,0.000000,0.000000,0.000000,0.000000,0.000000,0.000168,0.000168,0.000168,0.000168,0.217996,0.217996
0.240000,0.000,0,-0.003469,180.000000,0.000000,1.963949,0.000000,0.000000,-0.076613,-9.851945,0.000000,0.000000,0.000000,0.000000,0.060000,0.060000,0.070000,0.070000,0.000000,0.000000,0.000000,0.000000,0.000000,0.000000,0.000000,0.000000,0.000000,0.000000,0.000000,0.000000,0.000000,0.000000,0.000000,0.000000,0.000000,0.000000,0.000000,0.000000,0.000000,0.000000,0.000000,0.000000,0.000000,0.000000,0.000000,0.000000,0.000000,0.000000,0.000000,0.000000,0.000000,0.000000,0.000000,0.000000,0.000000,0.000000,0.000000,0.000000,0.000000,0.000000,0.000000,0.000000,0.030000,0.040000,0.000000,0.000000,0.215591,0.003763,0.000000,0.000000,0.000000,0.000000,0.000000,0.000000,0.000000,0.000000,-0.002613,0.000000,NaN,NaN,NaN,NaN,NaN,NaN,NaN,NaN,0.000366,0.000366,NaN,NaN,10.100000,0.184715,195.560400,0.000000,0.000000,0.000000,0.000000,0.000000,0.500000,0.500000,0.000000,0.000000,0.000000,0.000000,0.000000,0.000000,0.000336,0.000336,0.000336,0.000336,0.237992,0.237991
0.250000,0.000,0,-0.003469,180.000000,0.000000,1.963949,0.000000,0.000000,-0.083065,-9.855524,0.000000,0.000000,0.000000,0.000000,0.060000,0.060000,0.070000,0.070000,0.000000,0.000000,0.000000,0.000000,0.000000,0.000000,0.000000,0.000000,0.000000,0.000000,0.000000,0.000000,0.000000,0.000000,0.000000,0.000000,0.000000,0.000000,0.000000,0.000000,0.000000,0.000000,0.000000,0.000000,0.000000,0.000000,0.000000,0.000000,0.000000,0.000000,0.000000,0.000000,0.000000,0.000000,0.000000,0.000000,0.000000,0.000000,0.000000,0.000000,0.000000,0.000000,0.000000,0.000000,0.030000,0.040000,0.000000,0.000000,0.213982,0.003735,0.000000,0.000000,0.000000,0.000000,0.000000,0.000000,0.000000,0.000000,-0.002613,0.000000,NaN,NaN,NaN,NaN,NaN,NaN,NaN,NaN,0.000366,0.000366,NaN,NaN,10.100000,0.184715,195.560400,0.000000,0.000000,0.000000,0.000000,0.000000,0.500000,0.500000,0.000000,0.000000,0.000000,0.000000,0.000000,0.000000,0.000336,0.000336,0.000336,0.000336,0.237992,0.237991
0.260000,0.001,0,-0.003469,180.000000,0.000000,1.963949,0.000000,0.000000,-0.089761,-9.859344,0.000000,0.000000,0.000000,0.000000,0.060000,0.060000,0.070000,0.070000,0.000000,0.000000,0.000000,0.000000,0.000000,0.000000,0.000000,0.000000,0.000000,0.000000,0.000000,0.000000,0.000000,0.000000,0.000000,0.000000,0.000000,0.000000,0.000000,0.000000,0.000000,0.000000,0.000000,0.000000,0.000000,0.000000,0.000000,0.000000,0.000000,0.000000,0.000000,0.000000,0.000000,0.000000,0.000000,0.000000,0.000000,0.000000,0.000000,0.000000,0.000000,0.000000,0.000000,0.000000,0.030000,0.040000,0.000000,0.000000,0.212166,0.003703,0.000000,0.000000,0.000000,0.000000,0.000000,0.000000,0.000000,0.000000,-0.003326,0.000000,NaN,NaN,NaN,NaN,NaN,NaN,NaN,NaN,0.000549,0.000549,NaN,NaN,10.100000,0.135316,195.560600,0.000000,0.000000,0.000000,0.000000,0.000000,0.500000,0.500000,0.000000,0.000000,0.000000,0.000000,0.000000,0.000000,0.000534,0.000534,0.000534,0.000534,0.257987,0.257986
0.270000,0.001,0,-0.003469,180.000000,0.000000,1.963949,0.000000,0.000000,-0.096700,-9.863401,0.000000,0.000000,0.000000,0.000000,0.060000,0.060000,0.070000,0.070000,0.000000,0.000000,0.000000,0.000000,0.000000,0.000000,0.000000,0.000000,0.000000,0.000000,0.000000,0.000000,0.000000,0.000000,0.000000,0.000000,0.000000,0.000000,0.000000,0.000000,0.000000,0.000000,0.000000,0.000000,0.000000,0.000000,0.000000,0.000000,0.000000,0.000000,0.000000,0.000000,0.000000,0.000000,0.000000,0.000000,0.000000,0.000000,0.000000,0.000000,0.000000,0.000000,0.000000,0.000000,0.030000,0.040000,0.000000,0.000000,0.210121,0.003667,0.000000,0.000000,0.000000,0.000000,0.000000,0.000000,0.000000,0.000000,-0.003326,0.000000,NaN,NaN,NaN,NaN,NaN,NaN,NaN,NaN,0.000549,0.000549,NaN,NaN,10.100000,0.135316,195.560600,0.000000,0.000000,0.000000,0.000000,0.000000,0.500000,0.500000,0.000000,0.000000,0.000000,0.000000,0.000000,0.000000,0.000534,0.000534,0.000534,0.000534,0.257987,0.257986
0.280000,0.001,0,-0.003469,180.000000,0.000000,1.963949,0.000000,0.000000,-0.103879,-9.867460,0.000000,0.000000,0.000000,0.000000,0.060000,0.060000,0.070000,0.070000,0.000000,0.000000,0.000000,0.000000,0.000000,0.000000,0.000000,0.000000,0.000000,0.000000,0.000000,0.000000,0.000000,0.000000,0.000000,0.000000,0.000000,0.000000,0.000000,0.000000,0.000000,0.000000,0.000000,0.000000,0.000000,0.000000,0.000000,0.000000,0.000000,0.000000,0.000000,0.000000,0.000000,0.000000,0.000000,0.000000,0.000000,0.000000,0.000000,0.000000,0.000000,0.000000,0.000000,0.000000,0.030000,0.040000,0.000000,0.000000,0.207840,0.003628,0.000000,0.000000,0.000000,0.000000,0.000000,0.000000,0.000000,0.000000,-0.004159,0.000000,NaN,NaN,NaN,NaN,NaN,NaN,NaN,NaN,0.000732,0.000732,NaN,NaN,10.100000,0.081954,195.560800,0.000000,0.000000,0.000000,0.000000,0.000000,0.500000,0.500000,0.000000,0.000000,0.000000,0.000000,0.000000,0.000000,0.000717,0.000717,0.000717,0.000717,0.277983,0.277982
0.290000,0.001,0,-0.003469,180.000000,0.000000,1.963949,0.000000,0.000000,-0.111296,-9.871640,0.000000,0.000000,0.000000,0.000000,0.060000,0.060000,0.070000,0.070000,0.000000,0.000000,0.000000,0.000000,0.000000,0.000000,0.000000,0.000000,0.000000,0.000000,0.000000,0.000000,0.000000,0.000000,0.000000,0.000000,0.000000,0.000000,0.000000,0.000000,0.000000,0.000000,0.000000,0.000000,0.000000,0.000000,0.000000,0.000000,0.000000,0.000000,0.000000,0.000000,0.000000,0.000000,0.000000,0.000000,0.000000,0.000000,0.000000,0.000000,0.000000,0.000000,0.000000,0.000000,0.030000,0.040000,0.000000,0.000000,0.205292,0.003583,0.000000,0.000000,0.000000,0.000000,0.000000,0.000000,0.000000,0.000000,-0.004159,0.000000,NaN,NaN,NaN,NaN,NaN,NaN,NaN,NaN,0.000732,0.000732,NaN,NaN,10.100000,0.081954,195.560800,0.000000,0.000000,0.000000,0.000000,0.000000,0.500000,0.500000,0.000000,0.000000,0.000000,0.000000,0.000000,0.000000,0.000717,0.000717,0.000717,0.000717,0.277983,0.277982
0.300000,0.001,0,-0.010495,180.000000,0.000000,2.934018,0.000000,0.000000,0.129712,-2.674045,0.000000,0.000000,10111.420000,10111.420000,0.060000,0.060000,0.061584,0.061584,0.000000,0.000000,0.008416,0.008416,0.000000,0.000000,2.889067,2.889067,0.000000,0.000000,1430.756000,1430.756000,0.000000,0.000000,8667.199000,8667.199000,0.000000,0.000000,-0.029815,-0.029815,0.000000,0.000000,6.989420,6.989420,0.000000,0.000000,0.000000,0.000000,0.000000,0.000000,0.000000,0.000000,0.000000,0.000000,0.000000,0.000000,0.000000,0.000000,105.889000,105.889000,0.000000,0.000000,0.000000,0.000000,0.030000,0.031584,0.000000,0.000000,0.010239,0.000179,0.000000,0.000000,0.000000,0.000000,0.000000,0.000000,0.000000,0.000000,-0.030494,0.000000,NaN,NaN,0.001012,0.001012,NaN,NaN,0.000000,0.000000,0.000992,0.000992,NaN,NaN,10.100000,0.024588,195.561100,0.000000,-7.717000,0.000000,0.000000,0.000000,0.500000,0.000000,0.000000,0.000000,0.000000,0.000000,0.000000,4.198000,0.000946,0.000946,0.000946,0.000946,0.297977,0.297976
0.310000,0.002,0,-0.010495,180.000000,0.000000,2.934018,0.000000,0.000000,0.259074,27.609950,13661.420000,13661.420000,14143.930000,14143.930000,0.030658,0.030658,0.033991,0.033991,0.029342,0.029342,0.036009,0.036009,2.904713,2.904713,2.660021,2.660021,4988.059000,4988.059000,6121.442000,6121.442000,8714.132000,8714.132000,7980.057000,7980.057000,-0.062075,-0.062075,-0.062076,-0.062076,0.000000,0.000000,0.528050,0.528050,0.000000,0.000000,0.000000,0.000000,0.000000,0.000000,0.000000,0.000000,0.000358,-0.000358,0.000000,0.000000,7.773440,7.773440,9.533717,9.533717,-124.675300,124.675300,0.000000,0.000000,0.000658,0.003992,0.000000,0.000000,0.000000,0.000000,0.000000,0.000000,0.000000,0.000000,0.000000,0.000000,0.000000,0.000000,-0.030494,0.000000,NaN,NaN,0.001012,0.001012,NaN,NaN,0.000000,0.000000,0.000992,0.000992,NaN,NaN,10.100000,0.024588,195.561100,0.000000,-7.717000,0.000000,0.000000,0.000000,0.500000,0.000000,0.000000,0.000000,0.000000,0.000000,0.000000,4.198000,0.000946,0.000946,0.000946,0.000946,0.297977,0.297976
0.320000,0.002,0,-0.010495,180.000000,0.000000,2.934018,0.000000,0.000000,0.233625,42.311460,21216.140000,21216.140000,17445.730000,17445.730000,0.003520,0.003520,0.009198,0.009198,0.056480,0.056480,0.060802,0.060802,2.549037,2.549037,2.358839,2.358839,9601.579000,9601.579000,10336.250000,10336.250000,7647.092000,7647.092000,7076.499000,7076.499000,-0.044796,-0.044796,-0.044797,-0.044797,0.000000,0.000000,-4.986841,-4.986841,0.000000,0.000000,0.000000,0.000000,0.000000,0.000000,0.000000,0.000000,0.000258,-0.000258,0.000000,0.000000,-52.907180,-52.907180,-69.530880,-69.530880,-139.725300,139.725300,0.000000,0.000000,-0.026480,-0.020802,0.000000,0.000000,0.000000,0.000000,0.000000,0.000000,0.000000,0.000000,0.000000,0.000000,0.000000,0.000000,-0.074584,0.000000,0.000000,0.000000,-0.000576,-0.000576,0.196026,-0.196026,0.000000,0.000000,0.002121,0.002121,NaN,NaN,10.100000,-0.031222,195.562200,0.000000,-7.449000,0.000000,0.000000,0.000000,0.500000,0.000000,0.000000,0.000000,0.000000,0.000000,0.000000,-3.332000,0.002014,0.002014,0.002014,0.002014,0.317951,0.317948
0.330000,0.005,0,-0.010495,180.000000,0.000000,2.934018,0.000000,0.003530,-0.666984,26.727330,15288.540000,15288.360000,11786.250000,11786.070000,0.000846,0.000846,-0.000078,-0.000078,0.059154,0.059154,0.070078,0.070078,-0.216514,-0.216574,-0.031635,-0.031695,10056.150000,10056.120000,11900.000000,11900.000000,-649.541500,-649.720300,-94.905490,-95.084300,0.030405,0.030402,0.030405,0.030403,0.000000,0.000000,7.305167,7.312037,0.000000,0.000000,0.000000,0.000000,0.000000,0.000000,0.000000,0.000000,-0.000147,0.000204,0.000024,0.000024,-32.415510,-32.397220,-8.064335,-8.025466,57.362140,-79.311910,-7.194640,-7.194532,-0.029154,-0.030078,0.000000,0.000000,0.000000,0.000000,0.000000,0.000000,0.000000,0.000000,0.000000,0.000000,0.000000,0.000000,-0.074584,0.000000,0.000000,0.000000,-0.000576,-0.000576,0.196026,-0.196026,0.000000,0.000000,0.002121,0.002121,NaN,NaN,10.100000,-0.031222,195.562200,0.000000,-7.449000,0.000000,0.000000,0.000000,0.500000,0.000000,0.000000,0.000000,0.000000,0.000000,0.000000,-3.332000,0.002014,0.002014,0.002014,0.002014,0.317951,0.317948
0.340000,0.005,0,-0.010495,180.000000,0.000000,2.934018,0.000000,-29.383240,-0.245342,22.020700,12117.210000,13236.310000,10339.060000,11520.000000,0.005213,0.004592,0.001717,0.001097,0.054787,0.055408,0.068283,0.068903,-0.721455,-0.317141,-0.429019,-0.024706,9296.832000,9436.481000,11608.090000,11713.550000,-2164.362000,-951.423200,-1287.057000,-74.118290,0.045820,0.052409,0.046996,0.051233,0.000000,0.000000,-9.818996,1.906043,0.000000,0.000000,0.000000,0.000000,0.000000,0.000000,0.000000,0.000000,-0.204201,-0.203635,-0.196216,-0.196216,20.620640,-50.583190,-21.537290,-34.802220,10848.410000,11796.350000,9357.184000,10345.450000,-0.025097,-0.028593,-0.034264,-0.034264,0.000000,0.000000,0.000000,0.000000,0.000000,0.000000,0.000000,-11.725040,-0.006589,-0.004237,0.114690,0.288778,0.000000,0.000000,0.000063,-0.000859,-20.770320,-21.441790,-19.703430,-20.412000,0.005049,0.005049,NaN,NaN,10.100320,-0.024257,195.560400,0.000000,9.711000,0.000000,0.000000,0.000000,0.500000,0.000000,0.000000,0.000000,0.000000,0.000000,0.000000,-1.732000,0.004900,0.004900,0.004900,0.004900,0.337881,0.337874
0.350000,0.007,0,-0.010495,180.000000,0.000000,2.934018,0.000000,24.553230,-0.022431,16.054160,9351.915000,9489.460000,9881.365000,9630.842000,0.011909,0.010847,0.005383,0.004320,0.048091,0.049154,0.064617,0.065680,-0.636771,-0.798866,-0.341579,-0.503674,8149.891000,8382.179000,10984.850000,11165.480000,-1910.307000,-2396.590000,-1024.734000,-1511.017000,0.048642,0.049026,0.048249,0.049420,0.000000,0.000000,2.383317,-6.249441,0.000000,0.000000,0.000000,0.000000,0.000000,0.000000,0.000000,0.000000,0.068082,0.068644,0.070494,0.070494,4.824722,16.561260,20.898400,-12.399160,-8537.486000,-8651.366000,-8976.426000,-8768.532000,-0.018622,-0.025148,-0.048457,-0.048457,0.000000,0.000000,0.000000,0.000000,0.000000,0.000000,0.000000,-11.725040,-0.006589,-0.004237,0.114690,0.288778,0.000000,0.000000,0.000063,-0.000859,-20.770320,-21.441790,-19.703430,-20.412000,0.005049,0.005049,NaN,NaN,10.100320,-0.024257,195.560400,0.000000,9.711000,0.000000,0.000000,0.000000,0.500000,0.000000,0.000000,0.000000,0.000000,0.000000,0.000000,-1.732000,0.004900,0.004900,0.004900,0.004900,0.337881,0.337874
0.360000,0.008,0,-0.010495,180.000000,0.000000,2.934018,0.000000,-19.412820,0.035470,9.747092,5766.879000,6727.707000,7963.034000,8651.452000,0.019939,0.018381,0.010984,0.009426,0.040061,0.041619,0.059016,0.060574,-0.883996,-0.724837,-0.687569,-0.528336,6779.122000,7107.596000,10032.700000,10297.560000,-2651.971000,-2174.497000,-2062.694000,-1584.996000,0.029966,0.026237,0.030504,0.025700,0.000000,0.000000,5.816993,-6.062706,0.000000,0.000000,0.000000,0.000000,0.000000,0.000000,0.000000,0.000000,-0.093603,-0.093280,-0.102180,-0.102180,12.546500,56.486530,19.389970,42.199690,5587.706000,6378.759000,7392.670000,7959.060000,-0.010840,-0.019795,-0.062557,-0.062557,0.000000,0.000000,0.000000,0.000000,0.000000,0.000000,0.000000,11.879700,0.003728,0.004804,0.077044,0.113722,0.000000,0.000000,-0.000370,0.000883,-16.960130,-17.536630,-18.277820,-18.690870,0.007584,0.007584,NaN,NaN,10.101020,-0.009384,195.559500,0.000000,4.629000,0.000000,0.000000,0.000000,0.500000,0.000000,0.000000,0.000000,0.000000,0.000000,0.000000,0.995000,0.007419,0.007419,0.007419,0.007419,0.357819,0.357810
0.370000,0.008,0,-0.010495,180.000000,0.000000,2.934018,0.000000,14.529140,0.154212,4.015099,3704.464000,3575.750000,6824.824000,6500.370000,0.027672,0.026783,0.017705,0.016816,0.032328,0.033217,0.052295,0.053184,-0.708356,-0.887081,-0.676453,-0.855237,5481.313000,5661.565000,8890.071000,9041.181000,-2125.052000,-2661.222000,-2029.343000,-2565.691000,-0.009182,-0.002959,-0.009536,-0.002606,0.000000,0.000000,2.448330,4.714659,0.000000,0.000000,0.000000,0.000000,0.000000,0.000000,0.000000,0.000000,0.061532,0.061462,0.074101,0.074101,86.227840,7.286604,98.863920,15.715530,-3843.529000,-3730.450000,-6458.485000,-6192.028000,-0.002772,-0.012739,-0.039565,-0.039565,0.000000,0.000000,0.000000,0.000000,0.000000,0.000000,0.000000,11.879700,0.003728,0.004804,0.077044,0.113722,0.000000,0.000000,-0.000370,0.000883,-16.960130,-17.536630,-18.277820,-18.690870,0.007584,0.007584,NaN,NaN,10.101020,-0.009384,195.559500,0.000000,4.629000,0.000000,0.000000,0.000000,0.500000,0.000000,0.000000,0.000000,0.000000,0.000000,0.000000,0.995000,0.007419,0.007419,0.007419,0.007419,0.357819,0.357810
0.380000,0.009,0,-0.010495,180.000000,0.000000,2.934018,0.000000,-10.370310,0.205381,-0.481110,1946.255000,2181.537000,4824.570000,5047.189000,0.035127,0.034530,0.025933,0.025336,0.024873,0.025470,0.044067,0.044664,-0.753015,-0.707477,-0.900015,-0.854477,4220.909000,4337.437000,7491.381000,7592.876000,-2259.031000,-2122.418000,-2700.028000,-2563.415000,-0.039751,-0.046911,-0.039530,-0.047134,0.000000,0.000000,5.734350,0.733767,0.000000,0.000000,0.000000,0.000000,0.000000,0.000000,0.000000,0.000000,-0.038356,-0.038854,-0.052434,-0.052434,-1.398764,88.615760,14.648300,94.125240,1902.981000,2160.743000,4802.776000,4989.500000,0.004829,-0.004366,-0.034264,-0.034264,0.000000,0.000000,0.000000,0.000000,0.000000,0.000000,0.000000,5.000584,0.007160,0.007604,-0.057657,0.032569,0.000000,0.000000,-0.001565,0.003272,-12.619030,-13.092610,-16.394740,-16.528310,0.008922,0.008922,NaN,NaN,10.100960,0.006431,195.559700,0.000000,-9.227000,0.000000,0.000000,0.000000,0.500000,0.000000,0.000000,0.000000,0.000000,0.000000,0.000000,2.325000,0.008810,0.008810,0.008810,0.008810,0.377785,0.377774
0.390000,0.010,0,-0.010495,180.000000,0.000000,2.934018,0.000000,5.984078,0.160955,-3.997267,1263.635000,1035.405000,3368.077000,3135.605000,0.041640,0.041592,0.034790,0.034742,0.018360,0.018408,0.035210,0.035258,-0.597447,-0.687912,-0.883967,-0.974461,3120.736000,3129.865000,5985.687000,5993.920000,-1792.335000,-2063.729000,-2651.890000,-2923.374000,-0.076738,-0.069189,-0.076844,-0.069086,0.000000,0.000000,1.380509,3.367471,0.000000,0.000000,0.000000,0.000000,0.000000,0.000000,0.000000,0.000000,0.018601,0.017761,0.032289,0.032289,81.739860,-16.677970,87.876560,-6.984706,-599.177900,-468.805700,-2772.329000,-2580.989000,0.011616,0.004766,0.000000,0.000000,0.000000,0.000000,0.000000,0.000000,0.000000,0.000000,0.000000,5.000584,0.007160,0.007604,-0.057657,0.032569,0.000000,0.000000,-0.001565,0.003272,-12.619030,-13.092610,-16.394740,-16.528310,0.008922,0.008922,NaN,NaN,10.100960,0.006431,195.559700,0.000000,-9.227000,0.000000,0.000000,0.000000,0.500000,0.000000,0.000000,0.000000,0.000000,0.000000,0.000000,2.325000,0.008810,0.008810,0.008810,0.008810,0.377785,0.377774
0.400000,0.010,0,-0.006861,-116.417000,-0.015595,0.716688,-0.000492,0.071136,0.087741,-7.068115,501.392500,366.568700,1770.450000,1638.093000,0.047328,0.047595,0.043934,0.044201,0.012672,0.012405,0.026066,0.025799,-0.528440,-0.561163,-0.906914,-0.939637,2155.846000,2107.190000,4431.208000,4385.899000,-1585.318000,-1683.487000,-2720.741000,-2818.910000,-0.093632,-0.092911,-0.093617,-0.092929,0.000000,0.000000,13.967370,-11.074610,0.000000,0.000000,0.000000,0.000000,0.000000,0.000000,0.000000,0.000000,-0.002340,-0.003413,-0.001625,-0.001625,20.313480,20.841650,47.363720,-16.039890,29.908860,31.892510,73.335170,67.852480,0.017462,0.014067,0.019782,0.019782,0.000000,0.000000,0.000000,0.000000,0.000000,0.000000,0.000000,25.041980,-0.000722,-0.000689,-0.148417,-0.023390,0.000000,0.000000,0.004417,-0.002869,-0.651869,-0.934398,-0.524828,-0.517432,0.010332,0.010332,NaN,NaN,10.100960,0.018894,195.561200,0.000000,-18.266000,0.000000,0.000000,0.000000,0.500000,0.000000,0.000000,0.000000,0.000000,0.000000,0.000000,1.057000,0.010164,0.010164,0.010164,0.010164,0.397752,0.397739
0.410000,0.011,0,-0.006861,-116.417000,-0.015595,0.716688,-0.000492,0.083811,0.029925,-9.532596,0.000000,0.000000,445.151600,296.762700,0.052032,0.052563,0.052724,0.053255,0.007968,0.007437,0.017276,0.016745,-0.431448,-0.453323,-0.853732,-0.875607,1356.639000,1262.350000,2936.858000,2846.656000,-1282.263000,-1195.950000,-2561.196000,-2626.821000,-0.104467,-0.103104,-0.104430,-0.103144,0.000000,0.000000,27.868770,-26.995800,0.000000,0.000000,0.000000,0.000000,0.000000,0.000000,0.000000,0.000000,-0.006014,-0.007208,-0.004272,-0.004272,8.027608,7.491470,92.895860,-82.470050,0.000000,0.000000,48.479740,32.319340,0.022298,0.022990,0.019782,0.019782,0.000000,0.000000,0.000000,0.000000,0.000000,0.000000,0.000000,25.041980,-0.000722,-0.000689,-0.148417,-0.023390,0.000000,0.000000,0.004417,-0.002869,-0.651869,-0.934398,-0.524828,-0.517432,0.010332,0.010332,NaN,NaN,10.100960,0.018894,195.561200,0.000000,-18.266000,0.000000,0.000000,0.000000,0.500000,0.000000,0.000000,0.000000,0.000000,0.000000,0.000000,1.057000,0.010164,0.010164,0.010164,0.010164,0.397752,0.397739
0.420000,0.012,0,-0.006861,-116.417000,-0.015595,0.716688,-0.000492,-0.003623,0.007482,-10.313810,0.000000,0.000000,0.000000,0.000000,0.055767,0.056484,0.060685,0.061402,0.004233,0.003516,0.009315,0.008598,-0.334218,-0.352219,-0.753880,-0.771895,721.197900,596.460100,1583.561000,1461.598000,-647.939300,-529.761800,-1653.213000,-1537.375000,-0.104748,-0.103599,-0.104705,-0.104588,0.000000,0.000000,3.130289,-3.166574,0.000000,0.000000,0.000000,0.000000,0.000000,0.000000,0.000000,0.000943,-0.007171,-0.008370,-0.005845,-0.005845,-1.123395,-0.961866,9.110605,-10.791440,0.000000,0.000000,0.000000,0.000000,0.026125,0.031044,0.034264,0.034264,0.000000,0.000000,0.000000,0.000000,0.000000,0.000000,0.000000,6.296863,-0.001148,-0.000116,-0.164573,-0.012865,0.000001,-0.000001,0.113080,-0.126056,0.000000,0.000000,0.000000,0.000000,0.012305,0.012305,NaN,NaN,10.101090,0.027182,195.563100,0.000000,-19.974000,0.000000,0.000000,0.000000,0.500000,0.000000,0.000000,0.000000,0.000000,0.000000,0.000000,-0.032000,0.012105,0.012105,0.012105,0.012105,0.417705,0.417690
0.430000,0.013,0,-0.006861,-116.417000,-0.015595,0.716688,-0.000492,-0.005846,0.026108,-10.219860,0.000000,0.000000,0.000000,0.000000,0.058519,0.059411,0.067586,0.068478,0.001481,0.000589,0.002414,0.001522,-0.236139,-0.253305,-0.647783,-0.665009,252.489200,99.792220,410.437400,258.659300,-180.787600,-34.313780,-478.893400,-332.982000,-0.103749,-0.102726,-0.103705,-0.103585,0.000000,0.000000,2.640699,-2.842748,0.000000,0.000000,0.000000,0.000000,0.000000,0.000000,0.000000,0.000812,-0.007325,-0.008514,-0.006226,-0.006226,-1.345887,-1.191026,7.455183,-10.791260,0.000000,0.000000,0.000000,0.000000,0.028965,0.038032,0.034264,0.034264,0.000000,0.000000,0.000000,0.000000,0.000000,0.000000,0.000000,6.296863,-0.001148,-0.000116,-0.164573,-0.012865,0.000001,-0.000001,0.113080,-0.126056,0.000000,0.000000,0.000000,0.000000,0.012305,0.012305,NaN,NaN,10.101090,0.027182,195.563100,0.000000,-19.974000,0.000000,0.000000,0.000000,0.500000,0.000000,0.000000,0.000000,0.000000,0.000000,0.000000,-0.032000,0.012105,0.012105,0.012105,0.012105,0.417705,0.417690
0.440000,0.014,0,-0.006861,-116.417000,-0.015595,0.716688,-0.000492,-0.007693,0.048891,-9.810784,0.000000,0.000000,0.000000,0.000000,0.060000,0.060000,0.070000,0.070000,0.000000,0.000000,0.000000,0.000000,0.000000,0.000000,0.000000,0.000000,0.000000,0.000000,0.000000,0.000000,0.000000,0.000000,0.000000,0.000000,-0.103270,-0.102726,-0.103400,-0.103400,0.000000,0.000000,0.000002,0.000002,0.000000,0.000000,0.000000,0.000000,0.103270,0.102726,0.103400,0.103400,0.000000,0.000000,0.000000,0.000000,0.000000,0.000000,0.000000,0.000000,0.000000,0.000000,0.000000,0.000000,0.030000,0.040000,0.000000,0.000000,-0.070869,-0.001237,0.000000,0.000000,0.000000,0.000000,0.000000,0.000000,-0.000544,0.000000,-0.160142,-0.015427,NaN,NaN,NaN,NaN,NaN,NaN,NaN,NaN,0.014294,0.014294,NaN,NaN,10.101240,0.031473,195.565100,0.000000,-19.747000,0.000000,0.000000,0.000000,0.500000,0.500000,0.000000,0.000000,0.000000,0.000000,0.000000,0.000000,0.014095,0.014095,0.014095,0.014095,0.437656,0.437639
0.450000,0.015,0,-0.006861,-116.417000,-0.015595,0.716688,-0.000492,-0.009206,0.065433,-9.810247,0.000000,0.000000,0.000000,0.000000,0.060000,0.060000,0.070000,0.070000,0.000000,0.000000,0.000000,0.000000,0.000000,0.000000,0.000000,0.000000,0.000000,0.000000,0.000000,0.000000,0.000000,0.000000,0.000000,0.000000,-0.103270,-0.102726,-0.103400,-0.103400,0.000000,0.000000,0.000002,0.000002,0.000000,0.000000,0.000000,0.000000,0.103270,0.102726,0.103400,0.103400,0.000000,0.000000,0.000000,0.000000,0.000000,0.000000,0.000000,0.000000,0.000000,0.000000,0.000000,0.000000,0.030000,0.040000,0.000000,0.000000,-0.162621,-0.002838,0.000000,0.000000,0.000000,0.000000,0.000000,0.000000,-0.000544,0.000000,-0.160142,-0.015427,NaN,NaN,NaN,NaN,NaN,NaN,NaN,NaN,0.014294,0.014294,NaN,NaN,10.101240,0.031473,195.565100,0.000000,-19.747000,0.000000,0.000000,0.000000,0.500000,0.500000,0.000000,0.000000,0.000000,0.000000,0.000000,0.000000,0.014095,0.014095,0.014095,0.014095,0.437656,0.437639
0.460000,0.016,0,-0.006861,-116.417000,-0.015595,0.716688,-0.000492,-0.010719,0.081700,-9.809825,0.000000,0.000000,0.000000,0.000000,0.060000,0.060000,0.070000,0.070000,0.000000,0.000000,0.000000,0.000000,0.000000,0.000000,0.000000,0.000000,0.000000,0.000000,0.000000,0.000000,0.000000,0.000000,0.000000,0.000000,-0.103270,-0.102726,-0.103400,-0.103400,0.000000,0.000000,0.000002,0.000002,0.000000,0.000000,0.000000,0.000000,0.103270,0.102726,0.103400,0.103400,0.000000,0.000000,0.000000,0.000000,0.000000,0.000000,0.000000,0.000000,0.000000,0.000000,0.000000,0.000000,0.030000,0.040000,0.000000,0.000000,-0.254379,-0.004440,0.000000,0.000000,0.000000,0.000000,0.000000,0.000000,-0.000544,0.000000,-0.160149,-0.015427,NaN,NaN,NaN,NaN,NaN,NaN,NaN,NaN,0.016267,0.016267,NaN,NaN,10.101370,0.031845,195.567100,0.000000,-19.747000,0.000000,0.000000,0.000000,0.500000,0.500000,0.000000,0.000000,0.000000,0.000000,0.000000,0.000000,0.016068,0.016068,0.016068,0.016068,0.457608,0.457588
0.470000,0.017,0,-0.006861,-116.417000,-0.015595,0.716688,-0.000492,-0.012231,0.097692,-9.809528,0.000000,0.000000,0.000000,0.000000,0.060000,0.060000,0.070000,0.070000,0.000000,0.000000,0.000000,0.000000,0.000000,0.000000,0.000000,0.000000,0.000000,0.000000,0.000000,0.000000,0.000000,0.000000,0.000000,0.000000,-0.103270,-0.102726,-0.103400,-0.103400,0.000000,0.000000,0.000002,0.000002,0.000000,0.000000,0.000000,0.000000,0.103270,0.102726,0.103400,0.103400,0.000000,0.000000,0.000000,0.000000,0.000000,0.000000,0.000000,0.000000,0.000000,0.000000,0.000000,0.000000,0.030000,0.040000,0.000000,0.000000,-0.346146,-0.006041,0.000000,0.000000,0.000000,0.000000,0.000000,0.000000,-0.000544,0.000000,-0.160149,-0.015427,NaN,NaN,NaN,NaN,NaN,NaN,NaN,NaN,0.016267,0.016267,NaN,NaN,10.101370,0.031845,195.567100,0.000000,-19.747000,0.000000,0.000000,0.000000,0.500000,0.500000,0.000000,0.000000,0.000000,0.000000,0.000000,0.000000,0.016068,0.016068,0.016068,0.016068,0.457608,0.457588
0.480000,0.018,0,-0.006861,-116.417000,-0.015595,0.716688,-0.000492,0.253075,0.107892,-9.135971,1004.524000,997.998600,0.000000,0.000000,0.057642,0.059361,0.070000,0.070000,0.002358,0.000639,0.000000,0.000000,0.220910,0.319345,0.000000,0.000000,402.816600,108.021000,0.000000,0.000000,662.684600,957.970400,0.000000,0.000000,-0.097945,-0.100156,-0.103400,-0.103400,0.000000,0.000000,0.000002,0.000002,0.000000,0.000000,0.000000,0.000000,0.000000,0.000000,0.103400,0.103400,-0.019668,-0.020809,0.000000,0.000000,-11.724750,-16.062090,0.000000,0.000000,503.655700,529.396500,0.000000,0.000000,0.028502,0.040000,0.071326,0.000000,-0.401802,-0.007013,0.000000,0.000000,0.000000,0.000000,0.000000,0.000000,0.002211,0.000000,-0.151946,0.015623,0.000000,0.000000,NaN,NaN,-5.829098,-6.162294,NaN,NaN,0.018245,0.018245,NaN,NaN,10.101570,0.028380,195.569000,0.000000,-19.747000,0.000000,0.000000,0.000000,0.500000,0.500000,0.000000,0.000000,0.000000,0.000000,0.000000,0.000000,0.018043,0.018043,0.018043,0.018043,0.477560,0.477537
0.490000,0.019,0,-0.006861,-116.417000,-0.015595,0.716688,-0.000492,0.177297,0.104318,-7.842279,1639.162000,1363.253000,0.000000,0.000000,0.055025,0.056687,0.070000,0.070000,0.004975,0.003313,0.000000,0.000000,0.280723,0.285670,0.000000,0.000000,849.863500,560.333300,0.000000,0.000000,842.098300,856.938700,0.000000,0.000000,-0.078415,-0.087749,-0.103400,-0.103400,0.000000,0.000000,0.000002,0.000002,0.000000,0.000000,0.000000,0.000000,0.000000,0.000000,0.103400,0.103400,-0.002780,-0.003737,0.000000,0.000000,-26.008900,-21.204240,0.000000,0.000000,116.181600,129.865900,0.000000,0.000000,0.025856,0.040000,0.071326,0.000000,-0.420891,-0.007346,0.000000,0.000000,0.000000,0.000000,0.000000,0.000000,0.002211,0.000000,-0.151946,0.015623,0.000000,0.000000,NaN,NaN,-5.829098,-6.162294,NaN,NaN,0.018245,0.018245,NaN,NaN,10.101570,0.028380,195.569000,0.000000,-19.747000,0.000000,0.000000,0.000000,0.500000,0.500000,0.000000,0.000000,0.000000,0.000000,0.000000,0.000000,0.018043,0.018043,0.018043,0.018043,0.477560,0.477537
0.500000,0.020,0,-0.004384,-132.668700,-0.008264,0.216283,0.008823,0.122099,0.098570,-7.011838,2233.861000,1983.576000,0.000000,0.000000,0.052056,0.053635,0.070000,0.070000,0.007944,0.006365,0.000000,0.000000,0.304148,0.315160,0.000000,0.000000,1356.576000,1076.858000,0.000000,0.000000,912.353700,945.386300,0.000000,0.000000,-0.053311,-0.065643,-0.103400,-0.103400,0.000000,0.000000,0.000002,0.000002,0.000000,0.000000,0.000000,0.000000,0.000000,0.000000,0.103400,0.103400,-0.001436,-0.002119,0.000000,0.000000,-35.037230,-31.641790,0.000000,0.000000,81.751110,107.151100,0.000000,0.000000,0.022846,0.040000,0.065611,0.000000,-0.412499,-0.007200,0.000000,0.000000,0.000000,0.000000,0.000000,0.000000,0.012332,0.000000,-0.086771,0.007801,0.000000,0.000000,NaN,NaN,-0.486280,-0.699861,NaN,NaN,0.019854,0.019854,NaN,NaN,10.101650,0.022413,195.570600,0.000000,-19.747000,0.000000,0.000000,0.000000,0.500000,0.500000,0.000000,0.000000,0.000000,0.000000,0.000000,0.000000,0.019732,0.019732,0.019732,0.019732,0.497519,0.497494
0.510000,0.020,0,-0.004384,-132.668700,-0.008264,0.216283,0.008823,0.099995,0.087857,-6.242448,2779.162000,2566.310000,0.000000,0.000000,0.048996,0.050429,0.070000,0.070000,0.011004,0.009571,0.000000,0.000000,0.304297,0.321448,0.000000,0.000000,1878.358000,1620.121000,0.000000,0.000000,912.793500,964.241600,0.000000,0.000000,-0.021139,-0.035892,-0.103400,-0.103400,0.000000,0.000000,0.000002,0.000002,0.000000,0.000000,0.000000,0.000000,0.000000,0.000000,0.103400,0.103400,-0.000964,-0.001292,0.000000,0.000000,-43.499840,-40.716370,0.000000,0.000000,68.315740,84.528950,0.000000,0.000000,0.019712,0.040000,0.059347,0.000000,-0.374657,-0.006539,0.000000,0.000000,0.000000,0.000000,0.000000,0.000000,0.012332,0.000000,-0.086771,0.007801,0.000000,0.000000,NaN,NaN,-0.486280,-0.699861,NaN,NaN,0.019854,0.019854,NaN,NaN,10.101650,0.022413,195.570600,0.000000,-19.747000,0.000000,0.000000,0.000000,0.500000,0.500000,0.000000,0.000000,0.000000,0.000000,0.000000,0.000000,0.019732,0.019732,0.019732,0.019732,0.497519,0.497494
0.520000,0.020,0,-0.004384,-132.668700,-0.008264,0.216283,0.008823,0.071531,0.032210,-5.575736,3244.089000,3077.151000,0.000000,0.000000,0.046063,0.047292,0.070000,0.070000,0.013937,0.012708,0.000000,0.000000,0.283599,0.305831,0.000000,0.000000,2377.670000,2152.370000,0.000000,0.000000,850.707200,917.397800,0.000000,0.000000,0.016809,0.000301,-0.103400,-0.103400,0.000000,0.000000,0.000002,0.000002,0.000000,0.000000,0.000000,0.000000,0.000000,0.000000,0.103400,0.103400,-0.000839,-0.000740,0.000000,0.000000,-49.367980,-47.969780,0.000000,0.000000,69.343750,58.039860,0.000000,0.000000,0.016677,0.040000,0.052339,0.000000,-0.305649,-0.005335,0.000000,0.000000,0.000000,0.000000,0.000000,0.000000,0.016507,0.000000,0.027206,0.015890,0.000000,0.000000,NaN,NaN,-0.311783,-0.271160,NaN,NaN,0.020467,0.020467,NaN,NaN,10.101670,0.015996,195.571100,0.000000,-19.747000,0.000000,0.000000,0.000000,0.500000,0.500000,0.000000,0.000000,0.000000,0.000000,0.000000,0.000000,0.020465,0.020465,0.020465,0.020465,0.517501,0.517475
0.530000,0.021,0,-0.004384,-132.668700,-0.008264,0.216283,0.008823,0.056615,-0.034054,-5.041322,3611.450000,3496.264000,0.000000,0.000000,0.043435,0.044419,0.070000,0.070000,0.016565,0.015581,0.000000,0.000000,0.246927,0.272885,0.000000,0.000000,2823.892000,2640.850000,0.000000,0.000000,740.710800,818.576800,0.000000,0.000000,0.058572,0.040694,-0.103400,-0.103400,0.000000,0.000000,0.000002,0.000002,0.000000,0.000000,0.000000,0.000000,0.000000,0.000000,0.103400,0.103400,-0.000682,-0.000111,0.000000,0.000000,-54.055240,-52.517400,0.000000,0.000000,62.831200,9.879786,0.000000,0.000000,0.013927,0.040000,0.039565,0.019782,-0.204132,-0.003563,0.000000,0.000000,0.000000,0.000000,0.000000,0.000000,0.016507,0.000000,0.027206,0.015890,0.000000,0.000000,NaN,NaN,-0.311783,-0.271160,NaN,NaN,0.020467,0.020467,NaN,NaN,10.101670,0.015996,195.571100,0.000000,-19.747000,0.000000,0.000000,0.000000,0.500000,0.500000,0.000000,0.000000,0.000000,0.000000,0.000000,0.000000,0.020465,0.020465,0.020465,0.020465,0.517501,0.517475
0.540000,0.021,0,-0.004384,-132.668700,-0.008264,0.216283,0.008823,0.026385,-0.059696,-4.658269,3864.228000,3804.093000,0.000000,0.000000,0.041258,0.041967,0.070000,0.070000,0.018743,0.018033,0.000000,0.000000,0.196993,0.225157,0.000000,0.000000,3192.627000,3059.048000,0.000000,0.000000,590.934900,675.418100,0.000000,0.000000,0.103359,0.084676,-0.103400,-0.103400,0.000000,0.000000,0.000002,0.000002,0.000000,0.000000,0.000000,0.000000,0.000000,0.000000,0.103400,0.103400,-0.000724,0.000359,0.000000,0.000000,-57.033140,-56.307740,0.000000,0.000000,71.287610,-34.830530,0.000000,0.000000,0.011612,0.040000,0.034264,-0.019782,-0.069054,-0.001205,0.000000,0.000000,0.000000,0.000000,0.000000,0.000000,0.018683,0.000000,0.176685,0.020112,0.000000,0.000000,NaN,NaN,-0.283126,0.139855,NaN,NaN,0.021382,0.021382,NaN,NaN,10.101670,0.010728,195.570000,0.000000,-19.747000,0.000000,0.000000,0.000000,0.500000,0.500000,0.000000,0.000000,0.000000,0.000000,0.000000,0.000000,0.021199,0.021199,0.021199,0.021199,0.537483,0.537457
0.550000,0.022,0,-0.004384,-132.668700,-0.008264,0.216283,0.008823,-0.711020,-0.078385,-0.449022,4115.656000,4047.783000,2987.062000,2930.195000,0.039492,0.040011,0.065398,0.065916,0.020508,0.019989,0.004602,0.004084,0.174269,0.186101,0.768617,0.780359,3491.414000,3392.860000,782.323700,694.259100,522.780200,558.272900,2305.731000,2340.956000,0.120374,0.120926,0.120414,0.120890,0.000000,0.000000,-138.814800,175.312300,0.000000,0.000000,0.000000,0.000000,0.000000,0.000000,0.000000,0.000000,-0.007224,-0.005835,-0.005662,-0.005662,14.041030,-39.249060,-449.230300,545.676100,757.932600,602.103100,431.167100,422.958400,0.009751,0.035657,0.019782,0.019782,0.000000,0.000000,0.000000,0.000000,0.000000,0.000000,0.000000,0.000000,0.018683,0.000000,0.176685,0.020112,0.000000,0.000000,NaN,NaN,-0.283126,0.139855,NaN,NaN,0.021382,0.021382,NaN,NaN,10.101670,0.010728,195.570000,0.000000,-19.747000,0.000000,0.000000,0.000000,0.500000,0.500000,0.000000,0.000000,0.000000,0.000000,0.000000,0.000000,0.021199,0.021199,0.021199,0.021199,0.537483,0.537457
0.560000,0.024,0,-0.004384,-132.668700,-0.008264,0.216283,0.008823,9.820700,-0.099466,1.715038,4559.488000,4125.358000,4502.682000,4078.776000,0.037695,0.038358,0.057521,0.058184,0.022305,0.021642,0.012479,0.011816,0.227124,0.109971,0.835583,0.718608,3799.177000,3671.797000,2121.419000,2008.634000,681.349800,329.901700,2506.672000,2155.760000,0.121115,0.122865,0.120773,0.123210,0.000000,0.000000,-131.306800,126.473700,0.000000,0.000000,0.000000,0.000000,0.000000,0.000000,0.000000,0.000000,0.059030,0.060435,0.064168,0.064168,5.629980,5.109540,-428.619400,421.579000,-4579.047000,-4208.640000,-4530.882000,-4168.550000,0.008026,0.027852,0.019782,0.019782,0.000000,0.000000,0.000000,0.000000,0.000000,0.000000,0.000000,-257.780500,-0.001750,-0.002438,0.238595,-0.083733,0.000000,0.000000,-0.017258,0.017934,16.235690,15.975210,16.201610,15.947270,0.023687,0.023687,NaN,NaN,10.101590,0.007100,195.567600,0.000000,23.189000,0.000000,0.000000,0.000000,0.500000,0.000000,0.000000,0.000000,0.000000,0.000000,0.000000,-0.623000,0.023433,0.023433,0.023433,0.023433,0.557429,0.557399
