TIME,DISTANCE,MARKERS,919SPEED,IDRSPEED,919TRAVELEDDISTANCE,IDRTRAVELEDDISTANCE,919TIMEDIFF,IDRTIMEDIFF,MOTORRPMFRONT,MOTORRPMREAR,POWERELECTRICALFRONT,POWERELECTRICALREAR,POWERELECTRICALTOTAL,POWERBALANCE,WHEELTORQUEBALANCE,EFFICIENCYFRONT,EFFICIENCYREAR,TORQUEMECHANICALFRONT,TORQUEMECHANICALREAR,TORQUEROTORFRONT,TORQUEROTORREAR,GEAR,STEERINGANGLE,THROTTLE,BRAKEPRESSURE,TORQUEDIFFFRONT,TORQUEDIFFREAR,SPEEDDIFFFRONT,SPEEDDIFFREAR,PITCHRATE,ROLLRATE,SLIPRATIOFL,SLIPRATIOFR,SLIPRATIORL,SLIPRATIORR,SLIPANGLEFL,SLIPANGLEFR,SLIPANGLERL,SLIPANGLERR,LAPDISTANCE,TOTALDISTANCE,FORCEFEEDBACKFORCERATIO,FORCEFEEDBACKDAMPERRATIO,POSITIONX,POSITIONY,POSITIONZ,RIDEHEIGHTFRONT,RIDEHEIGHTREAR,ROLLANGLEFRONT,ROLLANGLEREAR,GROUNDSLOPE,GROUNDGRADE,SPEED,SPEEDANGLE,SPEEDLAT,VELOCITY,YAWRATE,ACCELERATIONLAT,ACCELERATIONLONG,ACCELERATIONVERT,SUSPENSIONLOADFL,SUSPENSIONLOADFR,SUSPENSIONLOADRL,SUSPENSIONLOADRR,SUSPENSIONTRAVELFL,SUSPENSIONTRAVELFR,SUSPENSIONTRAVELRL,SUSPENSIONTRAVELRR,SUSPENSIONCONTACTDEPTHFL,SUSPENSIONCONTACTDEPTHFR,SUSPENSIONCONTACTDEPTHRL,SUSPENSIONCONTACTDEPTHRR,SUSPENSIONCONTACTSPEEDFL,SUSPENSIONCONTACTSPEEDFR,SUSPENSIONCONTACTSPEEDRL,SUSPENSIONCONTACTSPEEDRR,SUSPENSIONSPRINGFORCEFL,SUSPENSIONSPRINGFORCEFR,SUSPENSIONSPRINGFORCERL,SUSPENSIONSPRINGFORCERR,SUSPENSIONDAMPERFORCEFL,SUSPENSIONDAMPERFORCEFR,SUSPENSIONDAMPERFORCERL,SUSPENSIONDAMPERFORCERR,WHEELSPINFL,WHEELSPINFR,WHEELSPINRL,WHEELSPINRR,WHEELSHAFTTORQUEFL,WHEELSHAFTTORQUEFR,WHEELSHAFTTORQUERL,WHEELSHAFTTORQUERR,WHEELBRAKETORQUEFL,WHEELBRAKETORQUEFR,WHEELBRAKETORQUERL,WHEELBRAKETORQUERR,TIRESLIPLONGFL,TIRESLIPLONGFR,TIRESLIPLONGRL,TIRESLIPLONGRR,TIRESLIPLATFL,TIRESLIPLATFR,TIRESLIPLATRL,TIRESLIPLATRR,TIREFORCELONGFL,TIREFORCELONGFR,TIREFORCELONGRL,TIREFORCELONGRR,TIREFORCELATFL,TIREFORCELATFR,TIREFORCELATRL,TIREFORCELATRR
0.000000,0.000,0,0.000000,0.000000,0.000000,0.000000,0.000000,0.000000,0.000000,0.000000,0.000000,0.000000,0.000000,0.500000,0.500000,0.000000,0.000000,0.000000,0.000000,0.000000,0.000000,0.000000,0.000000,0.000000,0.000000,0.000000,0.000000,0.000000,0.000000,0.000000,0.000000,NaN,NaN,NaN,NaN,NaN,NaN,NaN,NaN,0.000000,0.000000,NaN,NaN,10.100000,0.470000,195.560000,0.030000,0.040000,0.000000,0.000000,0.224686,0.003922,0.000000,0.000000,0.000000,0.000000,0.000000,0.000000,0.000000,0.000000,0.000000,0.000000,0.000000,0.000000,0.060000,0.060000,0.070000,0.070000,0.000000,0.000000,0.000000,0.000000,0.000000,0.000000,0.000000,0.000000,0.000000,0.000000,0.000000,0.000000,0.000000,0.000000,0.000000,0.000000,0.000000,0.000000,0.000000,0.000000,0.000000,0.000000,0.000000,0.000000,0.000000,0.000000,0.000000,0.000000,0.000000,0.000000,0.000000,0.000000,0.000000,0.000000,0.000000,0.000000,0.000000,0.000000,0.000000,0.000000,0.000000,0.000000,0.000000,0.000000
0.010000,0.000,0,0.000000,0.000000,0.000000,0.000000,0.000000,0.000000,0.000000,0.000000,0.000000,0.000000,0.000000,0.500000,0.500000,0.000000,0.000000,0.000000,0.000000,0.000000,0.000000,0.000000,0.000000,0.000000,0.000000,0.000000,0.000000,0.000000,0.000000,0.000000,0.000000,NaN,NaN,NaN,NaN,NaN,NaN,NaN,NaN,0.000000,0.000000,NaN,NaN,10.100000,0.470000,195.560000,0.030000,0.040000,0.000000,0.000000,0.224686,0.003922,0.000000,0.000000,0.000000,0.000000,0.000000,0.000000,-0.000088,-9.810049,0.000000,0.000000,0.000000,0.000000,0.060000,0.060000,0.070000,0.070000,0.000000,0.000000,0.000000,0.000000,0.000000,0.000000,0.000000,0.000000,0.000000,0.000000,0.000000,0.000000,0.000000,0.000000,0.000000,0.000000,0.000000,0.000000,0.000000,0.000000,0.000000,0.000000,0.000000,0.000000,0.000000,0.000000,0.000000,0.000000,0.000000,0.000000,0.000000,0.000000,0.000000,0.000000,0.000000,0.000000,0.000000,0.000000,0.000000,0.000000,0.000000,0.000000,0.000000,0.000000
0.020000,0.000,0,0.000000,0.000000,0.000000,0.000000,0.018000,0.018000,0.000000,0.000000,0.000000,0.000000,0.000000,0.500000,0.500000,0.000000,0.000000,0.000000,0.000000,0.000000,0.000000,0.000000,0.000000,0.000000,0.000000,0.000000,0.000000,0.000000,0.000000,-0.000001,0.000000,NaN,NaN,NaN,NaN,NaN,NaN,NaN,NaN,0.000000,0.000000,NaN,NaN,10.100000,0.467842,195.560000,0.030000,0.040000,0.000000,0.000000,0.224686,0.003922,0.000000,0.000000,0.000000,0.000000,0.000000,0.000000,-0.000446,-9.810239,0.000000,0.000000,0.000000,0.000000,0.060000,0.060000,0.070000,0.070000,0.000000,0.000000,0.000000,0.000000,0.000000,0.000000,0.000000,0.000000,0.000000,0.000000,0.000000,0.000000,0.000000,0.000000,0.000000,0.000000,0.000000,0.000000,0.000000,0.000000,0.000000,0.000000,0.000000,0.000000,0.000000,0.000000,0.000000,0.000000,0.000000,0.000000,0.000000,0.000000,0.000000,0.000000,0.000000,0.000000,0.000000,0.000000,0.000000,0.000000,0.000000,0.000000,0.000000,0.000000
0.030000,0.000,0,0.000000,0.000000,0.000000,0.000000,0.018000,0.018000,0.000000,0.000000,0.000000,0.000000,0.000000,0.500000,0.500000,0.000000,0.000000,0.000000,0.000000,0.000000,0.000000,0.000000,0.000000,0.000000,0.000000,0.000000,0.000000,0.000000,0.000000,-0.000001,0.000000,NaN,NaN,NaN,NaN,NaN,NaN,NaN,NaN,0.000000,0.000000,NaN,NaN,10.100000,0.467842,195.560000,0.030000,0.040000,0.000000,0.000000,0.224686,0.003922,0.000000,0.000000,0.000000,0.000000,0.000000,0.000000,-0.001079,-9.810581,0.000000,0.000000,0.000000,0.000000,0.060000,0.060000,0.070000,0.070000,0.000000,0.000000,0.000000,0.000000,0.000000,0.000000,0.000000,0.000000,0.000000,0.000000,0.000000,0.000000,0.000000,0.000000,0.000000,0.000000,0.000000,0.000000,0.000000,0.000000,0.000000,0.000000,0.000000,0.000000,0.000000,0.000000,0.000000,0.000000,0.000000,0.000000,0.000000,0.000000,0.000000,0.000000,0.000000,0.000000,0.000000,0.000000,0.000000,0.000000,0.000000,0.000000,0.000000,0.000000
0.040000,0.000,0,0.000000,0.000000,0.000000,0.000000,0.038000,0.038000,0.000000,0.000000,0.000000,0.000000,0.000000,0.500000,0.500000,0.000000,0.000000,0.000000,0.000000,0.000000,0.000000,0.000000,0.000000,0.000000,0.000000,0.000000,0.000000,0.000000,0.000000,-0.000011,0.000000,NaN,NaN,NaN,NaN,NaN,NaN,NaN,NaN,0.000000,0.000000,NaN,NaN,10.100000,0.461759,195.560000,0.030000,0.040000,0.000000,0.000000,0.224686,0.003922,0.000000,0.000000,0.000000,0.000000,0.000000,0.000000,-0.001986,-9.811073,0.000000,0.000000,0.000000,0.000000,0.060000,0.060000,0.070000,0.070000,0.000000,0.000000,0.000000,0.000000,0.000000,0.000000,0.000000,0.000000,0.000000,0.000000,0.000000,0.000000,0.000000,0.000000,0.000000,0.000000,0.000000,0.000000,0.000000,0.000000,0.000000,0.000000,0.000000,0.000000,0.000000,0.000000,0.000000,0.000000,0.000000,0.000000,0.000000,0.000000,0.000000,0.000000,0.000000,0.000000,0.000000,0.000000,0.000000,0.000000,0.000000,0.000000,0.000000,0.000000
0.050000,0.000,0,0.000000,0.000000,0.000000,0.000000,0.038000,0.038000,0.000000,0.000000,0.000000,0.000000,0.000000,0.500000,0.500000,0.000000,0.000000,0.000000,0.000000,0.000000,0.000000,0.000000,0.000000,0.000000,0.000000,0.000000,0.000000,0.000000,0.000000,-0.000011,0.000000,NaN,NaN,NaN,NaN,NaN,NaN,NaN,NaN,0.000000,0.000000,NaN,NaN,10.100000,0.461759,195.560000,0.030000,0.040000,0.000000,0.000000,0.224670,0.003921,0.000000,0.000000,0.000000,0.000000,0.000000,0.000000,-0.003168,-9.811699,0.000000,0.000000,0.000000,0.000000,0.060000,0.060000,0.070000,0.070000,0.000000,0.000000,0.000000,0.000000,0.000000,0.000000,0.000000,0.000000,0.000000,0.000000,0.000000,0.000000,0.000000,0.000000,0.000000,0.000000,0.000000,0.000000,0.000000,0.000000,0.000000,0.000000,0.000000,0.000000,0.000000,0.000000,0.000000,0.000000,0.000000,0.000000,0.000000,0.000000,0.000000,0.000000,0.000000,0.000000,0.000000,0.000000,0.000000,0.000000,0.000000,0.000000,0.000000,0.000000
0.060000,0.000,0,0.000000,0.000000,0.000000,0.000000,0.058000,0.058000,0.000000,0.000000,0.000000,0.000000,0.000000,0.500000,0.500000,0.000000,0.000000,0.000000,0.000000,0.000000,0.000000,0.000000,0.000000,0.000000,0.000000,0.000000,0.000000,0.000000,0.000000,-0.000039,0.000000,NaN,NaN,NaN,NaN,NaN,NaN,NaN,NaN,0.000000,0.000000,NaN,NaN,10.100000,0.451752,195.560000,0.030000,0.040000,0.000000,0.000000,0.224655,0.003921,0.000000,0.000000,0.000000,0.000000,0.000000,0.000000,-0.004624,-9.812474,0.000000,0.000000,0.000000,0.000000,0.060000,0.060000,0.070000,0.070000,0.000000,0.000000,0.000000,0.000000,0.000000,0.000000,0.000000,0.000000,0.000000,0.000000,0.000000,0.000000,0.000000,0.000000,0.000000,0.000000,0.000000,0.000000,0.000000,0.000000,0.000000,0.000000,0.000000,0.000000,0.000000,0.000000,0.000000,0.000000,0.000000,0.000000,0.000000,0.000000,0.000000,0.000000,0.000000,0.000000,0.000000,0.000000,0.000000,0.000000,0.000000,0.000000,0.000000,0.000000
0.070000,0.000,0,0.000000,0.000000,0.000000,0.000000,0.058000,0.058000,0.000000,0.000000,0.000000,0.000000,0.000000,0.500000,0.500000,0.000000,0.000000,0.000000,0.000000,0.000000,0.000000,0.000000,0.000000,0.000000,0.000000,0.000000,0.000000,0.000000,0.000000,-0.000039,0.000000,NaN,NaN,NaN,NaN,NaN,NaN,NaN,NaN,0.000000,0.000000,NaN,NaN,10.100000,0.451752,195.560000,0.030000,0.040000,0.000000,0.000000,0.224625,0.003920,0.000000,0.000000,0.000000,0.000000,0.000000,0.000000,-0.006353,-9.813428,0.000000,0.000000,0.000000,0.000000,0.060000,0.060000,0.070000,0.070000,0.000000,0.000000,0.000000,0.000000,0.000000,0.000000,0.000000,0.000000,0.000000,0.000000,0.000000,0.000000,0.000000,0.000000,0.000000,0.000000,0.000000,0.000000,0.000000,0.000000,0.000000,0.000000,0.000000,0.000000,0.000000,0.000000,0.000000,0.000000,0.000000,0.000000,0.000000,0.000000,0.000000,0.000000,0.000000,0.000000,0.000000,0.000000,0.000000,0.000000,0.000000,0.000000,0.000000,0.000000
0.080000,0.000,0,0.000000,0.000000,0.000000,0.000000,0.078000,0.078000,0.000000,0.000000,0.000000,0.000000,0.000000,0.500000,0.500000,0.000000,0.000000,0.000000,0.000000,0.000000,0.000000,0.000000,0.000000,0.000000,0.000000,0.000000,0.000000,0.000000,0.000000,-0.000094,0.000000,NaN,NaN,NaN,NaN,NaN,NaN,NaN,NaN,0.000000,0.000000,NaN,NaN,10.100000,0.437818,195.560000,0.030000,0.040000,0.000000,0.000000,0.224579,0.003920,0.000000,0.000000,0.000000,0.000000,0.000000,0.000000,-0.008356,-9.814501,0.000000,0.000000,0.000000,0.000000,0.060000,0.060000,0.070000,0.070000,0.000000,0.000000,0.000000,0.000000,0.000000,0.000000,0.000000,0.000000,0.000000,0.000000,0.000000,0.000000,0.000000,0.000000,0.000000,0.000000,0.000000,0.000000,0.000000,0.000000,0.000000,0.000000,0.000000,0.000000,0.000000,0.000000,0.000000,0.000000,0.000000,0.000000,0.000000,0.000000,0.000000,0.000000,0.000000,0.000000,0.000000,0.000000,0.000000,0.000000,0.000000,0.000000,0.000000,0.000000
0.090000,0.000,0,0.000000,0.000000,0.000000,0.000000,0.078000,0.078000,0.000000,0.000000,0.000000,0.000000,0.000000,0.500000,0.500000,0.000000,0.000000,0.000000,0.000000,0.000000,0.000000,0.000000,0.000000,0.000000,0.000000,0.000000,0.000000,0.000000,0.000000,-0.000094,0.000000,NaN,NaN,NaN,NaN,NaN,NaN,NaN,NaN,0.000000,0.000000,NaN,NaN,10.100000,0.437818,195.560000,0.030000,0.040000,0.000000,0.000000,0.224510,0.003918,0.000000,0.000000,0.000000,0.000000,0.000000,0.000000,-0.010630,-9.815722,0.000000,0.000000,0.000000,0.000000,0.060000,0.060000,0.070000,0.070000,0.000000,0.000000,0.000000,0.000000,0.000000,0.000000,0.000000,0.000000,0.000000,0.000000,0.000000,0.000000,0.000000,0.000000,0.000000,0.000000,0.000000,0.000000,0.000000,0.000000,0.000000,0.000000,0.000000,0.000000,0.000000,0.000000,0.000000,0.000000,0.000000,0.000000,0.000000,0.000000,0.000000,0.000000,0.000000,0.000000,0.000000,0.000000,0.000000,0.000000,0.000000,0.000000,0.000000,0.000000
0.100000,0.000,0,0.000000,0.000000,0.000000,0.000000,0.098000,0.098000,0.000000,0.000000,0.000000,0.000000,0.000000,0.500000,0.500000,0.000000,0.000000,0.000000,0.000000,0.000000,0.000000,0.000000,0.000000,0.000000,0.000000,0.000000,0.000000,0.000000,0.000000,-0.000185,0.000000,NaN,NaN,NaN,NaN,NaN,NaN,NaN,NaN,0.000000,0.000000,NaN,NaN,10.100000,0.419957,195.560000,0.030000,0.040000,0.000000,0.000000,0.224419,0.003917,-0.000440,180.000000,0.000000,0.981239,0.000000,0.000000,-0.013176,-9.817123,0.000000,0.000000,0.000000,0.000000,0.060000,0.060000,0.070000,0.070000,0.000000,0.000000,0.000000,0.000000,0.000000,0.000000,0.000000,0.000000,0.000000,0.000000,0.000000,0.000000,0.000000,0.000000,0.000000,0.000000,0.000000,0.000000,0.000000,0.000000,0.000000,0.000000,0.000000,0.000000,0.000000,0.000000,0.000000,0.000000,0.000000,0.000000,0.000000,0.000000,0.000000,0.000000,0.000000,0.000000,0.000000,0.000000,0.000000,0.000000,0.000000,0.000000,0.000000,0.000000
0.110000,0.000,0,0.000000,0.000000,0.000000,0.000000,0.098000,0.098000,0.000000,0.000000,0.000000,0.000000,0.000000,0.500000,0.500000,0.000000,0.000000,0.000000,0.000000,0.000000,0.000000,0.000000,0.000000,0.000000,0.000000,0.000000,0.000000,0.000000,0.000000,-0.000185,0.000000,NaN,NaN,NaN,NaN,NaN,NaN,NaN,NaN,0.000000,0.000000,NaN,NaN,10.100000,0.419957,195.560000,0.030000,0.040000,0.000000,0.000000,0.224289,0.003915,-0.000440,180.000000,0.000000,0.981239,0.000000,0.000000,-0.015992,-9.818673,0.000000,0.000000,0.000000,0.000000,0.060000,0.060000,0.070000,0.070000,0.000000,0.000000,0.000000,0.000000,0.000000,0.000000,0.000000,0.000000,0.000000,0.000000,0.000000,0.000000,0.000000,0.000000,0.000000,0.000000,0.000000,0.000000,0.000000,0.000000,0.000000,0.000000,0.000000,0.000000,0.000000,0.000000,0.000000,0.000000,0.000000,0.000000,0.000000,0.000000,0.000000,0.000000,0.000000,0.000000,0.000000,0.000000,0.000000,0.000000,0.000000,0.000000,0.000000,0.000000
0.120000,0.000,0,0.000000,0.000000,0.000000,0.000000,0.118000,0.118000,0.000000,0.000000,0.000000,0.000000,0.000000,0.500000,0.500000,0.000000,0.000000,0.000000,0.000000,0.000000,0.000000,0.000000,0.000000,0.000000,0.000000,0.000000,0.000000,0.000000,0.000000,-0.000322,0.000000,NaN,NaN,NaN,NaN,NaN,NaN,NaN,NaN,0.000000,0.000000,NaN,NaN,10.100000,0.398166,195.560000,0.030000,0.040000,0.000000,0.000000,0.224121,0.003912,-0.000440,180.000000,0.000000,0.981239,0.000000,0.000000,-0.019077,-9.820342,0.000000,0.000000,0.000000,0.000000,0.060000,0.060000,0.070000,0.070000,0.000000,0.000000,0.000000,0.000000,0.000000,0.000000,0.000000,0.000000,0.000000,0.000000,0.000000,0.000000,0.000000,0.000000,0.000000,0.000000,0.000000,0.000000,0.000000,0.000000,0.000000,0.000000,0.000000,0.000000,0.000000,0.000000,0.000000,0.000000,0.000000,0.000000,0.000000,0.000000,0.000000,0.000000,0.000000,0.000000,0.000000,0.000000,0.000000,0.000000,0.000000,0.000000,0.000000,0.000000
0.130000,0.000,0,0.000000,0.000000,0.000000,0.000000,0.118000,0.118000,0.000000,0.000000,0.000000,0.000000,0.000000,0.500000,0.500000,0.000000,0.000000,0.000000,0.000000,0.000000,0.000000,0.000000,0.000000,0.000000,0.000000,0.000000,0.000000,0.000000,0.000000,-0.000322,0.000000,NaN,NaN,NaN,NaN,NaN,NaN,NaN,NaN,0.000000,0.000000,NaN,NaN,10.100000,0.398166,195.560000,0.030000,0.040000,0.000000,0.000000,0.223908,0.003908,-0.000440,180.000000,0.000000,0.981239,0.000000,0.000000,-0.022431,-9.822130,0.000000,0.000000,0.000000,0.000000,0.060000,0.060000,0.070000,0.070000,0.000000,0.000000,0.000000,0.000000,0.000000,0.000000,0.000000,0.000000,0.000000,0.000000,0.000000,0.000000,0.000000,0.000000,0.000000,0.000000,0.000000,0.000000,0.000000,0.000000,0.000000,0.000000,0.000000,0.000000,0.000000,0.000000,0.000000,0.000000,0.000000,0.000000,0.000000,0.000000,0.000000,0.000000,0.000000,0.000000,0.000000,0.000000,0.000000,0.000000,0.000000,0.000000,0.000000,0.000000
0.140000,0.000,0,0.000015,0.000015,0.000015,0.000015,0.138000,0.138000,0.000000,0.000000,0.000000,0.000000,0.000000,0.500000,0.500000,0.000000,0.000000,0.000000,0.000000,0.000000,0.000000,0.000000,0.000000,0.000000,0.000000,0.000000,0.000000,0.000000,0.000000,-0.000514,0.000000,NaN,NaN,NaN,NaN,NaN,NaN,NaN,NaN,0.000015,0.000015,NaN,NaN,10.100000,0.372442,195.560000,0.030000,0.040000,0.000000,0.000000,0.223640,0.003903,-0.000440,180.000000,0.000000,0.981239,0.000000,0.000000,-0.026052,-9.824158,0.000000,0.000000,0.000000,0.000000,0.060000,0.060000,0.070000,0.070000,0.000000,0.000000,0.000000,0.000000,0.000000,0.000000,0.000000,0.000000,0.000000,0.000000,0.000000,0.000000,0.000000,0.000000,0.000000,0.000000,0.000000,0.000000,0.000000,0.000000,0.000000,0.000000,0.000000,0.000000,0.000000,0.000000,0.000000,0.000000,0.000000,0.000000,0.000000,0.000000,0.000000,0.000000,0.000000,0.000000,0.000000,0.000000,0.000000,0.000000,0.000000,0.000000,0.000000,0.000000
0.150000,0.000,0,0.000015,0.000015,0.000015,0.000015,0.138000,0.138000,0.000000,0.000000,0.000000,0.000000,0.000000,0.500000,0.500000,0.000000,0.000000,0.000000,0.000000,0.000000,0.000000,0.000000,0.000000,0.000000,0.000000,0.000000,0.000000,0.000000,0.000000,-0.000514,0.000000,NaN,NaN,NaN,NaN,NaN,NaN,NaN,NaN,0.000015,0.000015,NaN,NaN,10.100000,0.372442,195.560000,0.030000,0.040000,0.000000,0.000000,0.223305,0.003897,-0.000440,180.000000,0.000000,0.981239,0.000000,0.000000,-0.029938,-9.826184,0.000000,0.000000,0.000000,0.000000,0.060000,0.060000,0.070000,0.070000,0.000000,0.000000,0.000000,0.000000,0.000000,0.000000,0.000000,0.000000,0.000000,0.000000,0.000000,0.000000,0.000000,0.000000,0.000000,0.000000,0.000000,0.000000,0.000000,0.000000,0.000000,0.000000,0.000000,0.000000,0.000000,0.000000,0.000000,0.000000,0.000000,0.000000,0.000000,0.000000,0.000000,0.000000,0.000000,0.000000,0.000000,0.000000,0.000000,0.000000,0.000000,0.000000,0.000000,0.000000
0.160000,0.000,0,0.000015,0.000015,0.000015,0.000015,0.158000,0.158000,0.000000,0.000000,0.000000,0.000000,0.000000,0.500000,0.500000,0.000000,0.000000,0.000000,0.000000,0.000000,0.000000,0.000000,0.000000,0.000000,0.000000,0.000000,0.000000,0.000000,0.000000,-0.000769,0.000000,NaN,NaN,NaN,NaN,NaN,NaN,NaN,NaN,0.000015,0.000015,NaN,NaN,10.100000,0.342783,195.560000,0.030000,0.040000,0.000000,0.000000,0.222893,0.003890,-0.000440,180.000000,0.000000,0.981239,0.000000,0.000000,-0.034089,-9.828568,0.000000,0.000000,0.000000,0.000000,0.060000,0.060000,0.070000,0.070000,0.000000,0.000000,0.000000,0.000000,0.000000,0.000000,0.000000,0.000000,0.000000,0.000000,0.000000,0.000000,0.000000,0.000000,0.000000,0.000000,0.000000,0.000000,0.000000,0.000000,0.000000,0.000000,0.000000,0.000000,0.000000,0.000000,0.000000,0.000000,0.000000,0.000000,0.000000,0.000000,0.000000,0.000000,0.000000,0.000000,0.000000,0.000000,0.000000,0.000000,0.000000,0.000000,0.000000,0.000000
0.170000,0.000,0,0.000015,0.000015,0.000015,0.000015,0.158000,0.158000,0.000000,0.000000,0.000000,0.000000,0.000000,0.500000,0.500000,0.000000,0.000000,0.000000,0.000000,0.000000,0.000000,0.000000,0.000000,0.000000,0.000000,0.000000,0.000000,0.000000,0.000000,-0.000769,0.000000,NaN,NaN,NaN,NaN,NaN,NaN,NaN,NaN,0.000015,0.000015,NaN,NaN,10.100000,0.342783,195.560000,0.030000,0.040000,0.000000,0.000000,0.222405,0.003882,-0.000440,180.000000,0.000000,0.981239,0.000000,0.000000,-0.038503,-9.830954,0.000000,0.000000,0.000000,0.000000,0.060000,0.060000,0.070000,0.070000,0.000000,0.000000,0.000000,0.000000,0.000000,0.000000,0.000000,0.000000,0.000000,0.000000,0.000000,0.000000,0.000000,0.000000,0.000000,0.000000,0.000000,0.000000,0.000000,0.000000,0.000000,0.000000,0.000000,0.000000,0.000000,0.000000,0.000000,0.000000,0.000000,0.000000,0.000000,0.000000,0.000000,0.000000,0.000000,0.000000,0.000000,0.000000,0.000000,0.000000,0.000000,0.000000,0.000000,0.000000
0.180000,0.000,0,0.000031,0.000031,0.000031,0.000031,0.177999,0.177999,0.000000,0.000000,0.000000,0.000000,0.000000,0.500000,0.500000,0.000000,0.000000,0.000000,0.000000,0.000000,0.000000,0.000000,0.000000,0.000000,0.000000,0.000000,0.000000,0.000000,0.000000,-0.001098,0.000000,NaN,NaN,NaN,NaN,NaN,NaN,NaN,NaN,0.000031,0.000031,NaN,NaN,10.100000,0.309185,195.560000,0.030000,0.040000,0.000000,0.000000,0.221809,0.003871,-0.000440,180.000000,0.000000,0.981239,0.000000,0.000000,-0.043178,-9.833457,0.000000,0.000000,0.000000,0.000000,0.060000,0.060000,0.070000,0.070000,0.000000,0.000000,0.000000,0.000000,0.000000,0.000000,0.000000,0.000000,0.000000,0.000000,0.000000,0.000000,0.000000,0.000000,0.000000,0.000000,0.000000,0.000000,0.000000,0.000000,0.000000,0.000000,0.000000,0.000000,0.000000,0.000000,0.000000,0.000000,0.000000,0.000000,0.000000,0.000000,0.000000,0.000000,0.000000,0.000000,0.000000,0.000000,0.000000,0.000000,0.000000,0.000000,0.000000,0.000000
0.190000,0.000,0,0.000031,0.000031,0.000031,0.000031,0.177999,0.177999,0.000000,0.000000,0.000000,0.000000,0.000000,0.500000,0.500000,0.000000,0.000000,0.000000,0.000000,0.000000,0.000000,0.000000,0.000000,0.000000,0.000000,0.000000,0.000000,0.000000,0.000000,-0.001098,0.000000,NaN,NaN,NaN,NaN,NaN,NaN,NaN,NaN,0.000031,0.000031,NaN,NaN,10.100000,0.309185,195.560000,0.030000,0.040000,0.000000,0.000000,0.221115,0.003859,-0.000440,180.000000,0.000000,0.981239,0.000000,0.000000,-0.048112,-9.836200,0.000000,0.000000,0.000000,0.000000,0.060000,0.060000,0.070000,0.070000,0.000000,0.000000,0.000000,0.000000,0.000000,0.000000,0.000000,0.000000,0.000000,0.000000,0.000000,0.000000,0.000000,0.000000,0.000000,0.000000,0.000000,0.000000,0.000000,0.000000,0.000000,0.000000,0.000000,0.000000,0.000000,0.000000,0.000000,0.000000,0.000000,0.000000,0.000000,0.000000,0.000000,0.000000,0.000000,0.000000,0.000000,0.000000,0.000000,0.000000,0.000000,0.000000,0.000000,0.000000
0.200000,0.000,0,0.000046,0.000046,0.000046,0.000046,0.197999,0.197999,0.000000,0.000000,0.000000,0.000000,0.000000,0.500000,0.500000,0.000000,0.000000,0.000000,0.000000,0.000000,0.000000,0.000000,0.000000,0.000000,0.000000,0.000000,0.000000,0.000000,0.000000,-0.001508,0.000000,NaN,NaN,NaN,NaN,NaN,NaN,NaN,NaN,0.000046,0.000046,NaN,NaN,10.100000,0.271644,195.560000,0.030000,0.040000,0.000000,0.000000,0.220306,0.003845,-0.003469,180.000000,0.000000,1.963949,0.000000,0.000000,-0.053305,-9.839062,0.000000,0.000000,0.000000,0.000000,0.060000,0.060000,0.070000,0.070000,0.000000,0.000000,0.000000,0.000000,0.000000,0.000000,0.000000,0.000000,0.000000,0.000000,0.000000,0.000000,0.000000,0.000000,0.000000,0.000000,0.000000,0.000000,0.000000,0.000000,0.000000,0.000000,0.000000,0.000000,0.000000,0.000000,0.000000,0.000000,0.000000,0.000000,0.000000,0.000000,0.000000,0.000000,0.000000,0.000000,0.000000,0.000000,0.000000,0.000000,0.000000,0.000000,0.000000,0.000000
0.210000,0.000,0,0.000046,0.000046,0.000046,0.000046,0.197999,0.197999,0.000000,0.000000,0.000000,0.000000,0.000000,0.500000,0.500000,0.000000,0.000000,0.000000,0.000000,0.000000,0.000000,0.000000,0.000000,0.000000,0.000000,0.000000,0.000000,0.000000,0.000000,-0.001508,0.000000,NaN,NaN,NaN,NaN,NaN,NaN,NaN,NaN,0.000046,0.000046,NaN,NaN,10.100000,0.271644,195.560000,0.030000,0.040000,0.000000,0.000000,0.219353,0.003828,-0.003469,180.000000,0.000000,1.963949,0.000000,0.000000,-0.058753,-9.842044,0.000000,0.000000,0.000000,0.000000,0.060000,0.060000,0.070000,0.070000,0.000000,0.000000,0.000000,0.000000,0.000000,0.000000,0.000000,0.000000,0.000000,0.000000,0.000000,0.000000,0.000000,0.000000,0.000000,0.000000,0.000000,0.000000,0.000000,0.000000,0.000000,0.000000,0.000000,0.000000,0.000000,0.000000,0.000000,0.000000,0.000000,0.000000,0.000000,0.000000,0.000000,0.000000,0.000000,0.000000,0.000000,0.000000,0.000000,0.000000,0.000000,0.000000,0.000000,0.000000
0.220000,0.000,0,0.000168,0.000168,0.000168,0.000168,0.217996,0.217996,0.000000,0.000000,0.000000,0.000000,0.000000,0.500000,0.500000,0.000000,0.000000,0.000000,0.000000,0.000000,0.000000,0.000000,0.000000,0.000000,0.000000,0.000000,0.000000,0.000000,0.000000,-0.002010,0.000000,NaN,NaN,NaN,NaN,NaN,NaN,NaN,NaN,0.000183,0.000183,NaN,NaN,10.100000,0.230155,195.560200,0.030000,0.040000,0.000000,0.000000,0.218269,0.003810,-0.003469,180.000000,0.000000,1.963949,0.000000,0.000000,-0.064455,-9.845145,0.000000,0.000000,0.000000,0.000000,0.060000,0.060000,0.070000,0.070000,0.000000,0.000000,0.000000,0.000000,0.000000,0.000000,0.000000,0.000000,0.000000,0.000000,0.000000,0.000000,0.000000,0.000000,0.000000,0.000000,0.000000,0.000000,0.000000,0.000000,0.000000,0.000000,0.000000,0.000000,0.000000,0.000000,0.000000,0.000000,0.000000,0.000000,0.000000,0.000000,0.000000,0.000000,0.000000,0.000000,0.000000,0.000000,0.000000,0.000000,0.000000,0.000000,0.000000,0.000000
0.230000,0.000,0,0.000168,0.000168,0.000168,0.000168,0.217996,0.217996,0.000000,0.000000,0.000000,0.000000,0.000000,0.500000,0.500000,0.000000,0.000000,0.000000,0.000000,0.000000,0.000000,0.000000,0.000000,0.000000,0.000000,0.000000,0.000000,0.000000,0.000000,-0.002010,0.000000,NaN,NaN,NaN,NaN,NaN,NaN,NaN,NaN,0.000183,0.000183,NaN,NaN,10.100000,0.230155,195.560200,0.030000,0.040000,0.000000,0.000000,0.217018,0.003788,-0.003469,180.000000,0.000000,1.963949,0.000000,0.000000,-0.070409,-9.848485,0.000000,0.000000,0.000000,0.000000,0.060000,0.060000,0.070000,0.070000,0.000000,0.000000,0.000000,0.000000,0.000000,0.000000,0.000000,0.000000,0.000000,0.000000,0.000000,0.000000,0.000000,0.000000,0.000000,0.000000,0.000000,0.000000,0.000000,0.000000,0.000000,0.000000,0.000000,0.000000,0.000000,0.000000,0.000000,0.000000,0.000000,0.000000,0.000000,0.000000,0.000000,0.000000,0.000000,0.000000,0.000000,0.000000,0.000000,0.000000,0.000000,0.000000,0.000000,0.000000
0.240000,0.000,0,0.000336,0.000336,0.000336,0.000336,0.237992,0.237991,0.000000,0.000000,0.000000,0.000000,0.000000,0.500000,0.500000,0.000000,0.000000,0.000000,0.000000,0.000000,0.000000,0.000000,0.000000,0.000000,0.000000,0.000000,0.000000,0.000000,0.000000,-0.002613,0.000000,NaN,NaN,NaN,NaN,NaN,NaN,NaN,NaN,0.000366,0.000366,NaN,NaN,10.100000,0.184715,195.560400,0.030000,0.040000,0.000000,0.000000,0.215591,0.003763,-0.003469,180.000000,0.000000,1.963949,0.000000,0.000000,-0.076613,-9.851945,0.000000,0.000000,0.000000,0.000000,0.060000,0.060000,0.070000,0.070000,0.000000,0.000000,0.000000,0.000000,0.000000,0.000000,0.000000,0.000000,0.000000,0.000000,0.000000,0.000000,0.000000,0.000000,0.000000,0.000000,0.000000,0.000000,0.000000,0.000000,0.000000,0.000000,0.000000,0.000000,0.000000,0.000000,0.000000,0.000000,0.000000,0.000000,0.000000,0.000000,0.000000,0.000000,0.000000,0.000000,0.000000,0.000000,0.000000,0.000000,0.000000,0.000000,0.000000,0.000000
0.250000,0.000,0,0.000336,0.000336,0.000336,0.000336,0.237992,0.237991,0.000000,0.000000,0.000000,0.000000,0.000000,0.500000,0.500000,0.000000,0.000000,0.000000,0.000000,0.000000,0.000000,0.000000,0.000000,0.000000,0.000000,0.000000,0.000000,0.000000,0.000000,-0.002613,0.000000,NaN,NaN,NaN,NaN,NaN,NaN,NaN,NaN,0.000366,0.000366,NaN,NaN,10.100000,0.184715,195.560400,0.030000,0.040000,0.000000,0.000000,0.213982,0.003735,-0.003469,180.000000,0.000000,1.963949,0.000000,0.000000,-0.083065,-9.855524,0.000000,0.000000,0.000000,0.000000,0.060000,0.060000,0.070000,0.070000,0.000000,0.000000,0.000000,0.000000,0.000000,0.000000,0.000000,0.000000,0.000000,0.000000,0.000000,0.000000,0.000000,0.000000,0.000000,0.000000,0.000000,0.000000,0.000000,0.000000,0.000000,0.000000,0.000000,0.000000,0.000000,0.000000,0.000000,0.000000,0.000000,0.000000,0.000000,0.000000,0.000000,0.000000,0.000000,0.000000,0.000000,0.000000,0.000000,0.000000,0.000000,0.000000,0.000000,0.000000
0.260000,0.001,0,0.000534,0.000534,0.000534,0.000534,0.257987,0.257986,0.000000,0.000000,0.000000,0.000000,0.000000,0.500000,0.500000,0.000000,0.000000,0.000000,0.000000,0.000000,0.000000,0.000000,0.000000,0.000000,0.000000,0.000000,0.000000,0.000000,0.000000,-0.003326,0.000000,NaN,NaN,NaN,NaN,NaN,NaN,NaN,NaN,0.000549,0.000549,NaN,NaN,10.100000,0.135316,195.560600,0.030000,0.040000,0.000000,0.000000,0.212166,0.003703,-0.003469,180.000000,0.000000,1.963949,0.000000,0.000000,-0.089761,-9.859344,0.000000,0.000000,0.000000,0.000000,0.060000,0.060000,0.070000,0.070000,0.000000,0.000000,0.000000,0.000000,0.000000,0.000000,0.000000,0.000000,0.000000,0.000000,0.000000,0.000000,0.000000,0.000000,0.000000,0.000000,0.000000,0.000000,0.000000,0.000000,0.000000,0.000000,0.000000,0.000000,0.000000,0.000000,0.000000,0.000000,0.000000,0.000000,0.000000,0.000000,0.000000,0.000000,0.000000,0.000000,0.000000,0.000000,0.000000,0.000000,0.000000,0.000000,0.000000,0.000000
0.270000,0.001,0,0.000534,0.000534,0.000534,0.000534,0.257987,0.257986,0.000000,0.000000,0.000000,0.000000,0.000000,0.500000,0.500000,0.000000,0.000000,0.000000,0.000000,0.000000,0.000000,0.000000,0.000000,0.000000,0.000000,0.000000,0.000000,0.000000,0.000000,-0.003326,0.000000,NaN,NaN,NaN,NaN,NaN,NaN,NaN,NaN,0.000549,0.000549,NaN,NaN,10.100000,0.135316,195.560600,0.030000,0.040000,0.000000,0.000000,0.210121,0.003667,-0.003469,180.000000,0.000000,1.963949,0.000000,0.000000,-0.096700,-9.863401,0.000000,0.000000,0.000000,0.000000,0.060000,0.060000,0.070000,0.070000,0.000000,0.000000,0.000000,0.000000,0.000000,0.000000,0.000000,0.000000,0.000000,0.000000,0.000000,0.000000,0.000000,0.000000,0.000000,0.000000,0.000000,0.000000,0.000000,0.000000,0.000000,0.000000,0.000000,0.000000,0.000000,0.000000,0.000000,0.000000,0.000000,0.000000,0.000000,0.000000,0.000000,0.000000,0.000000,0.000000,0.000000,0.000000,0.000000,0.000000,0.000000,0.000000,0.000000,0.000000
0.280000,0.001,0,0.000717,0.000717,0.000717,0.000717,0.277983,0.277982,0.000000,0.000000,0.000000,0.000000,0.000000,0.500000,0.500000,0.000000,0.000000,0.000000,0.000000,0.000000,0.000000,0.000000,0.000000,0.000000,0.000000,0.000000,0.000000,0.000000,0.000000,-0.004159,0.000000,NaN,NaN,NaN,NaN,NaN,NaN,NaN,NaN,0.000732,0.000732,NaN,NaN,10.100000,0.081954,195.560800,0.030000,0.040000,0.000000,0.000000,0.207840,0.003628,-0.003469,180.000000,0.000000,1.963949,0.000000,0.000000,-0.103879,-9.867460,0.000000,0.000000,0.000000,0.000000,0.060000,0.060000,0.070000,0.070000,0.000000,0.000000,0.000000,0.000000,0.000000,0.000000,0.000000,0.000000,0.000000,0.000000,0.000000,0.000000,0.000000,0.000000,0.000000,0.000000,0.000000,0.000000,0.000000,0.000000,0.000000,0.000000,0.000000,0.000000,0.000000,0.000000,0.000000,0.000000,0.000000,0.000000,0.000000,0.000000,0.000000,0.000000,0.000000,0.000000,0.000000,0.000000,0.000000,0.000000,0.000000,0.000000,0.000000,0.000000
0.290000,0.001,0,0.000717,0.000717,0.000717,0.000717,0.277983,0.277982,0.000000,0.000000,0.000000,0.000000,0.000000,0.500000,0.500000,0.000000,0.000000,0.000000,0.000000,0.000000,0.000000,0.000000,0.000000,0.000000,0.000000,0.000000,0.000000,0.000000,0.000000,-0.004159,0.000000,NaN,NaN,NaN,NaN,NaN,NaN,NaN,NaN,0.000732,0.000732,NaN,NaN,10.100000,0.081954,195.560800,0.030000,0.040000,0.000000,0.000000,0.205292,0.003583,-0.003469,180.000000,0.000000,1.963949,0.000000,0.000000,-0.111296,-9.871640,0.000000,0.000000,0.000000,0.000000,0.060000,0.060000,0.070000,0.070000,0.000000,0.000000,0.000000,0.000000,0.000000,0.000000,0.000000,0.000000,0.000000,0.000000,0.000000,0.000000,0.000000,0.000000,0.000000,0.000000,0.000000,0.000000,0.000000,0.000000,0.000000,0.000000,0.000000,0.000000,0.000000,0.000000,0.000000,0.000000,0.000000,0.000000,0.000000,0.000000,0.000000,0.000000,0.000000,0.000000,0.000000,0.000000,0.000000,0.000000,0.000000,0.000000,0.000000,0.000000
0.300000,0.001,0,0.000946,0.000946,0.000946,0.000946,0.297977,0.297976,0.000000,-7.717000,0.000000,0.000000,0.000000,0.500000,0.000000,0.000000,0.000000,0.000000,0.000000,0.000000,4.198000,0.000000,0.000000,0.000000,0.000000,0.000000,0.000000,0.000000,0.000000,-0.030494,0.000000,NaN,NaN,0.001012,0.001012,NaN,NaN,0.000000,0.000000,0.000992,0.000992,NaN,NaN,10.100000,0.024588,195.561100,0.030000,0.031584,0.000000,0.000000,0.010239,0.000179,-0.010495,180.000000,0.000000,2.934018,0.000000,0.000000,0.129712,-2.674045,0.000000,0.000000,10111.420000,10111.420000,0.060000,0.060000,0.061584,0.061584,0.000000,0.000000,0.008416,0.008416,0.000000,0.000000,2.889067,2.889067,0.000000,0.000000,1430.756000,1430.756000,0.000000,0.000000,8667.199000,8667.199000,0.000000,0.000000,-0.029815,-0.029815,0.000000,0.000000,6.989420,6.989420,0.000000,0.000000,0.000000,0.000000,0.000000,0.000000,0.000000,0.000000,0.000000,0.000000,0.000000,0.000000,0.000000,0.000000,105.889000,105.889000,0.000000,0.000000,0.000000,0.000000
0.310000,0.002,0,0.000946,0.000946,0.000946,0.000946,0.297977,0.297976,0.000000,-7.717000,0.000000,0.000000,0.000000,0.500000,0.000000,0.000000,0.000000,0.000000,0.000000,0.000000,4.198000,0.000000,0.000000,0.000000,0.000000,0.000000,0.000000,0.000000,0.000000,-0.030494,0.000000,NaN,NaN,0.001012,0.001012,NaN,NaN,0.000000,0.000000,0.000992,0.000992,NaN,NaN,10.100000,0.024588,195.561100,0.000658,0.003992,0.000000,0.000000,0.000000,0.000000,-0.010495,180.000000,0.000000,2.934018,0.000000,0.000000,0.259068,27.609950,13661.420000,13661.420000,14143.930000,14143.930000,0.030658,0.030658,0.033991,0.033991,0.029342,0.029342,0.036009,0.036009,2.904713,2.904713,2.660021,2.660021,4988.059000,4988.059000,6121.442000,6121.442000,8714.132000,8714.132000,7980.057000,7980.057000,-0.062075,-0.062075,-0.062076,-0.062076,0.000000,0.000000,0.528058,0.528058,0.000000,0.000000,0.000000,0.000000,0.000000,0.000000,0.000000,0.000000,0.000357,-0.000357,0.000000,0.000000,7.773514,7.773514,9.533836,9.533836,-124.228500,124.227000,0.000900,0.000900
0.320000,0.002,0,0.002014,0.002014,0.002014,0.002014,0.317951,0.317948,0.000000,-7.449000,0.000000,0.000000,0.000000,0.500000,0.000000,0.000000,0.000000,0.000000,0.000000,0.000000,-3.332000,0.000000,0.000000,0.000000,0.000000,0.000000,-0.001009,0.000000,0.000000,-0.074584,-0.000046,0.000000,0.000000,-0.000576,-0.000576,0.220100,-0.171250,0.022332,0.022332,0.002121,0.002121,NaN,NaN,10.100000,-0.031222,195.562200,-0.026480,-0.020802,0.000000,0.000000,0.000000,0.000000,-0.010495,180.000000,0.000000,2.934018,0.000000,0.004113,0.233621,42.311460,21216.230000,21216.050000,17445.820000,17445.640000,0.003520,0.003520,0.009198,0.009198,0.056480,0.056480,0.060802,0.060802,2.549067,2.549007,2.358869,2.358809,9601.593000,9601.565000,10336.260000,10336.240000,7647.182000,7647.003000,7076.588000,7076.409000,-0.044796,-0.044797,-0.044797,-0.044797,0.000000,0.000000,-4.987335,-4.986326,0.000000,0.000000,0.000000,0.000000,0.000000,0.000000,0.000000,0.000000,0.000290,-0.000226,0.000032,0.000032,-52.907550,-52.906680,-69.531620,-69.529880,-156.885300,122.065000,-14.361680,-14.361530
0.330000,0.005,0,0.002014,0.002014,0.002014,0.002014,0.317951,0.317948,0.000000,-7.449000,0.000000,0.000000,0.000000,0.500000,0.000000,0.000000,0.000000,0.000000,0.000000,0.000000,-3.332000,0.000000,0.000000,0.000000,0.000000,0.000000,-0.001009,0.000000,0.000000,-0.074584,-0.000046,0.000000,0.000000,-0.000576,-0.000576,0.220100,-0.171250,0.022332,0.022332,0.002121,0.002121,NaN,NaN,10.100000,-0.031222,195.562200,-0.029154,-0.030078,0.000000,0.000000,0.000000,0.000000,-0.010495,180.000000,0.000000,2.934018,0.000000,-1.404807,-0.666356,26.727740,15257.700000,15318.810000,11754.550000,11817.380000,0.000865,0.000828,-0.000059,-0.000096,0.059135,0.059172,0.070059,0.070096,-0.227213,-0.205994,-0.042334,-0.021115,10051.820000,10060.430000,11900.000000,11900.000000,-681.638600,-617.980900,-127.002600,-63.344830,0.030065,0.030746,0.030129,0.030683,0.000000,0.000000,8.475032,6.139663,0.000000,0.000000,0.000000,0.000000,0.000000,0.000000,0.000000,0.000000,-0.011155,-0.010805,-0.009973,-0.009973,-30.388490,-34.445190,-2.585724,-13.533380,4338.882000,4219.551000,2988.316000,3004.288000
0.340000,0.006,0,0.005450,0.005450,0.005450,0.005450,0.337867,0.337860,0.000000,10.136000,0.000000,0.000000,0.000000,0.500000,0.000000,0.000000,0.000000,0.000000,0.000000,0.000000,-1.830000,0.000000,0.000000,0.000000,0.000000,0.000000,17.530430,0.003768,0.002791,0.115635,-0.127952,0.000000,0.000000,-0.000548,-0.000290,21.119930,21.086300,20.172270,19.948290,0.005856,0.005856,NaN,NaN,10.100340,-0.024250,195.560400,-0.025090,-0.028600,-0.019782,-0.019782,0.000000,0.000000,-0.010495,180.000000,0.000000,2.934018,0.000000,29.432530,-0.121475,22.045560,12699.880000,12643.830000,11120.460000,10747.160000,0.005213,0.004606,0.001704,0.001096,0.054787,0.055394,0.068296,0.068904,-0.431001,-0.610143,-0.136107,-0.315264,9297.071000,9433.798000,11610.350000,11713.610000,-1293.002000,-1830.427000,-408.321200,-945.790500,0.053005,0.049237,0.052518,0.049726,0.000000,0.000000,4.699899,-12.830530,0.000000,0.000000,0.000000,0.000000,0.000000,0.000000,0.000000,0.000000,0.084543,0.085132,0.079762,0.079762,-53.142510,19.192550,-27.630420,-33.423020,-11341.110000,-11293.630000,-10010.150000,-9697.745000
0.350000,0.007,0,0.005450,0.005450,0.005450,0.005450,0.337867,0.337860,0.000000,10.136000,0.000000,0.000000,0.000000,0.500000,0.000000,0.000000,0.000000,0.000000,0.000000,0.000000,-1.830000,0.000000,0.000000,0.000000,0.000000,0.000000,17.530430,0.003768,0.002791,0.115635,-0.127952,0.000000,0.000000,-0.000548,-0.000290,21.119930,21.086300,20.172270,19.948290,0.005856,0.005856,NaN,NaN,10.100340,-0.024250,195.560400,-0.018606,-0.025165,-0.059347,-0.059347,0.000000,0.000000,-0.010495,180.000000,0.000000,2.934018,0.000000,-24.560530,-0.086139,16.004640,8849.766000,9973.673000,9337.644000,10185.240000,0.012114,0.010674,0.005555,0.004115,0.047886,0.049326,0.064445,0.065885,-0.831872,-0.605241,-0.535026,-0.308439,8106.086000,8420.986000,10955.610000,11200.480000,-2495.607000,-1815.714000,-1605.073000,-925.313900,0.050127,0.051055,0.050850,0.050334,0.000000,0.000000,11.764280,-15.278340,0.000000,0.000000,0.000000,0.000000,0.000000,0.000000,0.000000,0.000000,-0.125708,-0.125125,-0.126357,-0.126357,16.572960,7.401823,39.214240,-35.820860,8122.579000,9053.116000,8525.676000,9229.084000
0.360000,0.008,0,0.008082,0.008082,0.008082,0.008082,0.357803,0.357793,0.000000,4.945000,0.000000,0.000000,0.000000,0.500000,0.000000,0.000000,0.000000,0.000000,0.000000,0.000000,0.979000,0.000000,0.000000,0.000000,0.000000,0.000000,23.656960,-0.003430,-0.004369,0.077398,-0.149420,0.000000,0.000000,0.002430,-0.001963,17.283210,17.203130,18.610900,18.363700,0.008274,0.008274,NaN,NaN,10.100750,-0.009363,195.559400,-0.010819,-0.019819,-0.034264,-0.034264,0.000000,0.000000,-0.010495,180.000000,0.000000,2.934018,0.000000,19.387690,0.051870,9.778784,6305.356000,6171.884000,8518.159000,8106.167000,0.019606,0.018757,0.010606,0.009756,0.040394,0.041243,0.059394,0.060244,-0.700355,-0.909537,-0.503033,-0.712186,6849.769000,7028.805000,10096.990000,10241.360000,-2101.050000,-2728.594000,-1509.090000,-2136.544000,0.028055,0.031485,0.027586,0.031955,0.000000,0.000000,11.688870,-11.968090,0.000000,0.000000,0.000000,0.000000,0.000000,0.000000,0.000000,0.000000,0.081492,0.081834,0.089609,0.089609,55.689800,13.287050,100.812100,-32.764770,-6031.686000,-5921.828000,-7849.253000,-7510.294000
0.370000,0.009,0,0.008082,0.008082,0.008082,0.008082,0.357803,0.357793,0.000000,4.945000,0.000000,0.000000,0.000000,0.500000,0.000000,0.000000,0.000000,0.000000,0.000000,0.000000,0.979000,0.000000,0.000000,0.000000,0.000000,0.000000,23.656960,-0.003430,-0.004369,0.077398,-0.149420,0.000000,0.000000,0.002430,-0.001963,17.283210,17.203130,18.610900,18.363700,0.008274,0.008274,NaN,NaN,10.100750,-0.009363,195.559400,-0.002750,-0.012766,-0.019782,-0.019782,0.000000,0.000000,-0.010495,180.000000,0.000000,2.934018,0.000000,-14.497780,0.147464,3.994647,3425.046000,3840.038000,6501.269000,6834.264000,0.027593,0.026907,0.017577,0.016891,0.032407,0.033093,0.052423,0.053109,-0.838205,-0.756904,-0.806287,-0.724956,5497.979000,5637.111000,8911.837000,9028.494000,-2514.596000,-2270.696000,-2418.842000,-2174.852000,-0.000901,-0.008308,-0.000592,-0.008617,0.000000,0.000000,9.065479,-1.920176,0.000000,0.000000,0.000000,0.000000,0.000000,0.000000,0.000000,0.000000,-0.053696,-0.053749,-0.068317,-0.068317,7.415407,86.618610,30.218260,84.604600,3597.086000,3961.875000,6192.767000,6466.234000
0.380000,0.010,0,0.009472,0.009472,0.009472,0.009472,0.377769,0.377757,0.000000,-8.974000,0.000000,0.000000,0.000000,0.500000,0.000000,0.000000,0.000000,0.000000,0.000000,0.000000,2.328000,0.000000,0.000000,0.000000,0.000000,0.000000,-19.466140,-0.007417,-0.007877,-0.057830,-0.092959,0.000000,0.000000,0.002502,-0.000796,13.606400,12.993640,16.566010,16.361460,0.009573,0.009573,NaN,NaN,10.100720,0.006452,195.559600,0.004849,-0.004392,-0.019782,0.000000,0.000000,0.000000,-0.010495,180.000000,0.000000,2.934018,0.000000,10.138380,0.207963,-0.473417,2227.776000,1893.916000,5110.020000,4769.095000,0.034864,0.034834,0.025623,0.025593,0.025136,0.025166,0.044377,0.044407,-0.665039,-0.795156,-0.812516,-0.942573,4272.741000,4278.486000,7544.067000,7549.083000,-1995.103000,-2385.451000,-2437.531000,-2827.700000,-0.045704,-0.038287,-0.045935,-0.038058,0.000000,0.000000,-6.494623,12.971510,0.000000,0.000000,0.000000,0.000000,0.000000,0.000000,0.000000,0.000000,0.040193,0.039710,0.054277,0.054277,92.220400,-4.822612,73.474130,35.514190,-2282.590000,-1917.174000,-5042.032000,-4756.088000
0.390000,0.010,0,0.009472,0.009472,0.009472,0.009472,0.377769,0.377757,0.000000,-8.974000,0.000000,0.000000,0.000000,0.500000,0.000000,0.000000,0.000000,0.000000,0.000000,0.000000,2.328000,0.000000,0.000000,0.000000,0.000000,0.000000,-19.466140,-0.007417,-0.007877,-0.057830,-0.092959,0.000000,0.000000,0.002502,-0.000796,13.606400,12.993640,16.566010,16.361460,0.009573,0.009573,NaN,NaN,10.100720,0.006452,195.559600,0.011632,0.004742,0.000000,0.019782,0.000000,0.000000,-0.010495,180.000000,0.000000,2.934018,0.000000,-5.349473,0.162889,-3.994109,1143.618000,1153.271000,3248.774000,3261.953000,0.041549,0.041714,0.034659,0.034824,0.018451,0.018286,0.035341,0.035176,-0.649855,-0.634328,-0.937194,-0.921682,3138.168000,3107.045000,6007.958000,5979.866000,-1949.556000,-1902.975000,-2811.571000,-2765.034000,-0.068451,-0.074952,-0.068342,-0.075063,0.000000,0.000000,-0.163482,4.912641,0.000000,0.000000,0.000000,0.000000,0.000000,0.000000,0.000000,0.000000,-0.018730,-0.019554,-0.031365,-0.031365,-11.785760,76.934330,-13.786710,94.766060,546.045200,574.879800,2597.562000,2608.095000
0.400000,0.011,0,0.010813,0.010813,0.010813,0.010813,0.397736,0.397723,0.000000,-18.029000,0.000000,0.000000,0.000000,0.500000,0.000000,0.000000,0.000000,0.000000,0.000000,0.000000,1.050000,0.000000,0.000000,0.000000,0.000000,0.000000,6.319010,-0.001167,-0.001125,-0.148785,-0.017068,0.000000,0.000000,0.002081,-0.000403,-0.857139,-1.130039,-0.503327,-0.495582,0.010997,0.010997,NaN,NaN,10.100800,0.018905,195.561100,0.017473,0.014047,0.019782,0.019782,0.000000,0.000000,-0.005408,-117.136800,-0.012184,0.716547,-0.000804,0.207337,0.094640,-7.064964,508.276900,358.333400,1778.785000,1634.105000,0.047234,0.047711,0.043809,0.044286,0.012766,0.012289,0.026191,0.025714,-0.532419,-0.556335,-0.911817,-0.935718,2173.233000,2086.148000,4452.547000,4371.445000,-1597.254000,-1669.003000,-2735.448000,-2807.152000,-0.092621,-0.091455,-0.092602,-0.091477,0.000000,0.000000,4.593698,-1.725312,0.000000,0.000000,0.000000,0.000000,0.000000,0.000000,0.000000,0.000000,-0.003074,-0.004132,-0.001557,-0.001557,21.578180,19.421230,34.386150,13.674180,39.832020,37.743950,70.599580,64.857040
0.410000,0.012,0,0.010813,0.010813,0.010813,0.010813,0.397736,0.397723,0.000000,-18.029000,0.000000,0.000000,0.000000,0.500000,0.000000,0.000000,0.000000,0.000000,0.000000,0.000000,1.050000,0.000000,0.000000,0.000000,0.000000,0.000000,6.319010,-0.001167,-0.001125,-0.148785,-0.017068,0.000000,0.000000,0.002081,-0.000403,-0.857139,-1.130039,-0.503327,-0.495582,0.010997,0.010997,NaN,NaN,10.100800,0.018905,195.561100,0.022303,0.022973,0.034264,0.019782,0.000000,0.000000,-0.005408,-117.136800,-0.012184,0.716547,-0.000804,0.082754,0.029914,-9.529950,0.000000,0.000000,445.096400,299.931600,0.051978,0.052629,0.052648,0.053299,0.008022,0.007371,0.017352,0.016701,-0.435367,-0.448331,-0.858635,-0.871599,1366.433000,1250.752000,2949.848000,2839.178000,-1293.443000,-1182.619000,-2575.904000,-2614.796000,-0.103492,-0.101560,-0.103451,-0.101605,0.000000,0.000000,25.955990,-25.081550,0.000000,0.000000,0.000000,0.000000,0.000000,0.000000,0.000000,0.000000,-0.006887,-0.008065,-0.004119,-0.004119,8.116276,7.439231,86.519940,-76.141650,0.000000,0.000000,46.732890,31.491230
0.420000,0.013,0,0.012756,0.012756,0.012756,0.012756,0.417689,0.417673,0.000000,-19.787000,0.000000,0.000000,0.000000,0.500000,0.000000,0.000000,0.000000,0.000000,0.000000,0.000000,-0.039000,0.000000,0.000000,0.000000,0.000000,0.000000,5.933701,-0.001705,-0.000108,-0.164955,-0.006891,0.000000,-0.000001,0.108229,-0.126056,0.000000,0.000000,0.000000,0.000000,0.012970,0.012970,NaN,NaN,10.100940,0.027182,195.563000,0.026126,0.031032,0.034264,0.034264,0.000000,0.000000,-0.005408,-117.136800,-0.012184,0.716547,-0.000804,-0.003752,0.006986,-10.313750,0.000000,0.000000,0.000000,0.000000,0.055749,0.056502,0.060656,0.061408,0.004251,0.003498,0.009344,0.008592,-0.337854,-0.347495,-0.758469,-0.768140,724.186000,593.401200,1588.495000,1460.615000,-652.220900,-525.091100,-1659.698000,-1535.126000,-0.103763,-0.102057,-0.103716,-0.103608,0.000000,0.000000,2.911709,-3.021991,0.000000,0.000000,0.000000,0.000000,0.000000,0.000000,0.000000,0.001501,-0.007837,-0.009020,-0.005503,-0.005503,-1.114472,-0.959965,8.591437,-10.791260,0.000000,0.000000,0.000000,0.000000
0.430000,0.014,0,0.012756,0.012756,0.012756,0.012756,0.417689,0.417673,0.000000,-19.787000,0.000000,0.000000,0.000000,0.500000,0.000000,0.000000,0.000000,0.000000,0.000000,0.000000,-0.039000,0.000000,0.000000,0.000000,0.000000,0.000000,5.933701,-0.001705,-0.000108,-0.164955,-0.006891,0.000000,-0.000001,0.108229,-0.126056,0.000000,0.000000,0.000000,0.000000,0.012970,0.012970,NaN,NaN,10.100940,0.027182,195.563000,0.028960,0.038025,0.034264,0.034264,0.000000,0.000000,-0.005408,-117.136800,-0.012184,0.716547,-0.000804,-0.005531,0.026104,-10.219810,0.000000,0.000000,0.000000,0.000000,0.058537,0.059384,0.067602,0.068448,0.001463,0.000616,0.002398,0.001552,-0.239611,-0.248894,-0.652209,-0.661492,249.295800,104.521000,407.666100,263.761100,-178.800900,-37.531240,-477.657200,-336.913500,-0.102763,-0.101182,-0.102716,-0.102598,0.000000,0.000000,2.625979,-2.833006,0.000000,0.000000,0.000000,0.000000,0.000000,0.000000,0.000000,0.001366,-0.007842,-0.009018,-0.005733,-0.005733,-1.349649,-1.193298,7.403410,-10.791110,0.000000,0.000000,0.000000,0.000000
0.440000,0.015,0,0.014761,0.014761,0.014761,0.014761,0.437640,0.437622,0.000000,-19.559000,0.000000,0.000000,0.000000,0.500000,0.500000,0.000000,0.000000,0.000000,0.000000,0.000000,0.000000,0.000000,0.000000,0.000000,0.000000,0.000000,0.000000,-0.001101,0.000000,-0.160515,-0.009641,NaN,NaN,NaN,NaN,NaN,NaN,NaN,NaN,0.014960,0.014960,NaN,NaN,10.101100,0.031463,195.565000,0.030000,0.040000,0.000000,0.000000,-0.071030,-0.001240,-0.005408,-117.136800,-0.012184,0.716547,-0.000804,-0.006805,0.048921,-9.810785,0.000000,0.000000,0.000000,0.000000,0.060000,0.060000,0.070000,0.070000,0.000000,0.000000,0.000000,0.000000,0.000000,0.000000,0.000000,0.000000,0.000000,0.000000,0.000000,0.000000,0.000000,0.000000,0.000000,0.000000,-0.102283,-0.101182,-0.102411,-0.102411,0.000000,0.000000,-0.000005,-0.000005,0.000000,0.000000,0.000000,0.000000,0.102283,0.101182,0.102411,0.102411,0.000000,0.000000,0.000000,0.000000,0.000000,0.000000,0.000000,0.000000,0.000000,0.000000,0.000000,0.000000
0.450000,0.016,0,0.014761,0.014761,0.014761,0.014761,0.437640,0.437622,0.000000,-19.559000,0.000000,0.000000,0.000000,0.500000,0.500000,0.000000,0.000000,0.000000,0.000000,0.000000,0.000000,0.000000,0.000000,0.000000,0.000000,0.000000,0.000000,-0.001101,0.000000,-0.160515,-0.009641,NaN,NaN,NaN,NaN,NaN,NaN,NaN,NaN,0.014960,0.014960,NaN,NaN,10.101100,0.031463,195.565000,0.030000,0.040000,0.000000,0.000000,-0.163002,-0.002845,-0.005408,-117.136800,-0.012184,0.716547,-0.000804,-0.007750,0.065499,-9.810248,0.000000,0.000000,0.000000,0.000000,0.060000,0.060000,0.070000,0.070000,0.000000,0.000000,0.000000,0.000000,0.000000,0.000000,0.000000,0.000000,0.000000,0.000000,0.000000,0.000000,0.000000,0.000000,0.000000,0.000000,-0.102283,-0.101182,-0.102411,-0.102411,0.000000,0.000000,-0.000005,-0.000005,0.000000,0.000000,0.000000,0.000000,0.102283,0.101182,0.102411,0.102411,0.000000,0.000000,0.000000,0.000000,0.000000,0.000000,0.000000,0.000000,0.000000,0.000000,0.000000,0.000000
0.460000,0.017,0,0.016734,0.016734,0.016734,0.016734,0.457592,0.457571,0.000000,-19.559000,0.000000,0.000000,0.000000,0.500000,0.500000,0.000000,0.000000,0.000000,0.000000,0.000000,0.000000,0.000000,0.000000,0.000000,0.000000,0.000000,0.000000,-0.001101,0.000000,-0.160522,-0.009641,NaN,NaN,NaN,NaN,NaN,NaN,NaN,NaN,0.016933,0.016933,NaN,NaN,10.101240,0.031825,195.567000,0.030000,0.040000,-0.019782,-0.019782,-0.254967,-0.004450,-0.005408,-117.136800,-0.012184,0.716547,-0.000804,-0.008695,0.081803,-9.809826,0.000000,0.000000,0.000000,0.000000,0.060000,0.060000,0.070000,0.070000,0.000000,0.000000,0.000000,0.000000,0.000000,0.000000,0.000000,0.000000,0.000000,0.000000,0.000000,0.000000,0.000000,0.000000,0.000000,0.000000,-0.102283,-0.101182,-0.102411,-0.102411,0.000000,0.000000,-0.000005,-0.000005,0.000000,0.000000,0.000000,0.000000,0.102283,0.101182,0.102411,0.102411,0.000000,0.000000,0.000000,0.000000,0.000000,0.000000,0.000000,0.000000,0.000000,0.000000,0.000000,0.000000
0.470000,0.018,0,0.016734,0.016734,0.016734,0.016734,0.457592,0.457571,0.000000,-19.559000,0.000000,0.000000,0.000000,0.500000,0.500000,0.000000,0.000000,0.000000,0.000000,0.000000,0.000000,0.000000,0.000000,0.000000,0.000000,0.000000,0.000000,-0.001101,0.000000,-0.160522,-0.009641,NaN,NaN,NaN,NaN,NaN,NaN,NaN,NaN,0.016933,0.016933,NaN,NaN,10.101240,0.031825,195.567000,0.030000,0.040000,0.000000,0.000000,-0.346947,-0.006055,-0.005408,-117.136800,-0.012184,0.716547,-0.000804,-0.009639,0.097832,-9.809528,0.000000,0.000000,0.000000,0.000000,0.060000,0.060000,0.070000,0.070000,0.000000,0.000000,0.000000,0.000000,0.000000,0.000000,0.000000,0.000000,0.000000,0.000000,0.000000,0.000000,0.000000,0.000000,0.000000,0.000000,-0.102283,-0.101182,-0.102411,-0.102411,0.000000,0.000000,-0.000005,-0.000005,0.000000,0.000000,0.000000,0.000000,0.102283,0.101182,0.102411,0.102411,0.000000,0.000000,0.000000,0.000000,0.000000,0.000000,0.000000,0.000000,0.000000,0.000000,0.000000,0.000000
0.480000,0.019,0,0.018725,0.018725,0.018725,0.018725,0.477543,0.477520,0.000000,-19.559000,0.000000,0.000000,0.000000,0.500000,0.500000,0.000000,0.000000,0.000000,0.000000,0.000000,0.000000,0.000000,0.000000,0.000000,0.000000,0.000000,0.000000,0.001306,0.000000,-0.153064,0.017832,0.000000,0.000000,NaN,NaN,-5.502598,-6.135478,NaN,NaN,0.018926,0.018926,NaN,NaN,10.101440,0.028339,195.569000,0.028462,0.040000,0.052339,0.000000,-0.402275,-0.007021,-0.005408,-117.136800,-0.012184,0.716547,-0.000804,0.234083,0.108278,-9.128227,976.861400,1409.126000,0.000000,0.000000,0.057810,0.059114,0.070000,0.070000,0.002190,0.000886,0.000000,0.000000,0.221267,0.442801,0.000000,0.000000,373.757900,149.964600,0.000000,0.000000,663.757400,1328.314000,0.000000,0.000000,-0.097584,-0.098890,-0.102411,-0.102411,0.000000,0.000000,-0.000005,-0.000005,0.000000,0.000000,0.000000,0.000000,0.000000,0.000000,0.102411,0.102411,-0.018628,-0.019759,0.000000,0.000000,-11.534130,-14.325450,0.000000,0.000000,463.875500,709.769700,0.000000,0.000000
0.490000,0.020,0,0.018725,0.018725,0.018725,0.018725,0.477543,0.477520,0.000000,-19.559000,0.000000,0.000000,0.000000,0.500000,0.500000,0.000000,0.000000,0.000000,0.000000,0.000000,0.000000,0.000000,0.000000,0.000000,0.000000,0.000000,0.000000,0.001306,0.000000,-0.153064,0.017832,0.000000,0.000000,NaN,NaN,-5.502598,-6.135478,NaN,NaN,0.018926,0.018926,NaN,NaN,10.101440,0.028339,195.569000,0.025813,0.040000,0.052339,0.000000,-0.421402,-0.007355,-0.005408,-117.136800,-0.012184,0.716547,-0.000804,0.124145,0.104451,-7.830218,1613.322000,1403.128000,0.000000,0.000000,0.055177,0.056448,0.070000,0.070000,0.004823,0.003552,0.000000,0.000000,0.281155,0.285223,0.000000,0.000000,822.931100,601.524500,0.000000,0.000000,843.394600,855.597600,0.000000,0.000000,-0.078162,-0.085205,-0.102411,-0.102411,0.000000,0.000000,-0.000005,-0.000005,0.000000,0.000000,0.000000,0.000000,0.000000,0.000000,0.102411,0.102411,-0.001912,-0.002853,0.000000,0.000000,-25.447620,-22.054130,0.000000,0.000000,78.642590,102.060800,0.000000,0.000000
0.500000,0.021,0,0.020411,0.020411,0.020411,0.020411,0.497502,0.497477,0.000000,-19.559000,0.000000,0.000000,0.000000,0.500000,0.500000,0.000000,0.000000,0.000000,0.000000,0.000000,0.000000,0.000000,0.000000,0.000000,0.000000,0.000000,0.000000,0.009296,0.000000,-0.086787,0.006216,0.000000,0.000000,NaN,NaN,-0.340957,-0.555808,NaN,NaN,0.020533,0.020533,NaN,NaN,10.101490,0.022371,195.570500,0.022803,0.040000,0.048457,0.000000,-0.413063,-0.007209,-0.002888,-135.265500,-0.006031,0.215974,0.006651,0.092340,0.098623,-7.002754,2210.370000,2020.375000,0.000000,0.000000,0.052201,0.053405,0.070000,0.070000,0.007799,0.006595,0.000000,0.000000,0.305176,0.313893,0.000000,0.000000,1330.414000,1117.129000,0.000000,0.000000,915.437900,941.586800,0.000000,0.000000,-0.053342,-0.062638,-0.102411,-0.102411,0.000000,0.000000,-0.000005,-0.000005,0.000000,0.000000,0.000000,0.000000,0.000000,0.000000,0.102411,0.102411,-0.001009,-0.001677,0.000000,0.000000,-34.730680,-32.161640,0.000000,0.000000,56.849870,86.348030,0.000000,0.000000
0.510000,0.021,0,0.020411,0.020411,0.020411,0.020411,0.497502,0.497477,0.000000,-19.559000,0.000000,0.000000,0.000000,0.500000,0.500000,0.000000,0.000000,0.000000,0.000000,0.000000,0.000000,0.000000,0.000000,0.000000,0.000000,0.000000,0.000000,0.009296,0.000000,-0.086787,0.006216,0.000000,0.000000,NaN,NaN,-0.340957,-0.555808,NaN,NaN,0.020533,0.020533,NaN,NaN,10.101490,0.022371,195.570500,0.019673,0.040000,0.039565,0.000000,-0.375259,-0.006550,-0.002888,-135.265500,-0.006031,0.215974,0.006651,0.075869,0.087905,-6.234296,2757.576000,2596.736000,0.000000,0.000000,0.049129,0.050217,0.070000,0.070000,0.010871,0.009783,0.000000,0.000000,0.305444,0.318825,0.000000,0.000000,1853.838000,1657.637000,0.000000,0.000000,916.235100,956.374500,0.000000,0.000000,-0.021388,-0.032517,-0.102411,-0.102411,0.000000,0.000000,-0.000005,-0.000005,0.000000,0.000000,0.000000,0.000000,0.000000,0.000000,0.102411,0.102411,-0.000688,-0.000998,0.000000,0.000000,-43.258460,-41.147790,0.000000,0.000000,48.352840,66.074630,0.000000,0.000000
0.520000,0.021,0,0.021144,0.021144,0.021144,0.021144,0.517484,0.517458,0.000000,-19.559000,0.000000,0.000000,0.000000,0.500000,0.500000,0.000000,0.000000,0.000000,0.000000,0.000000,0.000000,0.000000,0.000000,0.000000,0.000000,0.000000,0.000000,0.012410,0.000000,0.027410,0.012304,0.000000,0.000000,NaN,NaN,-0.249037,-0.203336,NaN,NaN,0.021144,0.021144,NaN,NaN,10.101510,0.015962,195.571000,0.016643,0.040000,0.039565,0.000000,-0.306267,-0.005345,-0.002888,-135.265500,-0.006031,0.215974,0.006651,0.051175,0.032352,-5.571457,3227.901000,3102.220000,0.000000,0.000000,0.046177,0.047108,0.070000,0.070000,0.013823,0.012892,0.000000,0.000000,0.285730,0.302836,0.000000,0.000000,2356.023000,2185.391000,0.000000,0.000000,857.098900,908.413100,0.000000,0.000000,0.016380,0.003970,-0.102411,-0.102411,0.000000,0.000000,-0.000005,-0.000005,0.000000,0.000000,0.000000,0.000000,0.000000,0.000000,0.102411,0.102411,-0.000671,-0.000554,0.000000,0.000000,-49.138830,-48.298780,0.000000,0.000000,55.188690,43.780800,0.000000,0.000000
0.530000,0.021,0,0.021144,0.021144,0.021144,0.021144,0.517484,0.517458,0.000000,-19.559000,0.000000,0.000000,0.000000,0.500000,0.500000,0.000000,0.000000,0.000000,0.000000,0.000000,0.000000,0.000000,0.000000,0.000000,0.000000,0.000000,0.000000,0.012410,0.000000,0.027410,0.012304,0.000000,0.000000,NaN,NaN,-0.249037,-0.203336,NaN,NaN,0.021144,0.021144,NaN,NaN,10.101510,0.015962,195.571000,0.013899,0.040000,0.019782,0.019782,-0.204750,-0.003574,-0.002888,-135.265500,-0.006031,0.215974,0.006651,0.039077,-0.034107,-5.037654,3599.225000,3514.360000,0.000000,0.000000,0.043528,0.044269,0.070000,0.070000,0.016472,0.015731,0.000000,0.000000,0.249162,0.269398,0.000000,0.000000,2806.023000,2668.195000,0.000000,0.000000,747.415500,808.117100,0.000000,0.000000,0.057981,0.044528,-0.102411,-0.102411,0.000000,0.000000,-0.000005,-0.000005,0.000000,0.000000,0.000000,0.000000,0.000000,0.000000,0.102411,0.102411,-0.000608,-0.000018,0.000000,0.000000,-53.860030,-52.791600,0.000000,0.000000,55.820740,1.612588,0.000000,0.000000
0.540000,0.022,0,0.021891,0.021891,0.021891,0.021891,0.537466,0.537439,0.000000,-19.559000,0.000000,0.000000,0.000000,0.500000,0.500000,0.000000,0.000000,0.000000,0.000000,0.000000,0.000000,0.000000,0.000000,0.000000,0.000000,0.000000,0.000000,0.014052,0.000000,0.176979,0.015423,0.000000,0.000000,NaN,NaN,-0.263147,0.167785,NaN,NaN,0.022059,0.022059,NaN,NaN,10.101510,0.010708,195.569900,0.011591,0.040000,0.019782,0.000000,-0.069672,-0.001216,-0.002888,-135.265500,-0.006031,0.215974,0.006651,0.020102,-0.059719,-4.656209,3857.931000,3814.267000,0.000000,0.000000,0.041326,0.041856,0.070000,0.070000,0.018674,0.018144,0.000000,0.000000,0.199750,0.221297,0.000000,0.000000,3179.322000,3079.500000,0.000000,0.000000,599.204300,663.840600,0.000000,0.000000,0.102687,0.088635,-0.102411,-0.102411,0.000000,0.000000,-0.000005,-0.000005,0.000000,0.000000,0.000000,0.000000,0.000000,0.000000,0.102411,0.102411,-0.000673,0.000431,0.000000,0.000000,-56.967350,-56.416260,0.000000,0.000000,66.181820,-41.864350,0.000000,0.000000
0.550000,0.023,0,0.021891,0.021891,0.021891,0.021891,0.537466,0.537439,0.000000,-19.559000,0.000000,0.000000,0.000000,0.500000,0.500000,0.000000,0.000000,0.000000,0.000000,0.000000,0.000000,0.000000,0.000000,0.000000,0.000000,0.000000,0.000000,0.014052,0.000000,0.176979,0.015423,0.000000,0.000000,NaN,NaN,-0.263147,0.167785,NaN,NaN,0.022059,0.022059,NaN,NaN,10.101510,0.010708,195.569900,0.009740,0.035683,0.000000,0.019782,0.000000,0.000000,-0.002888,-135.265500,-0.006031,0.215974,0.006651,-0.461619,-0.100800,-0.455528,4105.902000,4054.597000,2977.634000,2934.393000,0.039549,0.039931,0.065491,0.065874,0.020451,0.020069,0.004509,0.004126,0.174806,0.183120,0.771061,0.779286,3480.454000,3407.653000,766.446300,701.392100,524.389300,549.332600,2313.062000,2337.737000,0.122489,0.122808,0.122517,0.122785,0.000000,0.000000,-99.363980,136.521200,0.000000,0.000000,0.000000,0.000000,0.000000,0.000000,0.000000,0.000000,-0.005119,-0.003704,-0.003924,-0.003924,8.330928,-32.788440,-323.277000,422.675200,535.792200,382.884300,297.843700,293.518100
0.560000,0.024,0,0.024122,0.024122,0.024122,0.024122,0.557412,0.557382,0.000000,23.569000,0.000000,0.000000,0.000000,0.500000,0.000000,0.000000,0.000000,0.000000,0.000000,0.000000,-0.619000,0.000000,0.000000,0.000000,0.000000,0.000000,-193.471000,-0.001277,-0.001739,0.239281,-0.055983,0.000000,0.000000,-0.013149,0.013243,16.149850,16.015200,16.160270,15.986810,0.024371,0.024371,NaN,NaN,10.101450,0.007099,195.567500,0.008026,0.027872,0.019782,0.019782,0.000000,0.000000,-0.002888,-135.265500,-0.006031,0.215974,0.006651,6.617852,-0.101812,1.710555,4487.762000,4191.999000,4433.791000,4144.676000,0.037788,0.038264,0.057634,0.058110,0.022212,0.021736,0.012366,0.011890,0.206620,0.128523,0.816941,0.738651,3781.217000,3689.914000,2102.157000,2021.279000,619.839700,385.555800,2450.749000,2215.884000,0.123346,0.124624,0.123118,0.124856,0.000000,0.000000,-99.146000,94.325000,0.000000,0.000000,0.000000,0.000000,0.000000,0.000000,0.000000,0.000000,0.039390,0.040817,0.043267,0.043267,5.591667,5.274272,-322.582600,314.416600,-4506.271000,-4265.868000,-4472.355000,-4225.245000
