TIME,DISTANCE,MARKERS,SPEED,SPEEDANGLE,SPEEDLAT,VELOCITY,YAWRATE,ACCELERATIONLAT,ACCELERATIONLONG,ACCELERATIONVERT,SUSPENSIONLOADFL,SUSPENSIONLOADFR,SUSPENSIONLOADRL,SUSPENSIONLOADRR,SUSPENSIONTRAVELFL,SUSPENSIONTRAVELFR,SUSPENSIONTRAVELRL,SUSPENSIONTRAVELRR,SUSPENSIONCONTACTDEPTHFL,SUSPENSIONCONTACTDEPTHFR,SUSPENSIONCONTACTDEPTHRL,SUSPENSIONCONTACTDEPTHRR,SUSPENSIONCONTACTSPEEDFL,SUSPENSIONCONTACTSPEEDFR,SUSPENSIONCONTACTSPEEDRL,SUSPENSIONCONTACTSPEEDRR,SUSPENSIONSPRINGFORCEFL,SUSPENSIONSPRINGFORCEFR,SUSPENSIONSPRINGFORCERL,SUSPENSIONSPRINGFORCERR,SUSPENSIONDAMPERFORCEFL,SUSPENSIONDAMPERFORCEFR,SUSPENSIONDAMPERFORCERL,SUSPENSIONDAMPERFORCERR,WHEELSPINFL,WHEELSPINFR,WHEELSPINRL,WHEELSPINRR,WHEELSHAFTTORQUEFL,WHEELSHAFTTORQUEFR,WHEELSHAFTTORQUERL,WHEELSHAFTTORQUERR,WHEELBRAKETORQUEFL,WHEELBRAKETORQUEFR,WHEELBRAKETORQUERL,WHEELBRAKETORQUERR,TIRESLIPLONGFL,TIRESLIPLONGFR,TIRESLIPLONGRL,TIRESLIPLONGRR,TIRESLIPLATFL,TIRESLIPLATFR,TIRESLIPLATRL,TIRESLIPLATRR,TIREFORCELONGFL,TIREFORCELONGFR,TIREFORCELONGRL,TIREFORCELONGRR,TIREFORCELATFL,TIREFORCELATFR,TIREFORCELATRL,TIREFORCELATRR,RIDEHEIGHTFRONT,RIDEHEIGHTREAR,ROLLANGLEFRONT,ROLLANGLEREAR,GROUNDSLOPE,GROUNDGRADE,GEAR,STEERINGANGLE,THROTTLE,BRAKEPRESSURE,TORQUEDIFFFRONT,TORQUEDIFFREAR,SPEEDDIFFFRONT,SPEEDDIFFREAR,PITCHRATE,ROLLRATE,SLIPRATIOFL,SLIPRATIOFR,SLIPRATIORL,SLIPRATIORR,SLIPANGLEFL,SLIPANGLEFR,SLIPANGLERL,SLIPANGLERR,LAPDISTANCE,TOTALDISTANCE,FORCEFEEDBACKFORCERATIO,FORCEFEEDBACKDAMPERRATIO,POSITIONX,POSITIONY,POSITIONZ,MOTORRPMFRONT,MOTORRPMREAR,POWERELECTRICALFRONT,POWERELECTRICALREAR,POWERELECTRICALTOTAL,POWERBALANCE,WHEELTORQUEBALANCE,EFFICIENCYFRONT,EFFICIENCYREAR,TORQUEMECHANICALFRONT,TORQUEMECHANICALREAR,TORQUEROTORFRONT,TORQUEROTORREAR,919SPEED,IDRSPEED,919TRAVELEDDISTANCE,IDRTRAVELEDDISTANCE,919TIMEDIFF,IDRTIMEDIFF
0.000000,0.000,0,0.000000,0.000000,0.000000,0.000000,0.000000,0.000000,0.000000,0.000000,0.000000,0.000000,0.000000,0.000000,0.060000,0.060000,0.070000,0.070000,0.000000,0.000000,0.000000,0.000000,0.000000,0.000000,0.000000,0.000000,0.000000,0.000000,0.000000,0.000000,0.000000,0.000000,0.000000,0.000000,0.000000,0.000000,0.000000,0.000000,0.000000,0.000000,0.000000,0.000000,0.000000,0.000000,0.000000,0.000000,0.000000,0.000000,0.000000,0.000000,0.000000,0.000000,0.000000,0.000000,0.000000,0.000000,0.000000,0.000000,0.000000,0.000000,0.000000,0.000000,0.030000,0.040000,0.000000,0.000000,0.224686,0.003922,1.000000,0.000000,0.000000,0.000000,0.000000,0.000000,0.000000,0.000000,0.000000,0.000000,NaN,NaN,NaN,NaN,NaN,NaN,NaN,NaN,0.000000,0.000000,NaN,NaN,10.100000,0.470000,195.560000,0.000000,0.000000,0.000000,0.000000,0.000000,0.500000,0.500000,0.000000,0.882000,0.000000,0.000000,0.000000,0.000000,0.000000,0.000000,0.000000,0.000000,0.000000,0.000000
0.010000,0.000,0,0.000000,0.000000,0.000000,0.000000,0.000000,0.000000,-0.000088,-9.810049,0.000000,0.000000,0.000000,0.000000,0.060000,0.060000,0.070000,0.070000,0.000000,0.000000,0.000000,0.000000,0.000000,0.000000,0.000000,0.000000,0.000000,0.000000,0.000000,0.000000,0.000000,0.000000,0.000000,0.000000,0.000000,0.000000,1.311423,1.311423,0.000000,0.000000,499.294300,499.294300,0.000000,0.000000,0.000000,0.000000,0.000000,0.000000,-1.311423,-1.311423,0.000000,0.000000,0.000000,0.000000,0.000000,0.000000,0.000000,0.000000,0.000000,0.000000,0.000000,0.000000,0.030000,0.040000,0.000000,0.000000,0.224686,0.003922,1.000000,0.000000,0.000000,0.000000,0.000000,0.000000,0.000000,0.000000,0.000000,0.000000,NaN,NaN,NaN,NaN,NaN,NaN,NaN,NaN,0.000000,0.000000,NaN,NaN,10.100000,0.470000,195.560000,0.000000,0.000000,0.000000,0.000000,0.000000,0.500000,0.500000,0.000000,0.882000,0.000000,0.000000,0.000000,0.000000,0.000000,0.000000,0.000000,0.000000,0.000000,0.000000
0.020000,0.000,0,0.000000,0.000000,0.000000,0.000000,0.000000,0.000000,-0.000446,-9.810239,0.000000,0.000000,0.000000,0.000000,0.060000,0.060000,0.070000,0.070000,0.000000,0.000000,0.000000,0.000000,0.000000,0.000000,0.000000,0.000000,0.000000,0.000000,0.000000,0.000000,0.000000,0.000000,0.000000,0.000000,0.000000,0.000000,2.667240,2.667240,0.000000,0.000000,513.726000,513.726000,0.000000,0.000000,0.000000,0.000000,0.000000,0.000000,-2.667240,-2.667240,0.000000,0.000000,0.000000,0.000000,0.000000,0.000000,0.000000,0.000000,0.000000,0.000000,0.000000,0.000000,0.030000,0.040000,0.000000,0.000000,0.224686,0.003922,1.000000,0.000000,1.000000,0.000000,0.000000,0.000000,0.000000,0.000000,-0.000001,0.000000,NaN,NaN,NaN,NaN,NaN,NaN,NaN,NaN,0.000000,0.000000,NaN,NaN,10.100000,0.467842,195.560000,0.000000,509.405000,0.000000,11.638000,11.638000,0.000000,0.000000,0.000000,0.940000,0.000000,216.320000,0.000000,171.433000,0.000000,0.000000,0.000000,0.000000,0.018000,0.018000
0.030000,0.000,0,0.000000,0.000000,0.000000,0.000000,0.000000,0.000000,-0.001079,-9.810581,0.000000,0.000000,0.000000,0.000000,0.060000,0.060000,0.070000,0.070000,0.000000,0.000000,0.000000,0.000000,0.000000,0.000000,0.000000,0.000000,0.000000,0.000000,0.000000,0.000000,0.000000,0.000000,0.000000,0.000000,0.000000,0.000000,4.052483,4.052483,0.000000,0.000000,522.622300,522.622300,0.000000,0.000000,0.000000,0.000000,0.000000,0.000000,-4.052483,-4.052483,0.000000,0.000000,0.000000,0.000000,0.000000,0.000000,0.000000,0.000000,0.000000,0.000000,0.000000,0.000000,0.030000,0.040000,0.000000,0.000000,0.224686,0.003922,1.000000,0.000000,1.000000,0.000000,0.000000,0.000000,0.000000,0.000000,-0.000001,0.000000,NaN,NaN,NaN,NaN,NaN,NaN,NaN,NaN,0.000000,0.000000,NaN,NaN,10.100000,0.467842,195.560000,0.000000,509.405000,0.000000,11.638000,11.638000,0.000000,0.000000,0.000000,0.940000,0.000000,216.320000,0.000000,171.433000,0.000000,0.000000,0.000000,0.000000,0.018000,0.018000
0.040000,0.000,0,0.000000,0.000000,0.000000,0.000000,0.000000,0.000000,-0.001986,-9.811073,0.000000,0.000000,0.000000,0.000000,0.060000,0.060000,0.070000,0.070000,0.000000,0.000000,0.000000,0.000000,0.000000,0.000000,0.000000,0.000000,0.000000,0.000000,0.000000,0.000000,0.000000,0.000000,0.000000,0.000000,0.000000,0.000000,5.454141,5.454141,0.000000,0.000000,527.126700,527.126700,0.000000,0.000000,0.000000,0.000000,0.000000,0.000000,-5.454141,-5.454141,0.000000,0.000000,0.000000,0.000000,0.000000,0.000000,0.000000,0.000000,0.000000,0.000000,0.000000,0.000000,0.030000,0.040000,0.000000,0.000000,0.224686,0.003922,1.000000,0.000000,1.000000,0.000000,0.000000,0.000000,0.000000,0.000000,-0.000011,0.000000,NaN,NaN,NaN,NaN,NaN,NaN,NaN,NaN,0.000000,0.000000,NaN,NaN,10.100000,0.461759,195.560000,0.000000,1041.663000,0.000000,24.442000,24.442000,0.000000,0.000000,0.000000,0.964000,0.000000,221.748000,0.000000,175.755000,0.000000,0.000000,0.000000,0.000000,0.038000,0.038000
0.050000,0.000,0,0.000000,0.000000,0.000000,0.000000,0.000000,0.000000,-0.003168,-9.811699,0.000000,0.000000,0.000000,0.000000,0.060000,0.060000,0.070000,0.070000,0.000000,0.000000,0.000000,0.000000,0.000000,0.000000,0.000000,0.000000,0.000000,0.000000,0.000000,0.000000,0.000000,0.000000,0.000000,0.000000,0.000000,0.000000,6.862756,6.862756,0.000000,0.000000,528.675800,528.675800,0.000000,0.000000,0.000000,0.000000,0.000000,0.000000,-6.862756,-6.862756,0.000000,0.000000,0.000000,0.000000,0.000000,0.000000,0.000000,0.000000,0.000000,0.000000,0.000000,0.000000,0.030000,0.040000,0.000000,0.000000,0.224670,0.003921,1.000000,0.000000,1.000000,0.000000,0.000000,0.000000,0.000000,0.000000,-0.000011,0.000000,NaN,NaN,NaN,NaN,NaN,NaN,NaN,NaN,0.000000,0.000000,NaN,NaN,10.100000,0.461759,195.560000,0.000000,1041.663000,0.000000,24.442000,24.442000,0.000000,0.000000,0.000000,0.964000,0.000000,221.748000,0.000000,175.755000,0.000000,0.000000,0.000000,0.000000,0.038000,0.038000
0.060000,0.000,0,0.000000,0.000000,0.000000,0.000000,0.000000,0.000000,-0.004624,-9.812474,0.000000,0.000000,0.000000,0.000000,0.060000,0.060000,0.070000,0.070000,0.000000,0.000000,0.000000,0.000000,0.000000,0.000000,0.000000,0.000000,0.000000,0.000000,0.000000,0.000000,0.000000,0.000000,0.000000,0.000000,0.000000,0.000000,8.251216,8.251216,0.000000,0.000000,499.638200,499.638200,0.000000,0.000000,0.000000,0.000000,0.000000,0.000000,-8.251216,-8.251216,0.000000,0.000000,0.000000,0.000000,0.000000,0.000000,0.000000,0.000000,0.000000,0.000000,0.000000,0.000000,0.030000,0.040000,0.000000,0.000000,0.224655,0.003921,1.000000,0.000000,1.000000,0.000000,0.000000,0.000000,0.000000,0.000000,-0.000039,0.000000,NaN,NaN,NaN,NaN,NaN,NaN,NaN,NaN,0.000000,0.000000,NaN,NaN,10.100000,0.451752,195.560000,0.000000,1575.865000,0.000000,35.000000,35.000000,0.000000,0.000000,0.000000,0.967000,0.000000,208.428000,0.000000,165.150000,0.000000,0.000000,0.000000,0.000000,0.058000,0.058000
0.070000,0.000,0,0.000000,0.000000,0.000000,0.000000,0.000000,0.000000,-0.006353,-9.813428,0.000000,0.000000,0.000000,0.000000,0.060000,0.060000,0.070000,0.070000,0.000000,0.000000,0.000000,0.000000,0.000000,0.000000,0.000000,0.000000,0.000000,0.000000,0.000000,0.000000,0.000000,0.000000,0.000000,0.000000,0.000000,0.000000,9.469759,9.469759,0.000000,0.000000,432.383900,432.383900,0.000000,0.000000,0.000000,0.000000,0.000000,0.000000,-9.469759,-9.469759,0.000000,0.000000,0.000000,0.000000,0.000000,0.000000,0.000000,0.000000,0.000000,0.000000,0.000000,0.000000,0.030000,0.040000,0.000000,0.000000,0.224625,0.003920,1.000000,0.000000,1.000000,0.000000,0.000000,0.000000,0.000000,0.000000,-0.000039,0.000000,NaN,NaN,NaN,NaN,NaN,NaN,NaN,NaN,0.000000,0.000000,NaN,NaN,10.100000,0.451752,195.560000,0.000000,1575.865000,0.000000,35.000000,35.000000,0.000000,0.000000,0.000000,0.967000,0.000000,208.428000,0.000000,165.150000,0.000000,0.000000,0.000000,0.000000,0.058000,0.058000
0.080000,0.000,0,0.000000,0.000000,0.000000,0.000000,0.000000,0.000000,-0.008356,-9.814501,0.000000,0.000000,0.000000,0.000000,0.060000,0.060000,0.070000,0.070000,0.000000,0.000000,0.000000,0.000000,0.000000,0.000000,0.000000,0.000000,0.000000,0.000000,0.000000,0.000000,0.000000,0.000000,0.000000,0.000000,0.000000,0.000000,10.512810,10.512810,0.000000,0.000000,323.932800,323.932800,0.000000,0.000000,0.000000,0.000000,0.000000,0.000000,-10.512810,-10.512810,0.000000,0.000000,0.000000,0.000000,0.000000,0.000000,0.000000,0.000000,0.000000,0.000000,0.000000,0.000000,0.030000,0.040000,0.000000,0.000000,0.224579,0.003920,1.000000,0.000000,1.000000,0.000000,0.000000,0.000000,0.000000,0.000000,-0.000094,0.000000,NaN,NaN,NaN,NaN,NaN,NaN,NaN,NaN,0.000000,0.000000,NaN,NaN,10.100000,0.437818,195.560000,0.000000,2007.798000,0.000000,23.669000,23.669000,0.000000,0.000000,0.000000,0.967000,0.000000,109.579000,0.000000,86.449000,0.000000,0.000000,0.000000,0.000000,0.078000,0.078000
0.090000,0.000,0,0.000000,0.000000,0.000000,0.000000,0.000000,0.000000,-0.010630,-9.815722,0.000000,0.000000,0.000000,0.000000,0.060000,0.060000,0.070000,0.070000,0.000000,0.000000,0.000000,0.000000,0.000000,0.000000,0.000000,0.000000,0.000000,0.000000,0.000000,0.000000,0.000000,0.000000,0.000000,0.000000,0.000000,0.000000,10.506440,10.506440,0.000000,0.000000,-2.388861,-2.388861,0.000000,0.000000,0.000000,0.000000,0.000000,0.000000,-10.506440,-10.506440,0.000000,0.000000,0.000000,0.000000,0.000000,0.000000,0.000000,0.000000,0.000000,0.000000,0.000000,0.000000,0.030000,0.040000,0.000000,0.000000,0.224510,0.003918,1.000000,0.000000,1.000000,0.000000,0.000000,0.000000,0.000000,0.000000,-0.000094,0.000000,NaN,NaN,NaN,NaN,NaN,NaN,NaN,NaN,0.000000,0.000000,NaN,NaN,10.100000,0.437818,195.560000,0.000000,2007.798000,0.000000,23.669000,23.669000,0.000000,0.000000,0.000000,0.967000,0.000000,109.579000,0.000000,86.449000,0.000000,0.000000,0.000000,0.000000,0.078000,0.078000
0.100000,0.000,0,-0.000440,180.000000,0.000000,0.981239,0.000000,0.000000,-0.013176,-9.817123,0.000000,0.000000,0.000000,0.000000,0.060000,0.060000,0.070000,0.070000,0.000000,0.000000,0.000000,0.000000,0.000000,0.000000,0.000000,0.000000,0.000000,0.000000,0.000000,0.000000,0.000000,0.000000,0.000000,0.000000,0.000000,0.000000,10.500070,10.500070,0.000000,0.000000,-2.388390,-2.388390,0.000000,0.000000,0.000000,0.000000,0.000000,0.000000,-10.500070,-10.500070,0.000000,0.000000,0.000000,0.000000,0.000000,0.000000,0.000000,0.000000,0.000000,0.000000,0.000000,0.000000,0.030000,0.040000,0.000000,0.000000,0.224419,0.003917,1.000000,0.000000,1.000000,0.000000,0.000000,0.000000,0.000000,0.000000,-0.000185,0.000000,NaN,NaN,NaN,NaN,NaN,NaN,NaN,NaN,0.000000,0.000000,NaN,NaN,10.100000,0.419957,195.560000,0.000000,2005.365000,0.000000,0.000000,0.000000,0.500000,0.000000,0.000000,0.967000,0.000000,0.000000,0.000000,-0.796000,0.000000,0.000000,0.000000,0.000000,0.098000,0.098000
0.110000,0.000,0,-0.000440,180.000000,0.000000,0.981239,0.000000,0.000000,-0.015992,-9.818673,0.000000,0.000000,0.000000,0.000000,0.060000,0.060000,0.070000,0.070000,0.000000,0.000000,0.000000,0.000000,0.000000,0.000000,0.000000,0.000000,0.000000,0.000000,0.000000,0.000000,0.000000,0.000000,0.000000,0.000000,0.000000,0.000000,10.493700,10.493700,0.000000,0.000000,-2.388495,-2.388495,0.000000,0.000000,0.000000,0.000000,0.000000,0.000000,-10.493700,-10.493700,0.000000,0.000000,0.000000,0.000000,0.000000,0.000000,0.000000,0.000000,0.000000,0.000000,0.000000,0.000000,0.030000,0.040000,0.000000,0.000000,0.224289,0.003915,1.000000,0.000000,1.000000,0.000000,0.000000,0.000000,0.000000,0.000000,-0.000185,0.000000,NaN,NaN,NaN,NaN,NaN,NaN,NaN,NaN,0.000000,0.000000,NaN,NaN,10.100000,0.419957,195.560000,0.000000,2005.365000,0.000000,0.000000,0.000000,0.500000,0.000000,0.000000,0.967000,0.000000,0.000000,0.000000,-0.796000,0.000000,0.000000,0.000000,0.000000,0.098000,0.098000
0.120000,0.000,0,-0.000440,180.000000,0.000000,0.981239,0.000000,0.000000,-0.019077,-9.820342,0.000000,0.000000,0.000000,0.000000,0.060000,0.060000,0.070000,0.070000,0.000000,0.000000,0.000000,0.000000,0.000000,0.000000,0.000000,0.000000,0.000000,0.000000,0.000000,0.000000,0.000000,0.000000,0.000000,0.000000,0.000000,0.000000,10.487340,10.487340,0.000000,0.000000,-2.388885,-2.388885,0.000000,0.000000,0.000000,0.000000,0.000000,0.000000,-10.487340,-10.487340,0.000000,0.000000,0.000000,0.000000,0.000000,0.000000,0.000000,0.000000,0.000000,0.000000,0.000000,0.000000,0.030000,0.040000,0.000000,0.000000,0.224121,0.003912,1.000000,0.000000,1.000000,0.000000,0.000000,0.000000,0.000000,0.000000,-0.000322,0.000000,NaN,NaN,NaN,NaN,NaN,NaN,NaN,NaN,0.000000,0.000000,NaN,NaN,10.100000,0.398166,195.560000,0.000000,2002.933000,0.000000,0.000000,0.000000,0.500000,0.000000,0.000000,0.967000,0.000000,0.000000,0.000000,-0.796000,0.000000,0.000000,0.000000,0.000000,0.118000,0.118000
0.130000,0.000,0,-0.000440,180.000000,0.000000,0.981239,0.000000,0.000000,-0.022431,-9.822130,0.000000,0.000000,0.000000,0.000000,0.060000,0.060000,0.070000,0.070000,0.000000,0.000000,0.000000,0.000000,0.000000,0.000000,0.000000,0.000000,0.000000,0.000000,0.000000,0.000000,0.000000,0.000000,0.000000,0.000000,0.000000,0.000000,10.480970,10.480970,0.000000,0.000000,-2.388414,-2.388414,0.000000,0.000000,0.000000,0.000000,0.000000,0.000000,-10.480970,-10.480970,0.000000,0.000000,0.000000,0.000000,0.000000,0.000000,0.000000,0.000000,0.000000,0.000000,0.000000,0.000000,0.030000,0.040000,0.000000,0.000000,0.223908,0.003908,1.000000,0.000000,1.000000,0.000000,0.000000,0.000000,0.000000,0.000000,-0.000322,0.000000,NaN,NaN,NaN,NaN,NaN,NaN,NaN,NaN,0.000000,0.000000,NaN,NaN,10.100000,0.398166,195.560000,0.000000,2002.933000,0.000000,0.000000,0.000000,0.500000,0.000000,0.000000,0.967000,0.000000,0.000000,0.000000,-0.796000,0.000000,0.000000,0.000000,0.000000,0.118000,0.118000
0.140000,0.000,0,-0.000440,180.000000,0.000000,0.981239,0.000000,0.000000,-0.026052,-9.824158,0.000000,0.000000,0.000000,0.000000,0.060000,0.060000,0.070000,0.070000,0.000000,0.000000,0.000000,0.000000,0.000000,0.000000,0.000000,0.000000,0.000000,0.000000,0.000000,0.000000,0.000000,0.000000,0.000000,0.000000,0.000000,0.000000,10.474600,10.474600,0.000000,0.000000,-2.388519,-2.388519,0.000000,0.000000,0.000000,0.000000,0.000000,0.000000,-10.474600,-10.474600,0.000000,0.000000,0.000000,0.000000,0.000000,0.000000,0.000000,0.000000,0.000000,0.000000,0.000000,0.000000,0.030000,0.040000,0.000000,0.000000,0.223640,0.003903,1.000000,0.000000,1.000000,0.000000,0.000000,0.000000,0.000000,0.000000,-0.000514,0.000000,NaN,NaN,NaN,NaN,NaN,NaN,NaN,NaN,0.000015,0.000015,NaN,NaN,10.100000,0.372442,195.560000,0.000000,2000.500000,0.000000,0.000000,0.000000,0.500000,0.000000,0.000000,0.967000,0.000000,0.000000,0.000000,-0.796000,0.000015,0.000015,0.000015,0.000015,0.138000,0.138000
0.150000,0.000,0,-0.000440,180.000000,0.000000,0.981239,0.000000,0.000000,-0.029938,-9.826184,0.000000,0.000000,0.000000,0.000000,0.060000,0.060000,0.070000,0.070000,0.000000,0.000000,0.000000,0.000000,0.000000,0.000000,0.000000,0.000000,0.000000,0.000000,0.000000,0.000000,0.000000,0.000000,0.000000,0.000000,0.000000,0.000000,10.472230,10.472230,0.000000,0.000000,0.420835,0.420835,0.000000,0.000000,0.000000,0.000000,0.000000,0.000000,-10.472230,-10.472230,0.000000,0.000000,0.000000,0.000000,0.000000,0.000000,0.000000,0.000000,0.000000,0.000000,0.000000,0.000000,0.030000,0.040000,0.000000,0.000000,0.223305,0.003897,1.000000,0.000000,1.000000,0.000000,0.000000,0.000000,0.000000,0.000000,-0.000514,0.000000,NaN,NaN,NaN,NaN,NaN,NaN,NaN,NaN,0.000015,0.000015,NaN,NaN,10.100000,0.372442,195.560000,0.000000,2000.500000,0.000000,0.000000,0.000000,0.500000,0.000000,0.000000,0.967000,0.000000,0.000000,0.000000,-0.796000,0.000015,0.000015,0.000015,0.000015,0.138000,0.138000
0.160000,0.000,0,-0.000440,180.000000,0.000000,0.981239,0.000000,0.000000,-0.034089,-9.828568,0.000000,0.000000,0.000000,0.000000,0.060000,0.060000,0.070000,0.070000,0.000000,0.000000,0.000000,0.000000,0.000000,0.000000,0.000000,0.000000,0.000000,0.000000,0.000000,0.000000,0.000000,0.000000,0.000000,0.000000,0.000000,0.000000,10.472070,10.472070,0.000000,0.000000,-0.088666,-0.088666,0.000000,0.000000,0.000000,0.000000,0.000000,0.000000,-10.472070,-10.472070,0.000000,0.000000,0.000000,0.000000,0.000000,0.000000,0.000000,0.000000,0.000000,0.000000,0.000000,0.000000,0.030000,0.040000,0.000000,0.000000,0.222893,0.003890,1.000000,0.000000,1.000000,0.000000,0.000000,0.000000,0.000000,0.000000,-0.000769,0.000000,NaN,NaN,NaN,NaN,NaN,NaN,NaN,NaN,0.000015,0.000015,NaN,NaN,10.100000,0.342783,195.560000,0.000000,2000.017000,0.000000,0.417000,0.417000,0.000000,0.000000,0.000000,0.967000,0.000000,1.925000,0.000000,0.737000,0.000015,0.000015,0.000015,0.000015,0.158000,0.158000
0.170000,0.000,0,-0.000440,180.000000,0.000000,0.981239,0.000000,0.000000,-0.038503,-9.830954,0.000000,0.000000,0.000000,0.000000,0.060000,0.060000,0.070000,0.070000,0.000000,0.000000,0.000000,0.000000,0.000000,0.000000,0.000000,0.000000,0.000000,0.000000,0.000000,0.000000,0.000000,0.000000,0.000000,0.000000,0.000000,0.000000,10.472250,10.472250,0.000000,0.000000,0.529684,0.529684,0.000000,0.000000,0.000000,0.000000,0.000000,0.000000,-10.472250,-10.472250,0.000000,0.000000,0.000000,0.000000,0.000000,0.000000,0.000000,0.000000,0.000000,0.000000,0.000000,0.000000,0.030000,0.040000,0.000000,0.000000,0.222405,0.003882,1.000000,0.000000,1.000000,0.000000,0.000000,0.000000,0.000000,0.000000,-0.000769,0.000000,NaN,NaN,NaN,NaN,NaN,NaN,NaN,NaN,0.000015,0.000015,NaN,NaN,10.100000,0.342783,195.560000,0.000000,2000.017000,0.000000,0.417000,0.417000,0.000000,0.000000,0.000000,0.967000,0.000000,1.925000,0.000000,0.737000,0.000015,0.000015,0.000015,0.000015,0.158000,0.158000
0.180000,0.000,0,-0.000440,180.000000,0.000000,0.981239,0.000000,0.000000,-0.043178,-9.833457,0.000000,0.000000,0.000000,0.000000,0.060000,0.060000,0.070000,0.070000,0.000000,0.000000,0.000000,0.000000,0.000000,0.000000,0.000000,0.000000,0.000000,0.000000,0.000000,0.000000,0.000000,0.000000,0.000000,0.000000,0.000000,0.000000,10.472230,10.472230,0.000000,0.000000,0.506650,0.506650,0.000000,0.000000,0.000000,0.000000,0.000000,0.000000,-10.472230,-10.472230,0.000000,0.000000,0.000000,0.000000,0.000000,0.000000,0.000000,0.000000,0.000000,0.000000,0.000000,0.000000,0.030000,0.040000,0.000000,0.000000,0.221809,0.003871,1.000000,0.000000,1.000000,0.000000,0.000000,0.000000,0.000000,0.000000,-0.001098,0.000000,NaN,NaN,NaN,NaN,NaN,NaN,NaN,NaN,0.000031,0.000031,NaN,NaN,10.100000,0.309185,195.560000,0.000000,2000.047000,0.000000,0.508000,0.508000,0.000000,0.000000,0.000000,0.967000,0.000000,2.350000,0.000000,1.074000,0.000031,0.000031,0.000031,0.000031,0.177999,0.177999
0.190000,0.000,0,-0.000440,180.000000,0.000000,0.981239,0.000000,0.000000,-0.048112,-9.836200,0.000000,0.000000,0.000000,0.000000,0.060000,0.060000,0.070000,0.070000,0.000000,0.000000,0.000000,0.000000,0.000000,0.000000,0.000000,0.000000,0.000000,0.000000,0.000000,0.000000,0.000000,0.000000,0.000000,0.000000,0.000000,0.000000,10.472040,10.472040,0.000000,0.000000,-0.182702,-0.182702,0.000000,0.000000,0.000000,0.000000,0.000000,0.000000,-10.472040,-10.472040,0.000000,0.000000,0.000000,0.000000,0.000000,0.000000,0.000000,0.000000,0.000000,0.000000,0.000000,0.000000,0.030000,0.040000,0.000000,0.000000,0.221115,0.003859,1.000000,0.000000,1.000000,0.000000,0.000000,0.000000,0.000000,0.000000,-0.001098,0.000000,NaN,NaN,NaN,NaN,NaN,NaN,NaN,NaN,0.000031,0.000031,NaN,NaN,10.100000,0.309185,195.560000,0.000000,2000.047000,0.000000,0.508000,0.508000,0.000000,0.000000,0.000000,0.967000,0.000000,2.350000,0.000000,1.074000,0.000031,0.000031,0.000031,0.000031,0.177999,0.177999
0.200000,0.000,0,-0.003469,180.000000,0.000000,1.963949,0.000000,0.000000,-0.053305,-9.839062,0.000000,0.000000,0.000000,0.000000,0.060000,0.060000,0.070000,0.070000,0.000000,0.000000,0.000000,0.000000,0.000000,0.000000,0.000000,0.000000,0.000000,0.000000,0.000000,0.000000,0.000000,0.000000,0.000000,0.000000,0.000000,0.000000,10.472030,10.472030,0.000000,0.000000,0.308601,0.308601,0.000000,0.000000,0.000000,0.000000,0.000000,0.000000,-10.472030,-10.472030,0.000000,0.000000,0.000000,0.000000,0.000000,0.000000,0.000000,0.000000,0.000000,0.000000,0.000000,0.000000,0.030000,0.040000,0.000000,0.000000,0.220306,0.003845,1.000000,0.000000,1.000000,0.000000,0.000000,0.000000,0.000000,0.000000,-0.001508,0.000000,NaN,NaN,NaN,NaN,NaN,NaN,NaN,NaN,0.000046,0.000046,NaN,NaN,10.100000,0.271644,195.560000,0.000000,2000.010000,0.000000,0.395000,0.395000,0.000000,0.000000,0.000000,0.967000,0.000000,1.824000,0.000000,0.656000,0.000046,0.000046,0.000046,0.000046,0.197999,0.197999
0.210000,0.000,0,-0.003469,180.000000,0.000000,1.963949,0.000000,0.000000,-0.058753,-9.842044,0.000000,0.000000,0.000000,0.000000,0.060000,0.060000,0.070000,0.070000,0.000000,0.000000,0.000000,0.000000,0.000000,0.000000,0.000000,0.000000,0.000000,0.000000,0.000000,0.000000,0.000000,0.000000,0.000000,0.000000,0.000000,0.000000,10.472110,10.472110,0.000000,0.000000,0.394777,0.394777,0.000000,0.000000,0.000000,0.000000,0.000000,0.000000,-10.472110,-10.472110,0.000000,0.000000,0.000000,0.000000,0.000000,0.000000,0.000000,0.000000,0.000000,0.000000,0.000000,0.000000,0.030000,0.040000,0.000000,0.000000,0.219353,0.003828,1.000000,0.000000,1.000000,0.000000,0.000000,0.000000,0.000000,0.000000,-0.001508,0.000000,NaN,NaN,NaN,NaN,NaN,NaN,NaN,NaN,0.000046,0.000046,NaN,NaN,10.100000,0.271644,195.560000,0.000000,2000.010000,0.000000,0.395000,0.395000,0.000000,0.000000,0.000000,0.967000,0.000000,1.824000,0.000000,0.656000,0.000046,0.000046,0.000046,0.000046,0.197999,0.197999
0.220000,0.000,0,-0.003469,180.000000,0.000000,1.963949,0.000000,0.000000,-0.064455,-9.845145,0.000000,0.000000,0.000000,0.000000,0.060000,0.060000,0.070000,0.070000,0.000000,0.000000,0.000000,0.000000,0.000000,0.000000,0.000000,0.000000,0.000000,0.000000,0.000000,0.000000,0.000000,0.000000,0.000000,0.000000,0.000000,0.000000,10.471970,10.471970,0.000000,0.000000,-0.391462,-0.391462,0.000000,0.000000,0.000000,0.000000,0.000000,0.000000,-10.471970,-10.471970,0.000000,0.000000,0.000000,0.000000,0.000000,0.000000,0.000000,0.000000,0.000000,0.000000,0.000000,0.000000,0.030000,0.040000,0.000000,0.000000,0.218269,0.003810,1.000000,0.000000,1.000000,0.000000,0.000000,0.000000,0.000000,0.000000,-0.002010,0.000000,NaN,NaN,NaN,NaN,NaN,NaN,NaN,NaN,0.000183,0.000183,NaN,NaN,10.100000,0.230155,195.560200,0.000000,1999.998000,0.000000,0.362000,0.362000,0.000000,0.000000,0.000000,0.967000,0.000000,1.671000,0.000000,0.535000,0.000168,0.000168,0.000168,0.000168,0.217996,0.217996
0.230000,0.000,0,-0.003469,180.000000,0.000000,1.963949,0.000000,0.000000,-0.070409,-9.848485,0.000000,0.000000,0.000000,0.000000,0.060000,0.060000,0.070000,0.070000,0.000000,0.000000,0.000000,0.000000,0.000000,0.000000,0.000000,0.000000,0.000000,0.000000,0.000000,0.000000,0.000000,0.000000,0.000000,0.000000,0.000000,0.000000,10.471960,10.471960,0.000000,0.000000,-0.436391,-0.436391,0.000000,0.000000,0.000000,0.000000,0.000000,0.000000,-10.471960,-10.471960,0.000000,0.000000,0.000000,0.000000,0.000000,0.000000,0.000000,0.000000,0.000000,0.000000,0.000000,0.000000,0.030000,0.040000,0.000000,0.000000,0.217018,0.003788,1.000000,0.000000,1.000000,0.000000,0.000000,0.000000,0.000000,0.000000,-0.002010,0.000000,NaN,NaN,NaN,NaN,NaN,NaN,NaN,NaN,0.000183,0.000183,NaN,NaN,10.100000,0.230155,195.560200,0.000000,1999.998000,0.000000,0.362000,0.362000,0.000000,0.000000,0.000000,0.967000,0.000000,1.671000,0.000000,0.535000,0.000168,0.000168,0.000168,0.000168,0.217996,0.217996
0.240000,0.000,0,-0.003469,180.000000,0.000000,1.963949,0.000000,0.000000,-0.076613,-9.851945,0.000000,0.000000,0.000000,0.000000,0.060000,0.060000,0.070000,0.070000,0.000000,0.000000,0.000000,0.000000,0.000000,0.000000,0.000000,0.000000,0.000000,0.000000,0.000000,0.000000,0.000000,0.000000,0.000000,0.000000,0.000000,0.000000,10.472130,10.472130,0.000000,0.000000,0.126312,0.126312,0.000000,0.000000,0.000000,0.000000,0.000000,0.000000,-10.472130,-10.472130,0.000000,0.000000,0.000000,0.000000,0.000000,0.000000,0.000000,0.000000,0.000000,0.000000,0.000000,0.000000,0.030000,0.040000,0.000000,0.000000,0.215591,0.003763,1.000000,0.000000,1.000000,0.000000,0.000000,0.000000,0.000000,0.000000,-0.002613,0.000000,NaN,NaN,NaN,NaN,NaN,NaN,NaN,NaN,0.000366,0.000366,NaN,NaN,10.100000,0.184715,195.560400,0.000000,2000.030000,0.000000,0.456000,0.456000,0.000000,0.000000,0.000000,0.967000,0.000000,2.105000,0.000000,0.880000,0.000336,0.000336,0.000336,0.000336,0.237992,0.237991
0.250000,0.000,0,-0.003469,180.000000,0.000000,1.963949,0.000000,0.000000,-0.083065,-9.855524,0.000000,0.000000,0.000000,0.000000,0.060000,0.060000,0.070000,0.070000,0.000000,0.000000,0.000000,0.000000,0.000000,0.000000,0.000000,0.000000,0.000000,0.000000,0.000000,0.000000,0.000000,0.000000,0.000000,0.000000,0.000000,0.000000,10.471860,10.471860,0.000000,0.000000,-0.730618,-0.730618,0.000000,0.000000,0.000000,0.000000,0.000000,0.000000,-10.471860,-10.471860,0.000000,0.000000,0.000000,0.000000,0.000000,0.000000,0.000000,0.000000,0.000000,0.000000,0.000000,0.000000,0.030000,0.040000,0.000000,0.000000,0.213982,0.003735,1.000000,0.000000,1.000000,0.000000,0.000000,0.000000,0.000000,0.000000,-0.002613,0.000000,NaN,NaN,NaN,NaN,NaN,NaN,NaN,NaN,0.000366,0.000366,NaN,NaN,10.100000,0.184715,195.560400,0.000000,2000.030000,0.000000,0.456000,0.456000,0.000000,0.000000,0.000000,0.967000,0.000000,2.105000,0.000000,0.880000,0.000336,0.000336,0.000336,0.000336,0.237992,0.237991
0.260000,0.001,0,-0.003469,180.000000,0.000000,1.963949,0.000000,0.000000,-0.089761,-9.859344,0.000000,0.000000,0.000000,0.000000,0.060000,0.060000,0.070000,0.070000,0.000000,0.000000,0.000000,0.000000,0.000000,0.000000,0.000000,0.000000,0.000000,0.000000,0.000000,0.000000,0.000000,0.000000,0.000000,0.000000,0.000000,0.000000,10.471900,10.471900,0.000000,0.000000,-0.603775,-0.603775,0.000000,0.000000,0.000000,0.000000,0.000000,0.000000,-10.471900,-10.471900,0.000000,0.000000,0.000000,0.000000,0.000000,0.000000,0.000000,0.000000,0.000000,0.000000,0.000000,0.000000,0.030000,0.040000,0.000000,0.000000,0.212166,0.003703,1.000000,0.000000,1.000000,0.000000,0.000000,0.000000,0.000000,0.000000,-0.003326,0.000000,NaN,NaN,NaN,NaN,NaN,NaN,NaN,NaN,0.000549,0.000549,NaN,NaN,10.100000,0.135316,195.560600,0.000000,1999.986000,0.000000,0.323000,0.323000,0.000000,0.000000,0.000000,0.967000,0.000000,1.494000,0.000000,0.393000,0.000534,0.000534,0.000534,0.000534,0.257987,0.257986
0.270000,0.001,0,-0.003469,180.000000,0.000000,1.963949,0.000000,0.000000,-0.096700,-9.863401,0.000000,0.000000,0.000000,0.000000,0.060000,0.060000,0.070000,0.070000,0.000000,0.000000,0.000000,0.000000,0.000000,0.000000,0.000000,0.000000,0.000000,0.000000,0.000000,0.000000,0.000000,0.000000,0.000000,0.000000,0.000000,0.000000,10.472180,10.472180,0.000000,0.000000,0.267940,0.267940,0.000000,0.000000,0.000000,0.000000,0.000000,0.000000,-10.472180,-10.472180,0.000000,0.000000,0.000000,0.000000,0.000000,0.000000,0.000000,0.000000,0.000000,0.000000,0.000000,0.000000,0.030000,0.040000,0.000000,0.000000,0.210121,0.003667,1.000000,0.000000,1.000000,0.000000,0.000000,0.000000,0.000000,0.000000,-0.003326,0.000000,NaN,NaN,NaN,NaN,NaN,NaN,NaN,NaN,0.000549,0.000549,NaN,NaN,10.100000,0.135316,195.560600,0.000000,1999.986000,0.000000,0.323000,0.323000,0.000000,0.000000,0.000000,0.967000,0.000000,1.494000,0.000000,0.393000,0.000534,0.000534,0.000534,0.000534,0.257987,0.257986
0.280000,0.001,0,-0.003469,180.000000,0.000000,1.963949,0.000000,0.000000,-0.103879,-9.867460,0.000000,0.000000,0.000000,0.000000,0.060000,0.060000,0.070000,0.070000,0.000000,0.000000,0.000000,0.000000,0.000000,0.000000,0.000000,0.000000,0.000000,0.000000,0.000000,0.000000,0.000000,0.000000,0.000000,0.000000,0.000000,0.000000,10.472190,10.472190,0.000000,0.000000,0.300480,0.300480,0.000000,0.000000,0.000000,0.000000,0.000000,0.000000,-10.472190,-10.472190,0.000000,0.000000,0.000000,0.000000,0.000000,0.000000,0.000000,0.000000,0.000000,0.000000,0.000000,0.000000,0.030000,0.040000,0.000000,0.000000,0.207840,0.003628,1.000000,0.000000,1.000000,0.000000,0.000000,0.000000,0.000000,0.000000,-0.004159,0.000000,NaN,NaN,NaN,NaN,NaN,NaN,NaN,NaN,0.000732,0.000732,NaN,NaN,10.100000,0.081954,195.560800,0.000000,2000.040000,0.000000,0.487000,0.487000,0.000000,0.000000,0.000000,0.967000,0.000000,2.251000,0.000000,0.996000,0.000717,0.000717,0.000717,0.000717,0.277983,0.277982
0.290000,0.001,0,-0.003469,180.000000,0.000000,1.963949,0.000000,0.000000,-0.111296,-9.871640,0.000000,0.000000,0.000000,0.000000,0.060000,0.060000,0.070000,0.070000,0.000000,0.000000,0.000000,0.000000,0.000000,0.000000,0.000000,0.000000,0.000000,0.000000,0.000000,0.000000,0.000000,0.000000,0.000000,0.000000,0.000000,0.000000,10.472070,10.472070,0.000000,0.000000,-0.088951,-0.088951,0.000000,0.000000,0.000000,0.000000,0.000000,0.000000,-10.472070,-10.472070,0.000000,0.000000,0.000000,0.000000,0.000000,0.000000,0.000000,0.000000,0.000000,0.000000,0.000000,0.000000,0.030000,0.040000,0.000000,0.000000,0.205292,0.003583,1.000000,0.000000,1.000000,0.000000,0.000000,0.000000,0.000000,0.000000,-0.004159,0.000000,NaN,NaN,NaN,NaN,NaN,NaN,NaN,NaN,0.000732,0.000732,NaN,NaN,10.100000,0.081954,195.560800,0.000000,2000.040000,0.000000,0.487000,0.487000,0.000000,0.000000,0.000000,0.967000,0.000000,2.251000,0.000000,0.996000,0.000717,0.000717,0.000717,0.000717,0.277983,0.277982
0.300000,0.001,0,-0.001206,180.000000,0.000000,2.933996,0.000000,0.000000,4.794896,-2.672049,0.000000,0.000000,10139.000000,10139.000000,0.060000,0.060000,0.061565,0.061565,0.000000,0.000000,0.008435,0.008435,0.000000,0.000000,2.898261,2.898261,0.000000,0.000000,1433.882000,1433.882000,0.000000,0.000000,8694.781000,8694.781000,0.000000,0.000000,7.813384,7.813384,0.000000,0.000000,615.862800,615.862800,0.000000,0.000000,2475.000000,2475.000000,0.000000,0.000000,-7.829692,-7.829692,0.000000,0.000000,0.000000,0.000000,0.000000,0.000000,7519.582000,7519.582000,0.000000,0.000000,0.000000,0.000000,0.030000,0.031565,0.000000,0.000000,0.010635,0.000186,1.000000,0.000000,0.000000,90.000000,0.000000,0.000000,0.000000,0.000000,-0.023427,0.000000,NaN,NaN,12.219470,12.219470,NaN,NaN,0.000000,0.000000,0.000992,0.000992,NaN,NaN,10.100000,0.024605,195.561000,0.000000,1492.246000,0.000000,-27.144000,-27.144000,0.000000,0.000000,0.000000,0.967000,0.000000,-144.946000,0.000000,452.410000,0.000946,0.000946,0.000946,0.000946,0.297977,0.297976
0.310000,0.001,0,-0.001206,180.000000,0.000000,2.933996,0.000000,0.000000,-0.459176,27.626030,13354.070000,13354.070000,14463.120000,14463.120000,0.031264,0.031264,0.033362,0.033362,0.028736,0.028736,0.036638,0.036638,2.827853,2.827853,2.739817,2.739817,4885.178000,4885.178000,6228.407000,6228.407000,8483.555000,8483.555000,8219.447000,8219.447000,0.065452,0.065452,0.065453,0.065453,0.000000,0.000000,-315.912100,-315.912100,0.000000,0.000000,2475.000000,2475.000000,0.000000,0.000000,0.000000,0.000000,-0.000377,0.000377,0.000000,0.000000,32.794540,32.794540,-9270.244000,-9270.244000,128.269900,-128.269900,0.000000,0.000000,0.001264,0.003362,0.000000,0.000000,0.000000,0.000000,1.000000,0.000000,0.000000,90.000000,0.000000,0.000000,0.000000,0.000000,-0.023427,0.000000,NaN,NaN,12.219470,12.219470,NaN,NaN,0.000000,0.000000,0.000992,0.000992,NaN,NaN,10.100000,0.024605,195.561000,0.000000,1492.246000,0.000000,-27.144000,-27.144000,0.000000,0.000000,0.000000,0.967000,0.000000,-144.946000,0.000000,452.410000,0.000946,0.000946,0.000946,0.000946,0.297977,0.297976
0.320000,0.001,0,-0.001206,180.000000,0.000000,2.933996,0.000000,0.000000,1.238189,42.035110,20801.380000,20801.380000,17656.010000,17656.010000,0.004408,0.004408,0.008268,0.008268,0.055592,0.055592,0.061732,0.061732,2.532378,2.532378,2.378315,2.378315,9450.594000,9450.594000,10494.380000,10494.380000,7597.125000,7597.125000,7134.936000,7134.936000,0.008200,0.008200,0.008200,0.008200,0.000000,0.000000,-7.325021,-7.325021,0.000000,0.000000,2475.000000,2475.000000,0.000000,0.000000,0.000000,0.000000,-0.000047,0.000047,0.000000,0.000000,-60.123420,-60.123420,-3690.898000,-3690.898000,25.032660,-25.032660,0.000000,0.000000,-0.025592,-0.021732,0.000000,0.000000,0.000000,0.000000,1.000000,0.000000,0.000000,90.000000,0.000000,0.000000,0.000000,0.000000,-0.060420,0.000000,0.000000,0.000000,-0.063599,-0.063599,-0.035474,0.035474,0.000000,0.000000,0.001480,0.001480,NaN,NaN,10.100000,-0.030337,195.560600,0.000000,2.433000,0.000000,0.000000,0.000000,0.500000,0.000000,0.000000,0.882000,0.000000,0.000000,0.000000,-5.615000,0.001480,0.001480,0.001480,0.001480,0.317964,0.317962
0.330000,0.004,0,-0.001206,180.000000,0.000000,2.933996,0.000000,-0.003540,-8.136605,26.761720,15384.910000,15385.090000,11711.790000,11711.970000,0.000766,0.000766,-0.000014,-0.000014,0.059234,0.059234,0.070014,0.070014,-0.188574,-0.188515,-0.055879,-0.055820,10069.730000,10069.760000,11900.000000,11900.000000,-565.722500,-565.543700,-167.638000,-167.459200,0.004909,0.004911,0.004909,0.004911,0.000000,0.000000,19.445030,19.437790,0.000000,0.000000,2475.000000,2475.000000,0.000000,0.000000,0.000000,0.000000,-0.000057,0.000000,-0.000024,-0.000024,92.899920,92.881720,-1372.688000,-1373.426000,22.172380,0.000983,7.168370,7.168479,-0.029234,-0.030014,0.000000,0.000000,0.000000,0.000000,1.000000,0.000000,0.000000,90.000000,0.000000,0.000000,0.000000,0.000000,-0.060420,0.000000,0.000000,0.000000,-0.063599,-0.063599,-0.035474,0.035474,0.000000,0.000000,0.001480,0.001480,NaN,NaN,10.100000,-0.030337,195.560600,0.000000,2.433000,0.000000,0.000000,0.000000,0.500000,0.000000,0.000000,0.882000,0.000000,0.000000,0.000000,-5.615000,0.001480,0.001480,0.001480,0.001480,0.317964,0.317962
0.340000,0.004,0,-0.001206,180.000000,0.000000,2.933996,0.000000,29.566800,-1.616339,22.168450,13436.440000,12419.210000,11334.160000,10236.460000,0.004240,0.004757,0.001507,0.002023,0.055760,0.055243,0.068493,0.067977,-0.296027,-0.675678,-0.068560,-0.448227,9493.564000,9377.112000,11643.800000,11556.010000,-888.078800,-2027.033000,-205.680600,-1344.680000,0.008124,-0.000351,0.000852,0.000000,0.000000,0.000000,17.698600,-19.197450,0.000000,0.000000,2475.000000,2475.000000,0.000000,0.000000,0.006161,0.000761,0.193075,0.193119,0.181730,0.181730,-46.869240,52.346040,-2026.184000,-155.795600,-11966.570000,-11103.540000,-10189.350000,-9271.729000,-0.025502,-0.028235,0.000000,0.000000,0.000000,0.000000,1.000000,0.000000,0.000000,90.000000,0.000000,36.896050,0.008475,0.000852,0.089203,-0.271191,0.000000,0.000000,-0.046839,-0.004891,21.561860,20.951530,20.300500,19.641880,0.003953,0.003953,NaN,NaN,10.099740,-0.024664,195.559500,0.000000,0.162000,0.000000,0.000000,0.000000,0.500000,0.000000,0.000000,0.882000,0.000000,0.000000,0.000000,0.173000,0.003797,0.003797,0.003797,0.003797,0.337907,0.337903
0.350000,0.005,0,-0.001206,180.000000,0.000000,2.933996,0.000000,-24.712430,-0.177072,16.260390,9759.482000,9753.958000,9417.237000,9738.688000,0.010276,0.011080,0.005100,0.005903,0.049724,0.048920,0.064900,0.064097,-0.779048,-0.606880,-0.534162,-0.361979,8472.983000,8296.805000,11032.960000,10896.400000,-2337.137000,-1820.635000,-1602.482000,-1085.935000,-0.000997,0.000403,0.000000,0.000000,0.000000,0.000000,10.533030,-10.532440,0.000000,0.000000,2475.000000,2475.000000,0.000000,0.000000,-0.000552,-0.000041,-0.077159,-0.077162,-0.076233,-0.076233,20.861150,-9.345891,132.611300,10.302230,8875.238000,8870.654000,8591.558000,8857.983000,-0.019322,-0.024498,0.039565,0.039565,0.000000,0.000000,1.000000,0.000000,0.000000,90.000000,0.000000,36.896050,0.008475,0.000852,0.089203,-0.271191,0.000000,0.000000,-0.046839,-0.004891,21.561860,20.951530,20.300500,19.641880,0.003953,0.003953,NaN,NaN,10.099740,-0.024664,195.559500,0.000000,0.162000,0.000000,0.000000,0.000000,0.500000,0.000000,0.000000,0.882000,0.000000,0.000000,0.000000,0.173000,0.003797,0.003797,0.003797,0.003797,0.337907,0.337903
0.360000,0.006,0,-0.001206,180.000000,0.000000,2.933996,0.000000,19.589990,1.261709,9.933512,6978.293000,6101.135000,8480.235000,7821.521000,0.017691,0.018987,0.010360,0.011656,0.042309,0.041013,0.059640,0.058344,-0.719652,-0.884429,-0.532731,-0.697553,7219.835000,6945.565000,10138.780000,9918.487000,-2158.945000,-2653.273000,-1598.187000,-2092.650000,-0.006874,-0.003529,0.000000,0.000000,0.000000,0.000000,10.532740,-10.532740,0.000000,0.000000,2475.000000,2475.000000,0.000000,0.000000,-0.007408,-0.002995,0.092925,0.092865,0.100923,0.100923,25.663300,-12.698090,1601.545000,597.075300,-6584.437000,-5863.552000,-7817.995000,-7276.432000,-0.011661,-0.018992,0.052339,0.052339,0.000000,0.000000,1.000000,0.000000,0.000000,90.000000,0.000000,21.065480,-0.003344,0.000000,0.073260,-0.117727,0.000000,0.000000,0.043321,0.017007,17.686980,17.160680,18.588140,18.192910,0.006300,0.006300,NaN,NaN,10.099170,-0.010200,195.559500,0.000000,0.000000,0.000000,0.000000,0.000000,0.500000,0.000000,0.000000,0.882000,0.000000,0.000000,0.000000,0.000000,0.006146,0.006146,0.006146,0.006146,0.357850,0.357842
0.370000,0.007,0,-0.001206,180.000000,0.000000,2.933996,0.000000,-14.628840,2.265956,4.094193,3702.437000,3865.568000,6417.369000,6750.248000,0.026189,0.026892,0.017637,0.018340,0.033811,0.033108,0.052363,0.051660,-0.906795,-0.736773,-0.833482,-0.663400,5759.689000,5616.620000,8901.601000,8782.070000,-2720.370000,-2210.306000,-2500.430000,-1990.188000,-0.006768,-0.013848,0.000000,0.000000,0.000000,0.000000,10.532740,-10.532740,0.000000,0.000000,2475.000000,2475.000000,0.000000,0.000000,-0.006419,-0.014197,-0.060605,-0.060723,-0.074810,-0.074810,-35.851960,48.444000,1050.161000,2443.052000,3841.754000,3984.079000,6123.794000,6396.975000,-0.003459,-0.012011,0.034264,0.034264,0.000000,0.000000,1.000000,0.000000,0.000000,90.000000,0.000000,21.065480,-0.003344,0.000000,0.073260,-0.117727,0.000000,0.000000,0.043321,0.017007,17.686980,17.160680,18.588140,18.192910,0.006300,0.006300,NaN,NaN,10.099170,-0.010200,195.559500,0.000000,0.000000,0.000000,0.000000,0.000000,0.500000,0.000000,0.000000,0.882000,0.000000,0.000000,0.000000,0.000000,0.006146,0.006146,0.006146,0.006146,0.357850,0.357842
0.380000,0.008,0,-0.001206,180.000000,0.000000,2.933996,0.000000,10.332780,2.573040,-0.540105,2112.527000,1871.469000,5085.117000,4854.427000,0.034268,0.034776,0.025795,0.026304,0.025732,0.025224,0.044205,0.043696,-0.749215,-0.803530,-0.810355,-0.864595,4381.005000,4281.596000,7514.780000,7428.348000,-2247.634000,-2410.577000,-2431.051000,-2593.771000,-0.018501,-0.010412,0.000000,0.000000,0.000000,0.000000,10.532740,-10.532740,0.000000,0.000000,2475.000000,2475.000000,0.000000,0.000000,-0.018720,-0.010193,0.038091,0.037925,0.053515,0.053515,55.751200,-49.347950,2426.688000,1261.430000,-2051.308000,-1809.297000,-5020.615000,-4827.826000,0.004522,-0.003951,0.019782,0.019782,0.000000,0.000000,1.000000,0.000000,0.000000,90.000000,0.000000,21.065480,-0.008089,0.000000,-0.023979,-0.038826,0.000000,0.000000,0.091143,0.048884,12.746830,12.380520,16.551070,16.412660,0.007580,0.007580,NaN,NaN,10.099220,0.006133,195.559700,0.000000,0.000000,0.000000,0.000000,0.000000,0.500000,0.000000,0.000000,0.882000,0.000000,0.000000,0.000000,0.000000,0.007487,0.007487,0.007487,0.007487,0.377817,0.377808
0.390000,0.008,0,-0.001206,180.000000,0.000000,2.933996,0.000000,-6.068276,2.095804,-4.060537,844.932100,1062.518000,3294.563000,3516.010000,0.041834,0.041868,0.034675,0.034709,0.018166,0.018132,0.035325,0.035291,-0.743508,-0.658140,-0.918493,-0.833064,3088.543000,3082.123000,6005.190000,5999.405000,-2230.516000,-1974.411000,-2755.467000,-2499.183000,-0.012065,-0.021584,0.000000,0.000000,0.000000,0.000000,10.532740,-10.532740,0.000000,0.000000,2475.000000,2475.000000,0.000000,0.000000,-0.011963,-0.021687,-0.017716,-0.017909,-0.035497,-0.035497,-57.363870,63.817620,1004.706000,1943.823000,381.579600,485.085100,2981.214000,3181.592000,0.011851,0.004692,0.019782,0.019782,0.000000,0.000000,1.000000,0.000000,0.000000,90.000000,0.000000,21.065480,-0.008089,0.000000,-0.023979,-0.038826,0.000000,0.000000,0.091143,0.048884,12.746830,12.380520,16.551070,16.412660,0.007580,0.007580,NaN,NaN,10.099220,0.006133,195.559700,0.000000,0.000000,0.000000,0.000000,0.000000,0.500000,0.000000,0.000000,0.882000,0.000000,0.000000,0.000000,0.000000,0.007487,0.007487,0.007487,0.007487,0.377817,0.377808
0.400000,0.008,0,0.041056,17.948920,0.012748,0.720349,0.000418,0.073989,1.479544,-7.129421,79.435300,185.843600,1906.947000,2011.563000,0.048399,0.048190,0.043539,0.043331,0.011601,0.011810,0.026461,0.026669,-0.617474,-0.591472,-0.880465,-0.854462,1970.961000,2008.857000,4498.323000,4533.783000,-1852.420000,-1774.412000,-2641.390000,-2563.382000,-0.019394,-0.020010,0.000000,0.000000,0.000000,0.000000,10.532740,-10.532740,0.000000,0.000000,2475.000000,2475.000000,0.000000,0.000000,-0.019410,-0.019995,0.002793,0.002567,0.001616,0.001616,5.884170,2.224669,943.556800,1025.317000,-5.656660,-12.159410,-78.571030,-82.881340,0.018295,0.013435,-0.019782,0.000000,0.000000,0.000000,1.000000,0.000000,0.000000,90.000000,0.000000,21.065480,0.000616,0.000000,-0.103120,0.018574,0.000000,0.000000,0.072550,0.075548,0.736210,0.686165,0.529645,0.535405,0.008113,0.008113,NaN,NaN,10.099230,0.019733,195.560000,0.000000,0.000000,0.000000,0.000000,0.000000,0.500000,0.000000,0.000000,0.882000,0.000000,0.000000,0.000000,0.000000,0.008083,0.008083,0.008083,0.008083,0.397803,0.397793
0.410000,0.008,0,0.041056,17.948920,0.012748,0.720349,0.000418,-0.050179,0.708129,-9.160995,0.000000,0.000000,636.834500,768.256800,0.053915,0.053475,0.052046,0.051606,0.006085,0.006525,0.017954,0.018394,-0.508174,-0.486910,-0.824630,-0.803351,1033.157000,1110.747000,3052.235000,3127.055000,-984.240800,-1054.210000,-2473.890000,-2410.053000,-0.021485,-0.022951,0.000000,0.000000,0.000000,0.000000,10.532740,-10.532740,0.000000,0.000000,2475.000000,2475.000000,0.000000,0.000000,-0.021511,-0.022926,0.004584,0.004329,0.001883,0.001883,1.189028,1.607517,349.209400,448.985600,0.000000,0.000000,-30.574760,-36.884530,0.023695,0.021826,-0.019782,-0.019782,0.000000,0.000000,1.000000,0.000000,0.000000,90.000000,0.000000,21.065480,0.000616,0.000000,-0.103120,0.018574,0.000000,0.000000,0.072550,0.075548,0.736210,0.686165,0.529645,0.535405,0.008113,0.008113,NaN,NaN,10.099230,0.019733,195.560000,0.000000,0.000000,0.000000,0.000000,0.000000,0.500000,0.000000,0.000000,0.882000,0.000000,0.000000,0.000000,0.000000,0.008083,0.008083,0.008083,0.008083,0.397803,0.397793
0.420000,0.008,0,0.041056,17.948920,0.012748,0.720349,0.000418,0.003107,0.012363,-10.318900,0.000000,0.000000,0.000000,0.000000,0.058371,0.057762,0.059729,0.059120,0.001629,0.002238,0.010271,0.010880,-0.404999,-0.390381,-0.726819,-0.712231,276.371600,381.111400,1745.987000,1849.539000,-225.302600,-324.832800,-1804.234000,-1902.826000,-0.020721,-0.022168,0.000000,0.000000,0.000000,0.000000,10.532740,-10.532740,0.000000,0.000000,2475.000000,2475.000000,0.000000,0.000000,-0.020761,-0.022128,0.006995,0.006749,0.004385,0.004385,-1.132382,-1.093966,10.789860,10.789860,0.000000,0.000000,0.000000,0.000000,0.028067,0.029425,-0.034264,-0.034264,0.000000,0.000000,1.000000,0.000000,0.000000,90.000000,0.000000,21.065480,0.001447,0.000000,-0.126202,0.010436,0.000000,0.000000,0.126056,0.126056,0.000000,0.000000,0.000000,0.000000,0.008479,0.008479,NaN,NaN,10.099120,0.029137,195.560400,0.000000,0.000000,0.000000,0.000000,0.000000,0.500000,0.000000,0.000000,0.882000,0.000000,0.000000,0.000000,0.000000,0.008445,0.008445,0.008445,0.008445,0.417794,0.417784
0.430000,0.009,0,0.041056,17.948920,0.012748,0.720349,0.000418,0.004838,0.027376,-10.089710,0.000000,0.000000,0.000000,0.000000,0.060000,0.060000,0.066360,0.065597,0.000000,0.000000,0.003640,0.004403,0.000000,0.000000,-0.620261,-0.604510,0.000000,0.000000,618.829900,748.504100,0.000000,0.000000,-675.593000,-799.901900,-0.020535,-0.021763,0.000000,0.000000,0.000000,0.000000,10.532740,-10.532740,0.000000,0.000000,2475.000000,2475.000000,0.020535,0.021763,-0.019025,-0.020414,0.000000,0.000000,0.003802,0.003802,0.000000,0.000000,10.789900,10.789900,0.000000,0.000000,0.000000,0.000000,0.030000,0.035978,0.000000,-0.039565,0.032677,0.000570,1.000000,0.000000,0.000000,90.000000,0.000000,21.065480,0.001447,0.000000,-0.126202,0.010436,0.000000,0.000000,0.126056,0.126056,0.000000,0.000000,0.000000,0.000000,0.008479,0.008479,NaN,NaN,10.099120,0.029137,195.560400,0.000000,0.000000,0.000000,0.000000,0.000000,0.500000,0.000000,0.000000,0.882000,0.000000,0.000000,0.000000,0.000000,0.008445,0.008445,0.008445,0.008445,0.417794,0.417784
0.440000,0.009,0,0.041056,17.948920,0.012748,0.720349,0.000418,0.006488,0.034560,-9.843228,0.000000,0.000000,0.000000,0.000000,0.060000,0.060000,0.070000,0.070000,0.000000,0.000000,0.000000,0.000000,0.000000,0.000000,0.000000,0.000000,0.000000,0.000000,0.000000,0.000000,0.000000,0.000000,0.000000,0.000000,-0.020535,-0.021763,0.000000,0.000000,0.000000,0.000000,10.532740,-10.532740,0.000000,0.000000,2475.000000,2475.000000,0.020535,0.021763,0.000000,0.000000,0.000000,0.000000,0.000000,0.000000,0.000000,0.000000,0.000000,0.000000,0.000000,0.000000,0.000000,0.000000,0.030000,0.040000,0.000000,0.000000,0.054268,0.000947,1.000000,0.000000,0.000000,90.000000,0.000000,21.065480,0.001228,0.000000,-0.119055,0.012619,NaN,NaN,NaN,NaN,NaN,NaN,NaN,NaN,0.008828,0.008828,NaN,NaN,10.098980,0.034550,195.560700,0.000000,0.000000,0.000000,0.000000,0.000000,0.500000,0.000000,0.000000,0.882000,0.000000,0.000000,0.000000,0.000000,0.008795,0.008795,0.008795,0.008795,0.437786,0.437775
0.450000,0.009,0,0.041056,17.948920,0.012748,0.720349,0.000418,0.007725,0.039890,-9.810438,0.000000,0.000000,0.000000,0.000000,0.060000,0.060000,0.070000,0.070000,0.000000,0.000000,0.000000,0.000000,0.000000,0.000000,0.000000,0.000000,0.000000,0.000000,0.000000,0.000000,0.000000,0.000000,0.000000,0.000000,-0.020535,-0.021763,0.000000,0.000000,0.000000,0.000000,10.532740,-10.532740,0.000000,0.000000,2475.000000,2475.000000,0.020535,0.021763,0.000000,0.000000,0.000000,0.000000,0.000000,0.000000,0.000000,0.000000,0.000000,0.000000,0.000000,0.000000,0.000000,0.000000,0.030000,0.040000,0.000000,0.000000,-0.013947,-0.000243,1.000000,0.000000,0.000000,90.000000,0.000000,21.065480,0.001228,0.000000,-0.119055,0.012619,NaN,NaN,NaN,NaN,NaN,NaN,NaN,NaN,0.008828,0.008828,NaN,NaN,10.098980,0.034550,195.560700,0.000000,0.000000,0.000000,0.000000,0.000000,0.500000,0.000000,0.000000,0.882000,0.000000,0.000000,0.000000,0.000000,0.008795,0.008795,0.008795,0.008795,0.437786,0.437775
0.460000,0.009,0,0.041056,17.948920,0.012748,0.720349,0.000418,0.008962,0.052146,-9.810066,0.000000,0.000000,0.000000,0.000000,0.060000,0.060000,0.070000,0.070000,0.000000,0.000000,0.000000,0.000000,0.000000,0.000000,0.000000,0.000000,0.000000,0.000000,0.000000,0.000000,0.000000,0.000000,0.000000,0.000000,-0.020535,-0.021763,0.000000,0.000000,0.000000,0.000000,10.532740,-10.532740,0.000000,0.000000,2475.000000,2475.000000,0.020535,0.021763,0.000000,0.000000,0.000000,0.000000,0.000000,0.000000,0.000000,0.000000,0.000000,0.000000,0.000000,0.000000,0.000000,0.000000,0.030000,0.040000,0.000000,0.000000,-0.082161,-0.001434,1.000000,0.000000,0.000000,90.000000,0.000000,21.065480,0.001228,0.000000,-0.119063,0.012619,NaN,NaN,NaN,NaN,NaN,NaN,NaN,NaN,0.009130,0.009130,NaN,NaN,10.098860,0.036079,195.561000,0.000000,0.000000,0.000000,0.000000,0.000000,0.500000,0.000000,0.000000,0.882000,0.000000,0.000000,0.000000,0.000000,0.009097,0.009097,0.009097,0.009097,0.457778,0.457767
0.470000,0.009,0,0.041056,17.948920,0.012748,0.720349,0.000418,0.010199,0.064127,-9.809834,0.000000,0.000000,0.000000,0.000000,0.060000,0.060000,0.070000,0.070000,0.000000,0.000000,0.000000,0.000000,0.000000,0.000000,0.000000,0.000000,0.000000,0.000000,0.000000,0.000000,0.000000,0.000000,0.000000,0.000000,-0.020535,-0.021763,0.000000,0.000000,0.000000,0.000000,10.532740,-10.532740,0.000000,0.000000,2475.000000,2475.000000,0.020535,0.021763,0.000000,0.000000,0.000000,0.000000,0.000000,0.000000,0.000000,0.000000,0.000000,0.000000,0.000000,0.000000,0.000000,0.000000,0.030000,0.040000,0.000000,-0.019782,-0.150383,-0.002625,1.000000,0.000000,0.000000,90.000000,0.000000,21.065480,0.001228,0.000000,-0.119063,0.012619,NaN,NaN,NaN,NaN,NaN,NaN,NaN,NaN,0.009130,0.009130,NaN,NaN,10.098860,0.036079,195.561000,0.000000,0.000000,0.000000,0.000000,0.000000,0.500000,0.000000,0.000000,0.882000,0.000000,0.000000,0.000000,0.000000,0.009097,0.009097,0.009097,0.009097,0.457778,0.457767
0.480000,0.009,0,0.041056,17.948920,0.012748,0.720349,0.000418,0.011436,0.075833,-9.809734,0.000000,0.000000,0.000000,0.000000,0.060000,0.060000,0.070000,0.070000,0.000000,0.000000,0.000000,0.000000,0.000000,0.000000,0.000000,0.000000,0.000000,0.000000,0.000000,0.000000,0.000000,0.000000,0.000000,0.000000,-0.020535,-0.021763,0.000000,0.000000,0.000000,0.000000,10.532740,-10.532740,0.000000,0.000000,2475.000000,2475.000000,0.020535,0.021763,0.000000,0.000000,0.000000,0.000000,0.000000,0.000000,0.000000,0.000000,0.000000,0.000000,0.000000,0.000000,0.000000,0.000000,0.030000,0.040000,0.000000,0.000000,-0.218605,-0.003815,1.000000,0.000000,0.000000,90.000000,0.000000,21.065480,0.001228,0.000000,-0.119064,0.012619,NaN,NaN,NaN,NaN,NaN,NaN,NaN,NaN,0.009444,0.009444,NaN,NaN,10.098740,0.033688,195.561300,0.000000,0.000000,0.000000,0.000000,0.000000,0.500000,0.000000,0.000000,0.882000,0.000000,0.000000,0.000000,0.000000,0.009411,0.009411,0.009411,0.009411,0.477771,0.477759
0.490000,0.010,0,0.041056,17.948920,0.012748,0.720349,0.000418,0.012673,0.087263,-9.809768,0.000000,0.000000,0.000000,0.000000,0.060000,0.060000,0.070000,0.070000,0.000000,0.000000,0.000000,0.000000,0.000000,0.000000,0.000000,0.000000,0.000000,0.000000,0.000000,0.000000,0.000000,0.000000,0.000000,0.000000,-0.020535,-0.021763,0.000000,0.000000,0.000000,0.000000,10.532740,-10.532740,0.000000,0.000000,2475.000000,2475.000000,0.020535,0.021763,0.000000,0.000000,0.000000,0.000000,0.000000,0.000000,0.000000,0.000000,0.000000,0.000000,0.000000,0.000000,0.000000,0.000000,0.030000,0.040000,0.000000,0.000000,-0.286827,-0.005006,1.000000,0.000000,0.000000,90.000000,0.000000,21.065480,0.001228,0.000000,-0.119064,0.012619,NaN,NaN,NaN,NaN,NaN,NaN,NaN,NaN,0.009444,0.009444,NaN,NaN,10.098740,0.033688,195.561300,0.000000,0.000000,0.000000,0.000000,0.000000,0.500000,0.000000,0.000000,0.882000,0.000000,0.000000,0.000000,0.000000,0.009411,0.009411,0.009411,0.009411,0.477771,0.477759
0.500000,0.010,0,0.055493,10.360670,0.010006,0.254492,-0.002315,-0.609013,0.067677,-8.316949,1271.904000,1533.726000,0.000000,0.000000,0.058850,0.057053,0.070000,0.070000,0.001150,0.002947,0.000000,0.000000,0.375420,0.357747,0.000000,0.000000,194.397400,503.622500,0.000000,0.000000,1126.201000,1073.186000,0.000000,0.000000,-0.013471,-0.010396,1.045133,1.045133,0.000000,0.000000,495.674000,495.674000,0.000000,0.000000,0.000000,0.000000,0.000000,0.000000,-1.045133,-1.045133,0.014461,0.014323,0.000000,0.000000,-9.596072,-25.869250,0.000000,0.000000,-468.859400,-560.001800,0.000000,0.000000,0.027952,0.040000,-0.071326,0.000000,-0.306648,-0.005352,1.000000,0.000000,1.000000,0.000000,0.000000,0.000000,-0.003075,0.000000,-0.108110,-0.012604,0.000000,0.000000,NaN,NaN,4.421124,4.509452,NaN,NaN,0.009771,0.009771,NaN,NaN,10.098570,0.027454,195.561500,0.000000,199.605000,0.000000,4.198000,4.198000,0.000000,0.000000,0.000000,0.908000,0.000000,208.914000,0.000000,165.536000,0.009724,0.009724,0.009724,0.009724,0.497763,0.497751
0.510000,0.010,0,0.055493,10.360670,0.010006,0.254492,-0.002315,-0.142658,0.027908,-6.943785,2019.224000,2300.302000,0.000000,0.000000,0.054954,0.053227,0.070000,0.070000,0.005046,0.006773,0.000000,0.000000,0.398889,0.390470,0.000000,0.000000,853.479200,1157.149000,0.000000,0.000000,1196.595000,1171.339000,0.000000,0.000000,0.006602,0.016017,2.393253,2.393253,0.000000,0.000000,511.311800,511.311800,0.000000,0.000000,0.000000,0.000000,0.000000,0.000000,-2.393253,-2.393253,0.001724,0.001854,0.000000,0.000000,-31.337310,-35.143220,0.000000,0.000000,-88.749260,-108.730100,0.000000,0.000000,0.024091,0.040000,-0.071326,0.000000,-0.269257,-0.004699,1.000000,0.000000,1.000000,0.000000,0.000000,0.000000,-0.003075,0.000000,-0.108110,-0.012604,0.000000,0.000000,NaN,NaN,4.421124,4.509452,NaN,NaN,0.009771,0.009771,NaN,NaN,10.098570,0.027454,195.561500,0.000000,199.605000,0.000000,4.198000,4.198000,0.000000,0.000000,0.000000,0.908000,0.000000,208.914000,0.000000,165.536000,0.009724,0.009724,0.009724,0.009724,0.497763,0.497751
0.520000,0.010,0,0.055493,10.360670,0.010006,0.254492,-0.002315,-0.115160,-0.007987,-5.998909,2728.406000,2973.670000,0.000000,0.000000,0.050928,0.049332,0.070000,0.070000,0.009072,0.010668,0.000000,0.000000,0.401035,0.385180,0.000000,0.000000,1534.819000,1821.959000,0.000000,0.000000,1203.027000,1155.465000,0.000000,0.000000,0.036836,0.048913,3.773751,3.773751,0.000000,0.000000,521.236100,521.236100,0.000000,0.000000,0.000000,0.000000,0.000000,0.000000,-3.773751,-3.773751,0.000961,0.001455,0.000000,0.000000,-41.880680,-45.008900,0.000000,0.000000,-66.873300,-110.311000,0.000000,0.000000,0.020130,0.040000,-0.062557,0.000000,-0.202202,-0.003529,1.000000,0.000000,1.000000,0.000000,0.000000,0.000000,-0.012078,0.000000,-0.015591,-0.011252,0.000000,0.000000,NaN,NaN,0.341472,0.528445,NaN,NaN,0.010105,0.010105,NaN,NaN,10.098530,0.019357,195.561200,0.000000,720.733000,0.000000,16.719000,16.719000,0.000000,0.000000,0.000000,0.953000,0.000000,219.378000,0.000000,173.868000,0.010044,0.010044,0.010044,0.010044,0.517755,0.517743
0.530000,0.011,0,0.055493,10.360670,0.010006,0.254492,-0.002315,-0.092108,-0.040280,-5.192216,3342.053000,3541.725000,0.000000,0.000000,0.047042,0.045641,0.070000,0.070000,0.012958,0.014359,0.000000,0.000000,0.376850,0.354886,0.000000,0.000000,2193.697000,2450.928000,0.000000,0.000000,1130.481000,1064.592000,0.000000,0.000000,0.074641,0.088917,5.173006,5.173006,0.000000,0.000000,526.511100,526.511100,0.000000,0.000000,0.000000,0.000000,0.000000,0.000000,-5.173006,-5.173006,0.000306,0.001248,0.000000,0.000000,-50.575870,-53.065820,0.000000,0.000000,-26.090060,-112.663300,0.000000,0.000000,0.016341,0.040000,-0.059347,0.000000,-0.103424,-0.001805,1.000000,0.000000,1.000000,0.000000,0.000000,0.000000,-0.012078,0.000000,-0.015591,-0.011252,0.000000,0.000000,NaN,NaN,0.341472,0.528445,NaN,NaN,0.010105,0.010105,NaN,NaN,10.098530,0.019357,195.561200,0.000000,720.733000,0.000000,16.719000,16.719000,0.000000,0.000000,0.000000,0.953000,0.000000,219.378000,0.000000,173.868000,0.010044,0.010044,0.010044,0.010044,0.517755,0.517743
0.540000,0.012,0,0.055493,10.360670,0.010006,0.254492,-0.002315,-0.113566,0.539107,-3.755918,3865.923000,3962.042000,1135.313000,2140.090000,0.043508,0.042391,0.069282,0.068165,0.016492,0.017609,0.000718,0.001835,0.341788,0.298709,0.359107,0.625894,2794.356000,3003.195000,122.090000,311.887700,1025.311000,896.080000,1077.265000,1877.584000,0.117677,0.135270,6.325437,6.325437,0.000000,0.000000,495.104800,750.327300,0.000000,0.000000,0.000000,0.000000,0.000000,0.000000,-6.207791,-6.190134,0.004878,0.006334,0.037719,0.037719,-53.274280,-65.442120,1115.794000,1966.535000,-480.727500,-639.765400,-6.861949,-12.122860,0.012949,0.038724,-0.048457,-0.039565,0.000000,0.000000,1.000000,0.000000,1.000000,0.000000,0.000000,-255.222500,-0.017593,0.000000,0.128242,-0.030681,0.000000,0.000000,8.544232,8.509597,1.908674,2.497127,17.776580,15.577110,0.011707,0.011707,NaN,NaN,10.098510,0.011973,195.559400,0.000000,1208.069000,0.000000,29.216000,29.216000,0.000000,0.000000,0.000000,0.966000,0.000000,222.273000,0.000000,229.556000,0.011478,0.011478,0.011478,0.011478,0.537720,0.537706
0.550000,0.013,0,0.055493,10.360670,0.010006,0.254492,-0.002315,0.050347,3.557461,0.607817,4290.061000,4303.141000,3496.571000,3493.805000,0.040343,0.039667,0.062077,0.061401,0.019657,0.020333,0.007923,0.008599,0.296310,0.252128,0.745043,0.700787,3334.946000,3463.401000,1346.828000,1461.740000,888.896400,756.355400,2235.048000,2102.283000,0.171757,0.193564,6.087919,6.087919,0.000000,0.000000,711.757500,711.152200,0.000000,0.000000,0.000000,0.000000,0.000000,0.000000,-5.916162,-5.894351,-0.000709,0.001395,0.040008,0.040008,-74.719670,-71.743640,2994.978000,2992.959000,77.486890,-153.035400,-20.007550,-20.065620,0.010005,0.031739,-0.019782,-0.019782,0.000000,0.000000,1.000000,0.000000,1.000000,0.000000,0.000000,-255.222500,-0.017593,0.000000,0.128242,-0.030681,0.000000,0.000000,8.544232,8.509597,1.908674,2.497127,17.776580,15.577110,0.011707,0.011707,NaN,NaN,10.098510,0.011973,195.559400,0.000000,1208.069000,0.000000,29.216000,29.216000,0.000000,0.000000,0.000000,0.966000,0.000000,222.273000,0.000000,229.556000,0.011478,0.011478,0.011478,0.011478,0.537720,0.537706
0.560000,0.015,0,0.055493,10.360670,0.010006,0.254492,-0.002315,-0.053668,4.782196,2.764057,4581.719000,4534.613000,4851.047000,4795.969000,0.037720,0.037452,0.054450,0.054181,0.022280,0.022548,0.015550,0.015819,0.238806,0.200957,0.768661,0.730783,3784.457000,3836.117000,2643.468000,2689.094000,716.402600,602.858200,2305.935000,2192.301000,0.233250,0.253408,5.226146,5.226146,0.000000,0.000000,773.329900,761.957100,0.000000,0.000000,0.000000,0.000000,0.000000,0.000000,-4.992887,-4.972742,-0.002436,0.000366,0.035601,0.035602,-77.871040,-76.610510,3947.724000,3909.814000,284.575100,-42.258010,-27.262920,-27.106660,0.007586,0.024316,-0.019782,0.000000,0.000000,0.000000,1.000000,0.000000,1.000000,0.000000,0.000000,11.372800,-0.020158,0.000000,0.207799,-0.026912,0.000000,0.000000,6.953830,6.894496,-1.005697,0.150387,8.677862,7.997387,0.015263,0.015263,NaN,NaN,10.098520,0.006638,195.555600,0.000000,998.120000,0.000000,24.596000,24.596000,0.000000,0.000000,0.000000,0.964000,0.000000,221.774000,0.000000,259.496000,0.014805,0.014805,0.014805,0.014805,0.557639,0.557620
